[{"id":"AKDED","lat":4.591483333333334,"lon":6.726991666666667,"name":"AKDED","type":"WIF","icao_code":"DN","area_code":"AFR"},{"id":"ANUXI","lat":4.765227777777778,"lon":7.125486111111111,"name":"ANUXI","type":"WKF","icao_code":"DN","area_code":"AFR"},{"id":"BOPRU","lat":5.084983333333334,"lon":6.3714305555555555,"name":"BOPRU","type":"WKF","icao_code":"DN","area_code":"AFR"},{"id":"BULBA","lat":4.895694444444445,"lon":6.220288888888889,"name":"BULBA","type":"WIF","icao_code":"DN","area_code":"AFR"},{"id":"EDKAN","lat":4.730177777777778,"lon":6.491991666666666,"name":"EDKAN","type":"WIF","icao_code":"DN","area_code":"AFR"},{"id":"ENBOS","lat":5.130172222222222,"lon":6.349525,"name":"ENBOS","type":"WIF","icao_code":"DN","area_code":"AFR"},{"id":"GU400","lat":4.949613888888889,"lon":6.2823,"name":"GU400","type":"WAF","icao_code":"DN","area_code":"AFR"},{"id":"GU500","lat":5.048891666666667,"lon":6.336575,"name":"GU500","type":"WAF","icao_code":"DN","area_code":"AFR"},{"id":"GUR22","lat":5.0123388888888885,"lon":6.301275,"name":"GUR22","type":"WMF","icao_code":"DN","area_code":"AFR"},{"id":"GUR41","lat":4.998969444444445,"lon":6.294641666666666,"name":"GUR41","type":"WMF","icao_code":"DN","area_code":"AFR"},{"id":"IKPEK","lat":4.872725,"lon":6.311602777777778,"name":"IKPEK","type":"WIF","icao_code":"DN","area_code":"AFR"},{"id":"MILDI","lat":4.641005555555555,"lon":6.718530555555556,"name":"MILDI","type":"WKF","icao_code":"DN","area_code":"AFR"},{"id":"NASDU","lat":4.716461111111111,"lon":7.1134305555555555,"name":"NASDU","type":"WIF","icao_code":"DN","area_code":"AFR"},{"id":"ONKEP","lat":5.413786111111111,"lon":5.645136111111111,"name":"ONKEP","type":"WIF","icao_code":"DN","area_code":"AFR"},{"id":"OVKIV","lat":4.6843972222222225,"lon":6.743775,"name":"OVKIV","type":"WIF","icao_code":"DN","area_code":"AFR"},{"id":"PH400","lat":4.7932749999999995,"lon":7.083933333333333,"name":"PH400","type":"WAF","icao_code":"DN","area_code":"AFR"},{"id":"RIRAX","lat":5.459833333333333,"lon":5.625080555555556,"name":"RIRAX","type":"WKF","icao_code":"DN","area_code":"AFR"},{"id":"RULDA","lat":4.900880555555555,"lon":6.270113888888889,"name":"RULDA","type":"WKF","icao_code":"DN","area_code":"AFR"},{"id":"SIRMU","lat":4.821680555555556,"lon":7.041847222222223,"name":"SIRMU","type":"WMF","icao_code":"DN","area_code":"AFR"},{"id":"SK400","lat":4.649966666666667,"lon":6.6692583333333335,"name":"SK400","type":"WAF","icao_code":"DN","area_code":"AFR"},{"id":"SK500","lat":4.671702777777778,"lon":6.549730555555556,"name":"SK500","type":"WAF","icao_code":"DN","area_code":"AFR"},{"id":"SKR10","lat":4.662630555555555,"lon":6.599633333333333,"name":"SKR10","type":"WMF","icao_code":"DN","area_code":"AFR"},{"id":"SKR28","lat":4.659041666666667,"lon":6.6193583333333335,"name":"SKR28","type":"WMF","icao_code":"DN","area_code":"AFR"},{"id":"TESBU","lat":4.794808333333333,"lon":7.165969444444444,"name":"TESBU","type":"WIF","icao_code":"DN","area_code":"AFR"},{"id":"TESNI","lat":4.637263888888889,"lon":6.475213888888889,"name":"TESNI","type":"WIF","icao_code":"DN","area_code":"AFR"},{"id":"UGNES","lat":5.0644833333333334,"lon":6.417175,"name":"UGNES","type":"WIF","icao_code":"DN","area_code":"AFR"},{"id":"VOBRU","lat":4.680658333333334,"lon":6.500455555555556,"name":"VOBRU","type":"WKF","icao_code":"DN","area_code":"AFR"},{"id":"WA400","lat":5.494472222222222,"lon":5.661397222222222,"name":"WA400","type":"WAF","icao_code":"DN","area_code":"AFR"},{"id":"WAR05","lat":5.529552777777778,"lon":5.698180555555556,"name":"WAR05","type":"WMF","icao_code":"DN","area_code":"AFR"},{"id":"XUPMI","lat":5.482183333333333,"lon":5.580177777777778,"name":"XUPMI","type":"WIF","icao_code":"DN","area_code":"AFR"},{"id":"KL401","lat":18.4052,"lon":1.2612277777777778,"name":"KL401","type":"WLF","icao_code":"GA","area_code":"AFR"},{"id":"KL402","lat":18.410933333333332,"lon":1.3222833333333333,"name":"KL402","type":"WAF","icao_code":"GA","area_code":"AFR"},{"id":"KL403","lat":18.417833333333334,"lon":1.3960416666666666,"name":"KL403","type":"WMF","icao_code":"GA","area_code":"AFR"},{"id":"KL404","lat":18.465541666666667,"lon":1.2308916666666667,"name":"KL404","type":"WIF","icao_code":"GA","area_code":"AFR"},{"id":"KL405","lat":18.398622222222222,"lon":1.1914583333333333,"name":"KL405","type":"WIF","icao_code":"GA","area_code":"AFR"},{"id":"KL406","lat":18.340363888888888,"lon":1.2438333333333333,"name":"KL406","type":"WIF","icao_code":"GA","area_code":"AFR"},{"id":"FN303","lat":35.262166666666666,"lon":-2.87025,"name":"MIA123005","type":"IAF","icao_code":"GE","area_code":"AFR"},{"id":"MN303","lat":35.29869444444444,"lon":-2.938472222222222,"name":"MIA123001","type":"IMF","icao_code":"GE","area_code":"AFR"},{"id":"AGMAX","lat":47.67419722222222,"lon":-52.98855277777778,"name":"AGMAX","type":"WIF","icao_code":"CY","area_code":"CAN"},{"id":"ALNEM","lat":44.77005555555556,"lon":-63.558525,"name":"ALNEM","type":"WIF","icao_code":"CY","area_code":"CAN"},{"id":"ALPIG","lat":49.80166666666667,"lon":-86.811,"name":"ALPIG","type":"W F","icao_code":"CY","area_code":"CAN"},{"id":"ANAXO","lat":48.354905555555554,"lon":-123.26852777777778,"name":"ANAXO","type":"WLF","icao_code":"CY","area_code":"CAN"},{"id":"ANTIT","lat":53.209786111111114,"lon":-114.77480277777778,"name":"ANTIT","type":"WIF","icao_code":"CY","area_code":"CAN"},{"id":"AVILL","lat":45.121205555555555,"lon":-79.54506666666667,"name":"AVILL","type":"WMF","icao_code":"CY","area_code":"CAN"},{"id":"AVREG","lat":49.31543333333333,"lon":-123.13860555555556,"name":"AVREG","type":"W D","icao_code":"CY","area_code":"CAN"},{"id":"AVRIT","lat":53.25536388888889,"lon":-114.8083,"name":"AVRIT","type":"WKF","icao_code":"CY","area_code":"CAN"},{"id":"AVSUB","lat":44.3966,"lon":-79.68087777777778,"name":"AVSUB","type":"WIF","icao_code":"CY","area_code":"CAN"},{"id":"AVULU","lat":46.428241666666665,"lon":-79.91056111111111,"name":"AVULU","type":"WAF","icao_code":"CY","area_code":"CAN"},{"id":"AXORI","lat":49.30276944444444,"lon":-123.12925555555556,"name":"AXORI","type":"W F","icao_code":"CY","area_code":"CAN"},{"id":"AXUMU","lat":50.33009722222222,"lon":-125.10254166666667,"name":"AXUMU","type":"WMF","icao_code":"CY","area_code":"CAN"},{"id":"BIJTO","lat":48.377858333333336,"lon":-123.33516388888889,"name":"BIJTO","type":"WAF","icao_code":"CY","area_code":"CAN"},{"id":"BONAD","lat":47.62424722222222,"lon":-52.98643333333333,"name":"BONAD","type":"WLF","icao_code":"CY","area_code":"CAN"},{"id":"BOROR","lat":53.215183333333336,"lon":-114.95996944444444,"name":"BOROR","type":"WMF","icao_code":"CY","area_code":"CAN"},{"id":"BOSOD","lat":46.311908333333335,"lon":-79.92250833333334,"name":"BOSOD","type":"W F","icao_code":"CY","area_code":"CAN"},{"id":"BOXEP","lat":53.52806944444445,"lon":-113.55403055555556,"name":"BOXEP","type":"WSF","icao_code":"CY","area_code":"CAN"},{"id":"DANIV","lat":48.38441666666667,"lon":-123.38538888888888,"name":"DANIV","type":"W D","icao_code":"CY","area_code":"CAN"},{"id":"DAROX","lat":49.7217,"lon":-86.96308333333333,"name":"DAROX","type":"RMF","icao_code":"CY","area_code":"CAN"},{"id":"DASOK","lat":45.081408333333336,"lon":-79.58779166666666,"name":"DASOK","type":"WAF","icao_code":"CY","area_code":"CAN"},{"id":"DUGMO","lat":47.652275,"lon":-52.861975,"name":"DUGMO","type":"WIF","icao_code":"CY","area_code":"CAN"},{"id":"DUGVU","lat":53.23522222222222,"lon":-114.88445555555556,"name":"DUGVU","type":"WAF","icao_code":"CY","area_code":"CAN"},{"id":"DUNIP","lat":53.17433611111111,"lon":-115.00776388888889,"name":"DUNIP","type":"W F","icao_code":"CY","area_code":"CAN"},{"id":"DUPAM","lat":49.306469444444446,"lon":-123.22668888888889,"name":"DUPAM","type":"W D","icao_code":"CY","area_code":"CAN"},{"id":"DUSIV","lat":53.607283333333335,"lon":-113.66029444444445,"name":"DUSIV","type":"WIF","icao_code":"CY","area_code":"CAN"},{"id":"DUTUV","lat":47.896369444444446,"lon":-54.922383333333336,"name":"DUTUV","type":"WMF","icao_code":"CY","area_code":"CAN"},{"id":"DUVDI","lat":47.98229444444444,"lon":-70.07124444444445,"name":"DUVDI","type":"WMF","icao_code":"CY","area_code":"CAN"},{"id":"DUVOV","lat":46.47235833333333,"lon":-79.78996944444444,"name":"DUVOV","type":"WIF","icao_code":"CY","area_code":"CAN"},{"id":"EBGUS","lat":47.56623333333334,"lon":-52.93716388888889,"name":"EBGUS","type":"WAF","icao_code":"CY","area_code":"CAN"},{"id":"EBKOK","lat":47.474330555555554,"lon":-52.98009444444445,"name":"EBKOK","type":"W F","icao_code":"CY","area_code":"CAN"},{"id":"EBLOG","lat":45.04159444444444,"lon":-79.63045833333334,"name":"EBLOG","type":"WLF","icao_code":"CY","area_code":"CAN"},{"id":"EBNEK","lat":49.317283333333336,"lon":-123.51432777777778,"name":"EBNEK","type":"W F","icao_code":"CY","area_code":"CAN"},{"id":"ELTIT","lat":44.14095833333333,"lon":-79.99949166666667,"name":"ELTIT","type":"WIF","icao_code":"CY","area_code":"CAN"},{"id":"EMALA","lat":49.30123611111111,"lon":-123.18357222222222,"name":"EMALA","type":"WMF","icao_code":"CY","area_code":"CAN"},{"id":"ENAXU","lat":45.864805555555556,"lon":-66.385275,"name":"ENAXU","type":"WSF","icao_code":"CY","area_code":"CAN"},{"id":"ESVEK","lat":47.141508333333334,"lon":-70.48903333333334,"name":"ESVEK","type":"WMF","icao_code":"CY","area_code":"CAN"},{"id":"FF128","lat":53.698483333333336,"lon":-113.50053611111112,"name":"EB308002","type":"IAF","icao_code":"CY","area_code":"CAN"},{"id":"FF204","lat":53.70896944444444,"lon":-113.40730277777777,"name":"EB024003","type":"IAF","icao_code":"CY","area_code":"CAN"},{"id":"FF291","lat":53.63681111111111,"lon":-113.38514444444445,"name":"EB111003","type":"IAF","icao_code":"CY","area_code":"CAN"},{"id":"GOXAN","lat":44.73108055555556,"lon":-63.48263055555555,"name":"GOXAN","type":"WKF","icao_code":"CY","area_code":"CAN"},{"id":"IGTAK","lat":45.830463888888886,"lon":-66.06237222222222,"name":"IGTAK","type":"WIF","icao_code":"CY","area_code":"CAN"},{"id":"IGTEL","lat":47.81894166666667,"lon":-70.02285,"name":"IGTEL","type":"WIF","icao_code":"CY","area_code":"CAN"},{"id":"IGVUN","lat":45.07180833333334,"lon":-79.68665555555556,"name":"IGVUN","type":"WIF","icao_code":"CY","area_code":"CAN"},{"id":"IKBEV","lat":44.4099,"lon":-79.811075,"name":"IKBEV","type":"WIF","icao_code":"CY","area_code":"CAN"},{"id":"IKBUL","lat":49.339444444444446,"lon":-123.74111111111111,"name":"IKBUL","type":"WKF","icao_code":"CY","area_code":"CAN"},{"id":"IKLUM","lat":48.294761111111114,"lon":-123.19328055555556,"name":"IKLUM","type":"WIF","icao_code":"CY","area_code":"CAN"},{"id":"IKMAV","lat":44.19415,"lon":-80.05533333333334,"name":"IKMAV","type":"WLF","icao_code":"CY","area_code":"CAN"},{"id":"IKNEK","lat":47.84715833333333,"lon":-54.935272222222224,"name":"IKNEK","type":"WAF","icao_code":"CY","area_code":"CAN"},{"id":"IKNIL","lat":44.690525,"lon":-63.52363888888889,"name":"IKNIL","type":"WAF","icao_code":"CY","area_code":"CAN"},{"id":"ILOLA","lat":49.22420555555556,"lon":-123.20706388888888,"name":"ILOLA","type":"W D","icao_code":"CY","area_code":"CAN"},{"id":"ILOTO","lat":48.40076944444444,"lon":-123.40186388888888,"name":"ILOTO","type":"WMF","icao_code":"CY","area_code":"CAN"},{"id":"ILUVA","lat":47.625655555555554,"lon":-52.91254444444444,"name":"ILUVA","type":"WIF","icao_code":"CY","area_code":"CAN"},{"id":"ITLAT","lat":46.39168055555555,"lon":-79.91432222222222,"name":"ITLAT","type":"WSF","icao_code":"CY","area_code":"CAN"},{"id":"ITNAM","lat":46.715025,"lon":-71.68057222222222,"name":"ITNAM","type":"WIF","icao_code":"CY","area_code":"CAN"},{"id":"ITPAD","lat":47.18532777777778,"lon":-70.60628333333334,"name":"ITPAD","type":"WLF","icao_code":"CY","area_code":"CAN"},{"id":"KANOS","lat":49.657666666666664,"lon":-86.93483055555555,"name":"KANOS","type":"RAF","icao_code":"CY","area_code":"CAN"},{"id":"KAVKU","lat":47.57429444444445,"lon":-52.984316666666665,"name":"KAVKU","type":"WAF","icao_code":"CY","area_code":"CAN"},{"id":"KAXUP","lat":47.07129166666667,"lon":-70.69755,"name":"KAXUP","type":"WIF","icao_code":"CY","area_code":"CAN"},{"id":"KEGLO","lat":50.220983333333336,"lon":-125.009,"name":"KEGLO","type":"WLF","icao_code":"CY","area_code":"CAN"},{"id":"KEKRA","lat":46.88291111111111,"lon":-71.52251944444444,"name":"KEKRA","type":"WMF","icao_code":"CY","area_code":"CAN"},{"id":"KEMDA","lat":47.49449444444444,"lon":-52.99963611111111,"name":"KEMDA","type":"W F","icao_code":"CY","area_code":"CAN"},{"id":"KENGU","lat":48.41656944444444,"lon":-123.25277222222222,"name":"KENGU","type":"W D","icao_code":"CY","area_code":"CAN"},{"id":"KEPLO","lat":49.16699166666667,"lon":-123.91707777777778,"name":"KEPLO","type":"WMF","icao_code":"CY","area_code":"CAN"},{"id":"KESPI","lat":44.22931666666667,"lon":-79.99062222222223,"name":"KESPI","type":"WAF","icao_code":"CY","area_code":"CAN"},{"id":"KIRIV","lat":45.00176666666667,"lon":-79.67306388888889,"name":"KIRIV","type":"WIF","icao_code":"CY","area_code":"CAN"},{"id":"KISIN","lat":48.41211944444444,"lon":-123.22251111111112,"name":"KISIN","type":"RIF","icao_code":"CY","area_code":"CAN"},{"id":"KITET","lat":53.57942777777778,"lon":-113.76933333333334,"name":"KITET","type":"WIF","icao_code":"CY","area_code":"CAN"},{"id":"LEPAK","lat":47.16132777777778,"lon":-70.542,"name":"LEPAK","type":"WAF","icao_code":"CY","area_code":"CAN"},{"id":"LEXOV","lat":49.295255555555556,"lon":-123.387125,"name":"LEXOV","type":"WAF","icao_code":"CY","area_code":"CAN"},{"id":"LEXUL","lat":45.01135277777778,"lon":-79.57431944444444,"name":"LEXUL","type":"WIF","icao_code":"CY","area_code":"CAN"},{"id":"LGATE","lat":49.315666666666665,"lon":-123.13866666666667,"name":"LGATE        (GPS)","type":"R D","icao_code":"CY","area_code":"CAN"},{"id":"LIBUS","lat":53.54238333333333,"lon":-113.61361111111111,"name":"LIBUS","type":"WAF","icao_code":"CY","area_code":"CAN"},{"id":"LIDIG","lat":47.783097222222224,"lon":-54.97956666666666,"name":"LIDIG","type":"WIF","icao_code":"CY","area_code":"CAN"},{"id":"LIDIM","lat":46.48372222222222,"lon":-80.02090555555556,"name":"LIDIM","type":"WIF","icao_code":"CY","area_code":"CAN"},{"id":"LIVTU","lat":47.957794444444446,"lon":-70.06396666666667,"name":"LIVTU","type":"WSF","icao_code":"CY","area_code":"CAN"},{"id":"LODVO","lat":47.623419444444444,"lon":-70.324425,"name":"LODVO","type":"W F","icao_code":"CY","area_code":"CAN"},{"id":"MAPOP","lat":49.77356944444445,"lon":-86.67586111111112,"name":"MAPOP","type":"RIF","icao_code":"CY","area_code":"CAN"},{"id":"MASUT","lat":47.871763888888886,"lon":-54.92883055555556,"name":"MASUT","type":"WSF","icao_code":"CY","area_code":"CAN"},{"id":"MEBAB","lat":47.27591666666667,"lon":-70.53346111111111,"name":"MEBAB","type":"WIF","icao_code":"CY","area_code":"CAN"},{"id":"MEDSI","lat":47.61447777777778,"lon":-52.82610555555556,"name":"MEDSI","type":"WIF","icao_code":"CY","area_code":"CAN"},{"id":"MERGI","lat":53.633002777777776,"lon":-113.384,"name":"MERGI","type":"WAF","icao_code":"CY","area_code":"CAN"},{"id":"MODEV","lat":47.93329166666667,"lon":-70.05669444444445,"name":"MODEV","type":"WAF","icao_code":"CY","area_code":"CAN"},{"id":"MURLA","lat":50.0968,"lon":-124.91439166666666,"name":"MURLA","type":"WIF","icao_code":"CY","area_code":"CAN"},{"id":"MUTKI","lat":44.3566,"lon":-79.75523888888888,"name":"MUTKI","type":"WLF","icao_code":"CY","area_code":"CAN"},{"id":"MUVAS","lat":47.871205555555555,"lon":-70.13928055555556,"name":"MUVAS","type":"WIF","icao_code":"CY","area_code":"CAN"},{"id":"MUVNI","lat":49.23626388888889,"lon":-123.846575,"name":"MUVNI","type":"WSZ","icao_code":"CY","area_code":"CAN"},{"id":"NABLI","lat":45.18749722222222,"lon":-79.47372777777778,"name":"NABLI","type":"W F","icao_code":"CY","area_code":"CAN"},{"id":"NAGAM","lat":44.26745555555556,"lon":-79.920275,"name":"NAGAM","type":"WMF","icao_code":"CY","area_code":"CAN"},{"id":"NORUD","lat":47.025755555555556,"lon":-70.57564166666667,"name":"NORUD","type":"W F","icao_code":"CY","area_code":"CAN"},{"id":"NOXEM","lat":44.20113888888889,"lon":-80.04243333333334,"name":"NOXEM","type":"W F","icao_code":"CY","area_code":"CAN"},{"id":"NUDAR","lat":47.52319444444444,"lon":-52.974666666666664,"name":"NUDAR","type":"WMF","icao_code":"CY","area_code":"CAN"},{"id":"OBRUL","lat":44.144308333333335,"lon":-79.890425,"name":"OBRUL","type":"W F","icao_code":"CY","area_code":"CAN"},{"id":"ODBUT","lat":53.569583333333334,"lon":-113.25435833333333,"name":"ODBUT","type":"WIF","icao_code":"CY","area_code":"CAN"},{"id":"OMIDI","lat":46.478097222222225,"lon":-79.905425,"name":"OMIDI","type":"WKF","icao_code":"CY","area_code":"CAN"},{"id":"OMLOR","lat":47.622791666666664,"lon":-53.060316666666665,"name":"OMLOR","type":"WIF","icao_code":"CY","area_code":"CAN"},{"id":"OMTAK","lat":50.280772222222225,"lon":-125.05474722222222,"name":"OMTAK","type":"WAF","icao_code":"CY","area_code":"CAN"},{"id":"ONBIX","lat":47.80020277777778,"lon":-54.90989166666667,"name":"ONBIX","type":"WKF","icao_code":"CY","area_code":"CAN"},{"id":"OVBAT","lat":47.88428611111111,"lon":-70.04217222222222,"name":"OVBAT","type":"WLF","icao_code":"CY","area_code":"CAN"},{"id":"OVDIT","lat":45.880811111111115,"lon":-66.35475555555556,"name":"OVDIT","type":"WAF","icao_code":"CY","area_code":"CAN"},{"id":"PETKA","lat":47.52428333333334,"lon":-52.98220277777778,"name":"PETKA","type":"WMF","icao_code":"CY","area_code":"CAN"},{"id":"PEVGA","lat":46.826975,"lon":-71.57531388888889,"name":"PEVGA","type":"WAF","icao_code":"CY","area_code":"CAN"},{"id":"PIKMI","lat":48.37016944444444,"lon":-123.30223055555555,"name":"PIKMI","type":"W D","icao_code":"CY","area_code":"CAN"},{"id":"PUPUT","lat":53.56093055555556,"lon":-113.69143888888888,"name":"PUPUT","type":"WLF","icao_code":"CY","area_code":"CAN"},{"id":"RABUX","lat":44.27645277777778,"lon":-79.90365833333334,"name":"RABUX","type":"WMF","icao_code":"CY","area_code":"CAN"},{"id":"RESUK","lat":46.77429444444444,"lon":-71.72486944444445,"name":"RESUK","type":"WIF","icao_code":"CY","area_code":"CAN"},{"id":"RIDIK","lat":48.45922222222222,"lon":-123.29655277777778,"name":"RIDIK","type":"W D","icao_code":"CY","area_code":"CAN"},{"id":"RIGAV","lat":53.493716666666664,"lon":-113.41171944444444,"name":"RIGAV","type":"W F","icao_code":"CY","area_code":"CAN"},{"id":"SEDAM","lat":49.27023888888889,"lon":-123.81190833333334,"name":"SEDAM","type":"WAF","icao_code":"CY","area_code":"CAN"},{"id":"SELAV","lat":53.52370555555556,"lon":-113.53590555555556,"name":"SELAV","type":"WMF","icao_code":"CY","area_code":"CAN"},{"id":"SELIX","lat":44.24731388888889,"lon":-80.111275,"name":"SELIX","type":"WIF","icao_code":"CY","area_code":"CAN"},{"id":"SERNO","lat":50.34721111111111,"lon":-125.11187222222222,"name":"SERNO","type":"WMF","icao_code":"CY","area_code":"CAN"},{"id":"SESNI","lat":45.854375,"lon":-66.14265833333333,"name":"SESNI","type":"WIF","icao_code":"CY","area_code":"CAN"},{"id":"SIKTO","lat":44.64995555555556,"lon":-63.56458888888889,"name":"SIKTO","type":"WMF","icao_code":"CY","area_code":"CAN"},{"id":"TADGU","lat":49.57761388888889,"lon":-86.89961944444444,"name":"TADGU","type":"RLF","icao_code":"CY","area_code":"CAN"},{"id":"TAGPO","lat":47.791494444444446,"lon":-54.836866666666666,"name":"TAGPO","type":"WIF","icao_code":"CY","area_code":"CAN"},{"id":"TOXOR","lat":47.60926111111111,"lon":-52.8996,"name":"TOXOR","type":"WLF","icao_code":"CY","area_code":"CAN"},{"id":"UBVEV","lat":49.255116666666666,"lon":-123.026125,"name":"UBVEV","type":"W Z","icao_code":"CY","area_code":"CAN"},{"id":"UBVIR","lat":45.910802777777775,"lon":-66.29748333333333,"name":"UBVIR","type":"WLF","icao_code":"CY","area_code":"CAN"},{"id":"UKSIV","lat":49.18785833333333,"lon":-123.89610555555555,"name":"UKSIV","type":"W D","icao_code":"CY","area_code":"CAN"},{"id":"UKVUT","lat":47.52581388888889,"lon":-53.110055555555554,"name":"UKVUT","type":"W F","icao_code":"CY","area_code":"CAN"},{"id":"ULBIM","lat":49.29754166666667,"lon":-123.31076388888889,"name":"ULBIM","type":"WSF","icao_code":"CY","area_code":"CAN"},{"id":"UMIGU","lat":47.94557777777778,"lon":-54.90946944444445,"name":"UMIGU","type":"W F","icao_code":"CY","area_code":"CAN"},{"id":"URMAP","lat":44.30327222222222,"lon":-79.69950277777778,"name":"URMAP","type":"WIF","icao_code":"CY","area_code":"CAN"},{"id":"URPAD","lat":46.37838611111111,"lon":-79.9156888888889,"name":"URPAD","type":"WMF","icao_code":"CY","area_code":"CAN"},{"id":"URSIM","lat":47.897283333333334,"lon":-69.9450138888889,"name":"URSIM","type":"WIF","icao_code":"CY","area_code":"CAN"},{"id":"URTAG","lat":44.15391388888889,"lon":-80.12919444444445,"name":"URTAG","type":"WIF","icao_code":"CY","area_code":"CAN"},{"id":"URTIM","lat":45.850791666666666,"lon":-66.41196666666667,"name":"URTIM","type":"WMF","icao_code":"CY","area_code":"CAN"},{"id":"URVOM","lat":46.77101111111111,"lon":-71.62799722222222,"name":"URVOM","type":"WLF","icao_code":"CY","area_code":"CAN"},{"id":"VIPDA","lat":44.692052777777775,"lon":-63.406841666666665,"name":"VIPDA","type":"WIF","icao_code":"CY","area_code":"CAN"},{"id":"VIRLO","lat":53.664658333333335,"lon":-113.44896666666666,"name":"VIRLO","type":"WMF","icao_code":"CY","area_code":"CAN"},{"id":"VISOP","lat":47.471377777777775,"lon":-53.12743888888889,"name":"VISOP","type":"W F","icao_code":"CY","area_code":"CAN"},{"id":"VIVAN","lat":50.32971388888889,"lon":-125.09680833333333,"name":"VIVAN","type":"WSF","icao_code":"CY","area_code":"CAN"},{"id":"VIVIK","lat":44.316716666666665,"lon":-79.82919444444444,"name":"VIVIK","type":"WAF","icao_code":"CY","area_code":"CAN"},{"id":"VODES","lat":53.51456944444445,"lon":-113.72251388888888,"name":"VODES","type":"WIF","icao_code":"CY","area_code":"CAN"},{"id":"VOLEL","lat":53.60131111111111,"lon":-113.31913055555556,"name":"VOLEL","type":"WLF","icao_code":"CY","area_code":"CAN"},{"id":"XERUB","lat":49.299775,"lon":-123.23445,"name":"XERUB","type":"WSF","icao_code":"CY","area_code":"CAN"},{"id":"XIDIX","lat":53.618825,"lon":-113.24052222222222,"name":"XIDIX","type":"WIF","icao_code":"CY","area_code":"CAN"},{"id":"XORUT","lat":46.7117,"lon":-71.58380277777778,"name":"XORUT","type":"WIF","icao_code":"CY","area_code":"CAN"},{"id":"XOTIL","lat":48.032241666666664,"lon":-70.06901666666667,"name":"XOTIL","type":"W F","icao_code":"CY","area_code":"CAN"},{"id":"YVR11","lat":49.255405555555555,"lon":-123.21449722222222,"name":"YVR330011","type":"I D","icao_code":"CY","area_code":"CAN"},{"id":"BAETT","lat":68.03382222222223,"lon":-152.04190555555556,"name":"BAETT","type":"W F","icao_code":"PA","area_code":"CAN"},{"id":"CATOK","lat":68.14662222222222,"lon":-151.71566944444444,"name":"CATOK","type":"WMZ","icao_code":"PA","area_code":"CAN"},{"id":"COTIG","lat":68.37875555555556,"lon":-151.47537777777777,"name":"COTIG","type":"WIF","icao_code":"PA","area_code":"CAN"},{"id":"EGBOY","lat":68.30354166666666,"lon":-151.3802472222222,"name":"EGBOY","type":"WLF","icao_code":"PA","area_code":"CAN"},{"id":"FANIV","lat":70.4589,"lon":-148.88778055555557,"name":"FANIV","type":"WAF","icao_code":"PA","area_code":"CAN"},{"id":"FASPI","lat":70.4634138888889,"lon":-148.53601944444443,"name":"FASPI","type":"WAF","icao_code":"PA","area_code":"CAN"},{"id":"GOSHN","lat":70.36772777777777,"lon":-148.36189166666668,"name":"GOSHN","type":"WIF","icao_code":"PA","area_code":"CAN"},{"id":"HANTU","lat":68.4184361111111,"lon":-151.4163027777778,"name":"HANTU","type":"WMF","icao_code":"PA","area_code":"CAN"},{"id":"JIBIB","lat":70.34890555555556,"lon":-148.99320555555556,"name":"JIBIB","type":"WIF","icao_code":"PA","area_code":"CAN"},{"id":"MAINS","lat":70.48536944444444,"lon":-148.66965,"name":"MAINS","type":"WMF","icao_code":"PA","area_code":"CAN"},{"id":"MAJET","lat":70.48535277777778,"lon":-148.72759444444443,"name":"MAJET","type":"WMF","icao_code":"PA","area_code":"CAN"},{"id":"OMBEE","lat":68.33531944444445,"lon":-151.44605833333333,"name":"OMBEE","type":"W D","icao_code":"PA","area_code":"CAN"},{"id":"SELRE","lat":68.23200277777778,"lon":-151.53340833333334,"name":"SELRE","type":"WAF","icao_code":"PA","area_code":"CAN"},{"id":"TEBOE","lat":70.43411388888889,"lon":-148.3581,"name":"TEBOE","type":"WLF","icao_code":"PA","area_code":"CAN"},{"id":"TESGE","lat":70.42341111111111,"lon":-149.10209166666667,"name":"TESGE","type":"W F","icao_code":"PA","area_code":"CAN"},{"id":"ZEGTI","lat":68.21166388888889,"lon":-151.57698888888888,"name":"ZEGTI","type":"W D","icao_code":"PA","area_code":"CAN"},{"id":"FAT12","lat":49.257844444444444,"lon":15.970130555555556,"name":"FAT12","type":"RAF","icao_code":"LK","area_code":"EEU"},{"id":"FAT30","lat":49.083225,"lon":16.294458333333335,"name":"FAT30","type":"RAF","icao_code":"LK","area_code":"EEU"},{"id":"NA12F","lat":49.25222222222222,"lon":15.961666666666666,"name":"NA12F","type":"RAF","icao_code":"LK","area_code":"EEU"},{"id":"NA12G","lat":49.26777777777778,"lon":15.977777777777778,"name":"NA12G","type":"R F","icao_code":"LK","area_code":"EEU"},{"id":"NA30F","lat":49.07888888888889,"lon":16.291944444444443,"name":"NA30F","type":"RAF","icao_code":"LK","area_code":"EEU"},{"id":"90VOR","lat":48.23976666666667,"lon":11.53356111111111,"name":"MAH096009","type":"IPF","icao_code":"ED","area_code":"EUR"},{"id":"DEP11","lat":48.708394444444444,"lon":10.766519444444445,"name":"DEP11","type":"W D","icao_code":"ED","area_code":"EUR"},{"id":"DEP29","lat":48.706744444444446,"lon":10.771477777777777,"name":"DEP29","type":"WMF","icao_code":"ED","area_code":"EUR"},{"id":"EDELO","lat":48.24460555555556,"lon":11.608647222222222,"name":"EDELO","type":"WAF","icao_code":"ED","area_code":"EUR"},{"id":"FATO","lat":48.23795,"lon":11.565419444444444,"name":"FATO","type":"WMF","icao_code":"ED","area_code":"EUR"},{"id":"FD096","lat":48.24373888888889,"lon":11.496636111111112,"name":"MAH096008","type":"WAF","icao_code":"ED","area_code":"EUR"},{"id":"HL165","lat":53.874697222222224,"lon":11.083277777777777,"name":"HL165","type":"CIZ","icao_code":"ED","area_code":"EUR"},{"id":"HL265","lat":53.73486111111111,"lon":10.356316666666666,"name":"HL265","type":"CIZ","icao_code":"ED","area_code":"EUR"},{"id":"MD096","lat":48.23684444444444,"lon":11.56063611111111,"name":"MAH096010","type":"IMF","icao_code":"ED","area_code":"EUR"},{"id":"MX010","lat":48.21222222222222,"lon":11.400277777777777,"name":"MX010","type":"W F","icao_code":"ED","area_code":"EUR"},{"id":"MX011","lat":48.2199,"lon":11.448788888888888,"name":"MX011","type":"WLF","icao_code":"ED","area_code":"EUR"},{"id":"MX012","lat":48.18749722222222,"lon":11.460061111111111,"name":"MX012","type":"W F","icao_code":"ED","area_code":"EUR"},{"id":"MX013","lat":48.23793611111111,"lon":11.585330555555556,"name":"MX013","type":"W F","icao_code":"ED","area_code":"EUR"},{"id":"MX014","lat":48.21406944444445,"lon":11.580525,"name":"MX014","type":"W F","icao_code":"ED","area_code":"EUR"},{"id":"MX020","lat":48.2132,"lon":11.671133333333334,"name":"MX020","type":"W F","icao_code":"ED","area_code":"EUR"},{"id":"MX021","lat":48.21848055555556,"lon":11.705625,"name":"MX021","type":"W F","icao_code":"ED","area_code":"EUR"},{"id":"MX022","lat":48.24270833333333,"lon":11.697336111111111,"name":"MX022","type":"W F","icao_code":"ED","area_code":"EUR"},{"id":"MX023","lat":48.25470555555555,"lon":11.67445,"name":"MX023","type":"WLF","icao_code":"ED","area_code":"EUR"},{"id":"MX024","lat":48.237922222222224,"lon":11.53046111111111,"name":"MX024","type":"W F","icao_code":"ED","area_code":"EUR"},{"id":"MX025","lat":48.21321666666667,"lon":11.530316666666666,"name":"MX025","type":"W F","icao_code":"ED","area_code":"EUR"},{"id":"MX026","lat":48.21318055555555,"lon":11.618608333333333,"name":"MX026","type":"W F","icao_code":"ED","area_code":"EUR"},{"id":"MX510","lat":48.237947222222225,"lon":11.590352777777778,"name":"MX510","type":"W D","icao_code":"ED","area_code":"EUR"},{"id":"MX511","lat":48.232397222222225,"lon":11.603655555555555,"name":"MX511","type":"W D","icao_code":"ED","area_code":"EUR"},{"id":"MX512","lat":48.213369444444446,"lon":11.617472222222222,"name":"MX512","type":"W D","icao_code":"ED","area_code":"EUR"},{"id":"MX513","lat":48.21843055555556,"lon":11.586836111111111,"name":"MX513","type":"W D","icao_code":"ED","area_code":"EUR"},{"id":"MX520","lat":48.237947222222225,"lon":11.544791666666667,"name":"MX520","type":"W D","icao_code":"ED","area_code":"EUR"},{"id":"MX521","lat":48.22123333333333,"lon":11.544688888888889,"name":"MX521","type":"W D","icao_code":"ED","area_code":"EUR"},{"id":"MX522","lat":48.22123055555556,"lon":11.569877777777778,"name":"MX522","type":"W D","icao_code":"ED","area_code":"EUR"},{"id":"MX523","lat":48.23790555555556,"lon":11.468441666666667,"name":"MX523","type":"W D","icao_code":"ED","area_code":"EUR"},{"id":"OSKOB","lat":48.688319444444446,"lon":10.826716666666666,"name":"OSKOB","type":"WAF","icao_code":"ED","area_code":"EUR"},{"id":"PIROV","lat":48.22742777777778,"lon":11.497288888888889,"name":"PIROV","type":"WAF","icao_code":"ED","area_code":"EUR"},{"id":"PR411","lat":48.61644722222222,"lon":10.849822222222222,"name":"PR411","type":"W F","icao_code":"ED","area_code":"EUR"},{"id":"PR412","lat":48.63366388888889,"lon":10.893677777777778,"name":"PR412","type":"W F","icao_code":"ED","area_code":"EUR"},{"id":"PR413","lat":48.66712777777778,"lon":10.89038611111111,"name":"PR413","type":"WDF","icao_code":"ED","area_code":"EUR"},{"id":"PR414","lat":48.71733888888889,"lon":10.739744444444444,"name":"PR414","type":"WDF","icao_code":"ED","area_code":"EUR"},{"id":"PR510","lat":48.70122222222222,"lon":10.7881,"name":"PR510","type":"W D","icao_code":"ED","area_code":"EUR"},{"id":"PR520","lat":48.714525,"lon":10.74806388888889,"name":"PR520","type":"W D","icao_code":"ED","area_code":"EUR"},{"id":"UNTUN","lat":48.68134166666667,"lon":10.847602777777778,"name":"UNTUN","type":"WAF","icao_code":"ED","area_code":"EUR"},{"id":"APSIL","lat":60.05912222222222,"lon":24.769702777777777,"name":"APSIL","type":"WIF","icao_code":"EF","area_code":"EUR"},{"id":"AQUTE","lat":62.91636111111111,"lon":27.724955555555557,"name":"AQUTE","type":"WMF","icao_code":"EF","area_code":"EUR"},{"id":"CATIF","lat":62.773025,"lon":27.747333333333334,"name":"CATIF","type":"WLF","icao_code":"EF","area_code":"EUR"},{"id":"DEHOK","lat":60.12779444444445,"lon":24.641991666666666,"name":"DEHOK","type":"WIF","icao_code":"EF","area_code":"EUR"},{"id":"ELCUT","lat":60.071133333333336,"lon":24.65780277777778,"name":"ELCUT","type":"WIF","icao_code":"EF","area_code":"EUR"},{"id":"ENKIF","lat":62.994733333333336,"lon":27.652191666666667,"name":"ENKIF","type":"W F","icao_code":"EF","area_code":"EUR"},{"id":"ERMOV","lat":62.774969444444444,"lon":27.854930555555555,"name":"ERMOV","type":"WIF","icao_code":"EF","area_code":"EUR"},{"id":"ESCAL","lat":62.87490277777778,"lon":27.653252777777777,"name":"ESCAL","type":"WMF","icao_code":"EF","area_code":"EUR"},{"id":"FANPE","lat":62.828975,"lon":27.695752777777777,"name":"FANPE","type":"WAF","icao_code":"EF","area_code":"EUR"},{"id":"GIGAX","lat":62.84016111111111,"lon":27.913033333333335,"name":"GIGAX","type":"WIF","icao_code":"EF","area_code":"EUR"},{"id":"HUBIF","lat":62.86686111111111,"lon":27.770397222222222,"name":"HUBIF","type":"WAF","icao_code":"EF","area_code":"EUR"},{"id":"INPUR","lat":62.76387777777778,"lon":27.85430277777778,"name":"INPUR","type":"WIF","icao_code":"EF","area_code":"EUR"},{"id":"INWIS","lat":62.82087777777778,"lon":27.812508333333334,"name":"INWIS","type":"WLF","icao_code":"EF","area_code":"EUR"},{"id":"IRWIX","lat":62.95118611111111,"lon":27.582341666666668,"name":"IRWIX","type":"W F","icao_code":"EF","area_code":"EUR"},{"id":"ITIME","lat":60.10507777777778,"lon":24.730944444444443,"name":"ITIME","type":"WLF","icao_code":"EF","area_code":"EUR"},{"id":"JAFAL","lat":60.138980555555555,"lon":24.804236111111113,"name":"JAFAL","type":"WAF","icao_code":"EF","area_code":"EUR"},{"id":"NASUV","lat":62.739086111111114,"lon":27.66764166666667,"name":"NASUV","type":"WIF","icao_code":"EF","area_code":"EUR"},{"id":"POROW","lat":60.17798611111111,"lon":24.88885833333333,"name":"POROW","type":"WMF","icao_code":"EF","area_code":"EUR"},{"id":"RAKFU","lat":62.727069444444446,"lon":27.78954166666667,"name":"RAKFU","type":"WIF","icao_code":"EF","area_code":"EUR"},{"id":"RAVAN","lat":62.801522222222225,"lon":27.712116666666667,"name":"RAVAN","type":"WIF","icao_code":"EF","area_code":"EUR"},{"id":"SHABO","lat":60.21631111111111,"lon":24.972313888888888,"name":"SHABO","type":"W F","icao_code":"EF","area_code":"EUR"},{"id":"VH26E","lat":52.10604166666667,"lon":-2.5228722222222224,"name":"VH26E","type":"WIF","icao_code":"EG","area_code":"EUR"},{"id":"VH26F","lat":52.09146666666667,"lon":-2.683291666666667,"name":"VH26F","type":"WAF","icao_code":"EG","area_code":"EUR"},{"id":"VH26I","lat":52.09875,"lon":-2.603083333333333,"name":"VH26I","type":"WLF","icao_code":"EG","area_code":"EUR"},{"id":"VH26M","lat":52.083575,"lon":-2.769616666666667,"name":"VH26M","type":"WMF","icao_code":"EG","area_code":"EUR"},{"id":"VH26N","lat":52.148158333333335,"lon":-2.614875,"name":"VH26N","type":"WIF","icao_code":"EG","area_code":"EUR"},{"id":"VH26S","lat":52.04935277777778,"lon":-2.5913,"name":"VH26S","type":"WIF","icao_code":"EG","area_code":"EUR"},{"id":"VHM01","lat":52.07624166666667,"lon":-2.849763888888889,"name":"VHM01","type":"W F","icao_code":"EG","area_code":"EUR"},{"id":"VHM02","lat":52.02679722222222,"lon":-2.8377944444444445,"name":"VHM02","type":"W F","icao_code":"EG","area_code":"EUR"},{"id":"VP04A","lat":51.02985,"lon":-1.6742277777777779,"name":"VP04A","type":"WIF","icao_code":"EG","area_code":"EUR"},{"id":"VP04B","lat":51.04775,"lon":-1.5658611111111111,"name":"VP04B","type":"WIF","icao_code":"EG","area_code":"EUR"},{"id":"VP04F","lat":51.11466388888889,"lon":-1.5955527777777778,"name":"VP04F","type":"WAF","icao_code":"EG","area_code":"EUR"},{"id":"VP04I","lat":51.07297222222222,"lon":-1.6342611111111112,"name":"VP04I","type":"WLF","icao_code":"EG","area_code":"EUR"},{"id":"VP04M","lat":51.13879444444444,"lon":-1.5730916666666666,"name":"VP04M","type":"WMF","icao_code":"EG","area_code":"EUR"},{"id":"VP22A","lat":51.25646388888889,"lon":-1.413613888888889,"name":"VP22A","type":"W F","icao_code":"EG","area_code":"EUR"},{"id":"VP22B","lat":51.186055555555555,"lon":-1.4047527777777777,"name":"VP22B","type":"WIF","icao_code":"EG","area_code":"EUR"},{"id":"VP22F","lat":51.18170833333333,"lon":-1.5150555555555556,"name":"VP22F","type":"WAF","icao_code":"EG","area_code":"EUR"},{"id":"VP22I","lat":51.21846388888889,"lon":-1.4652361111111112,"name":"VP22I","type":"WLF","icao_code":"EG","area_code":"EUR"},{"id":"VP22M","lat":51.160358333333335,"lon":-1.5439500000000002,"name":"VP22M","type":"WMF","icao_code":"EG","area_code":"EUR"},{"id":"VP26A","lat":51.212630555555556,"lon":-1.3243055555555556,"name":"VP26A","type":"WIF","icao_code":"EG","area_code":"EUR"},{"id":"VP35A","lat":50.98744166666667,"lon":-1.6507472222222224,"name":"VP35A","type":"WIF","icao_code":"EG","area_code":"EUR"},{"id":"VPM04","lat":51.14806111111111,"lon":-1.4563055555555555,"name":"VPM04","type":"W F","icao_code":"EG","area_code":"EUR"},{"id":"VPN01","lat":51.168166666666664,"lon":-1.5494722222222221,"name":"VPN01","type":"W D","icao_code":"EG","area_code":"EUR"},{"id":"VPN02","lat":51.18563888888889,"lon":-1.5210833333333333,"name":"VPN02","type":"W D","icao_code":"EG","area_code":"EUR"},{"id":"VPN03","lat":51.18877777777778,"lon":-1.4169444444444443,"name":"VPN03","type":"W D","icao_code":"EG","area_code":"EUR"},{"id":"AMUDU","lat":55.49135833333333,"lon":8.232927777777778,"name":"AMUDU","type":"IIF","icao_code":"EK","area_code":"EUR"},{"id":"DIMEV","lat":55.427955555555556,"lon":7.877833333333333,"name":"DIMEV","type":"WIF","icao_code":"EK","area_code":"EUR"},{"id":"FISKO","lat":55.68472222222222,"lon":11.77111111111111,"name":"FISKO","type":"R F","icao_code":"EK","area_code":"EUR"},{"id":"GATMA","lat":55.46826388888889,"lon":11.847675,"name":"GATMA","type":"WIF","icao_code":"EK","area_code":"EUR"},{"id":"HN320","lat":55.5836,"lon":7.648358333333333,"name":"HN320","type":"WMF","icao_code":"EK","area_code":"EUR"},{"id":"HN321","lat":55.542794444444446,"lon":7.708677777777778,"name":"HN321","type":"WAF","icao_code":"EK","area_code":"EUR"},{"id":"HN322","lat":55.49178611111111,"lon":7.783980555555556,"name":"HN322","type":"WLF","icao_code":"EK","area_code":"EUR"},{"id":"HR280","lat":55.508944444444445,"lon":7.910091666666666,"name":"HR280","type":"IMF","icao_code":"EK","area_code":"EUR"},{"id":"HR281","lat":55.50888333333333,"lon":8.003891666666666,"name":"HR281","type":"IAF","icao_code":"EK","area_code":"EUR"},{"id":"HR282","lat":55.4917,"lon":8.086433333333334,"name":"HR282","type":"ILF","icao_code":"EK","area_code":"EUR"},{"id":"HR283","lat":55.44145555555556,"lon":8.232927777777778,"name":"HR283","type":"I F","icao_code":"EK","area_code":"EUR"},{"id":"RK362","lat":55.43936388888889,"lon":11.631530555555555,"name":"RK362","type":"W F","icao_code":"EK","area_code":"EUR"},{"id":"RK363","lat":55.623016666666665,"lon":11.997069444444444,"name":"RK363","type":"WBF","icao_code":"EK","area_code":"EUR"},{"id":"RK365","lat":55.68387222222222,"lon":11.777041666666667,"name":"RK365","type":"WIF","icao_code":"EK","area_code":"EUR"},{"id":"1NM","lat":62.45245555555555,"lon":6.209922222222223,"name":"ATD265001   (AL415)","type":"WPF","icao_code":"EN","area_code":"EUR"},{"id":"30VO2","lat":61.55735833333333,"lon":4.928761111111111,"name":"FLO240003","type":"IPF","icao_code":"EN","area_code":"EUR"},{"id":"30VO3","lat":61.54882777777778,"lon":5.0990416666666665,"name":"FLO132003","type":"IPF","icao_code":"EN","area_code":"EUR"},{"id":"50VO1","lat":61.598730555555555,"lon":5.190802777777778,"name":"FLO079005","type":"IPF","icao_code":"EN","area_code":"EUR"},{"id":"70VOR","lat":61.541577777777775,"lon":4.791119444444444,"name":"FLO251007","type":"IPF","icao_code":"EN","area_code":"EUR"},{"id":"AL411","lat":62.44466666666667,"lon":5.9815000000000005,"name":"AL411","type":"WIF","icao_code":"EN","area_code":"EUR"},{"id":"AL412","lat":62.524316666666664,"lon":6.0841972222222225,"name":"AL412","type":"WIF","icao_code":"EN","area_code":"EUR"},{"id":"AL413","lat":62.47448333333333,"lon":6.087069444444444,"name":"AL413","type":"WDF","icao_code":"EN","area_code":"EUR"},{"id":"AL414","lat":62.451255555555555,"lon":6.174141666666666,"name":"AL414","type":"WAF","icao_code":"EN","area_code":"EUR"},{"id":"AL415","lat":62.45365,"lon":6.245711111111111,"name":"AL415","type":"WMF","icao_code":"EN","area_code":"EUR"},{"id":"AL416","lat":62.455891666666666,"lon":6.313711111111111,"name":"AL416","type":"W F","icao_code":"EN","area_code":"EUR"},{"id":"AMRUN","lat":58.946888888888886,"lon":5.374622222222222,"name":"AMRUN","type":"W E","icao_code":"EN","area_code":"EUR"},{"id":"BAKEK","lat":61.51829166666667,"lon":4.829519444444444,"name":"BAKEK","type":"W F","icao_code":"EN","area_code":"EUR"},{"id":"BEVGU","lat":59.15060555555556,"lon":5.421102777777778,"name":"BEVGU","type":"W E","icao_code":"EN","area_code":"EUR"},{"id":"BN400","lat":65.44596111111112,"lon":12.188158333333334,"name":"BN400","type":"WMF","icao_code":"EN","area_code":"EUR"},{"id":"BN401","lat":65.47430555555556,"lon":12.242997222222222,"name":"BN401","type":"W F","icao_code":"EN","area_code":"EUR"},{"id":"BN402","lat":65.52598888888889,"lon":12.087311111111111,"name":"BN402","type":"W F","icao_code":"EN","area_code":"EUR"},{"id":"BN405","lat":65.59546388888889,"lon":12.188963888888889,"name":"BN405","type":"WAF","icao_code":"EN","area_code":"EUR"},{"id":"BN410","lat":65.45704722222223,"lon":12.1744,"name":"BN410","type":"WMF","icao_code":"EN","area_code":"EUR"},{"id":"BN411","lat":65.47766944444444,"lon":12.249513888888888,"name":"BN411","type":"W F","icao_code":"EN","area_code":"EUR"},{"id":"BN412","lat":65.54213055555556,"lon":12.056002777777778,"name":"BN412","type":"W F","icao_code":"EN","area_code":"EUR"},{"id":"BULUB","lat":58.833194444444445,"lon":5.171333333333333,"name":"BULUB","type":"W E","icao_code":"EN","area_code":"EUR"},{"id":"CD07","lat":61.53583611111111,"lon":4.758444444444445,"name":"FLO251008","type":"ILF","icao_code":"EN","area_code":"EUR"},{"id":"CD259","lat":61.62241111111111,"lon":5.429991666666667,"name":"FLO079012","type":"ILF","icao_code":"EN","area_code":"EUR"},{"id":"CD356","lat":61.39943888888889,"lon":5.053413888888889,"name":"FLO176011","type":"ICF","icao_code":"EN","area_code":"EUR"},{"id":"D027G","lat":61.686077777777776,"lon":5.1275361111111115,"name":"FLO027007","type":"I F","icao_code":"EN","area_code":"EUR"},{"id":"D027J","lat":61.73126388888889,"lon":5.171958333333333,"name":"FLO027010","type":"I F","icao_code":"EN","area_code":"EUR"},{"id":"D030G","lat":61.683255555555554,"lon":5.138897222222222,"name":"FLO030007","type":"I F","icao_code":"EN","area_code":"EUR"},{"id":"D030J","lat":61.726644444444446,"lon":5.190641666666667,"name":"FLO030010","type":"I F","icao_code":"EN","area_code":"EUR"},{"id":"D031G","lat":61.68225277777778,"lon":5.142613888888889,"name":"FLO031007","type":"I F","icao_code":"EN","area_code":"EUR"},{"id":"D060L","lat":61.6838,"lon":5.380016666666666,"name":"FLO060012","type":"I F","icao_code":"EN","area_code":"EUR"},{"id":"D067J","lat":61.64929166666667,"lon":5.338933333333333,"name":"FLO067010","type":"I F","icao_code":"EN","area_code":"EUR"},{"id":"D070L","lat":61.65246944444444,"lon":5.411697222222222,"name":"FLO070012","type":"I F","icao_code":"EN","area_code":"EUR"},{"id":"D088L","lat":61.59135833333333,"lon":5.438152777777778,"name":"FLO088012","type":"I F","icao_code":"EN","area_code":"EUR"},{"id":"D114J","lat":61.517430555555556,"lon":5.341522222222222,"name":"FLO114010","type":"IIF","icao_code":"EN","area_code":"EUR"},{"id":"D114K","lat":61.510975,"lon":5.373580555555556,"name":"FLO114011","type":"IIF","icao_code":"EN","area_code":"EUR"},{"id":"D119J","lat":61.505066666666664,"lon":5.329347222222222,"name":"FLO119010","type":"IIF","icao_code":"EN","area_code":"EUR"},{"id":"D119L","lat":61.48743611111111,"lon":5.388502777777778,"name":"FLO119012","type":"I F","icao_code":"EN","area_code":"EUR"},{"id":"D119N","lat":61.474272222222226,"lon":5.452588888888889,"name":"FLO119014","type":"I F","icao_code":"EN","area_code":"EUR"},{"id":"D132O","lat":61.41744444444444,"lon":5.412833333333333,"name":"FLO132015","type":"IDF","icao_code":"EN","area_code":"EUR"},{"id":"D133J","lat":61.47051111111111,"lon":5.279127777777778,"name":"FLO133010","type":"IIF","icao_code":"EN","area_code":"EUR"},{"id":"D133N","lat":61.42539444444444,"lon":5.3811333333333335,"name":"FLO133014","type":"I F","icao_code":"EN","area_code":"EUR"},{"id":"D147I","lat":61.45744444444444,"lon":5.194961111111111,"name":"FLO147009","type":"I F","icao_code":"EN","area_code":"EUR"},{"id":"D175L","lat":61.38260833333333,"lon":5.049180555555555,"name":"FLO175012","type":"IDF","icao_code":"EN","area_code":"EUR"},{"id":"D176M","lat":61.366325,"lon":5.059413888888889,"name":"FLO176013","type":"IDF","icao_code":"EN","area_code":"EUR"},{"id":"D177I","lat":61.43234722222222,"lon":5.041963888888889,"name":"FLO177009","type":"I F","icao_code":"EN","area_code":"EUR"},{"id":"D177J","lat":61.41583055555556,"lon":5.046119444444445,"name":"FLO177010","type":"IIF","icao_code":"EN","area_code":"EUR"},{"id":"D177K","lat":61.399255555555555,"lon":5.048697222222223,"name":"FLO177011","type":"IIF","icao_code":"EN","area_code":"EUR"},{"id":"D177N","lat":61.349536111111114,"lon":5.056416666666666,"name":"FLO177014","type":"I F","icao_code":"EN","area_code":"EUR"},{"id":"D180G","lat":61.47186388888889,"lon":5.024183333333333,"name":"FLO180007","type":"I F","icao_code":"EN","area_code":"EUR"},{"id":"D196T","lat":68.14906666666667,"lon":16.347783333333332,"name":"EVD196020","type":"I F","icao_code":"EN","area_code":"EUR"},{"id":"D198H","lat":61.454391666666666,"lon":4.938955555555555,"name":"FLO198008","type":"I F","icao_code":"EN","area_code":"EUR"},{"id":"D201I","lat":61.44096388888889,"lon":4.913333333333333,"name":"FLO201009","type":"I F","icao_code":"EN","area_code":"EUR"},{"id":"D202O","lat":68.23451388888888,"lon":16.38027222222222,"name":"EVD202015","type":"I F","icao_code":"EN","area_code":"EUR"},{"id":"D202V","lat":68.13035833333333,"lon":16.2416,"name":"EVD202022","type":"I F","icao_code":"EN","area_code":"EUR"},{"id":"D211O","lat":68.25883333333333,"lon":16.2741,"name":"EVD211015","type":"I F","icao_code":"EN","area_code":"EUR"},{"id":"D217L","lat":61.418994444444444,"lon":4.778394444444444,"name":"FLO217012","type":"I F","icao_code":"EN","area_code":"EUR"},{"id":"D222M","lat":61.41887777777778,"lon":4.722488888888889,"name":"FLO222013","type":"I F","icao_code":"EN","area_code":"EUR"},{"id":"D239I","lat":61.50203888888889,"lon":4.754733333333333,"name":"FLO239009","type":"I F","icao_code":"EN","area_code":"EUR"},{"id":"D285P","lat":67.37091666666667,"lon":13.73166111111111,"name":"BDO285016","type":"I F","icao_code":"EN","area_code":"EUR"},{"id":"D300P","lat":67.42501111111112,"lon":13.811408333333333,"name":"BDO300016","type":"I F","icao_code":"EN","area_code":"EUR"},{"id":"D310P","lat":67.44695277777778,"lon":13.85833888888889,"name":"BDO310016","type":"I F","icao_code":"EN","area_code":"EUR"},{"id":"D319J","lat":68.59639722222222,"lon":16.404588888888888,"name":"EVD319010","type":"I F","icao_code":"EN","area_code":"EUR"},{"id":"DIMAV","lat":59.10153888888889,"lon":5.200008333333333,"name":"DIMAV","type":"W E","icao_code":"EN","area_code":"EUR"},{"id":"EMPIS","lat":58.88527777777778,"lon":6.061169444444444,"name":"EMPIS","type":"WIZ","icao_code":"EN","area_code":"EUR"},{"id":"EV344","lat":68.50675555555556,"lon":16.676341666666666,"name":"EV344","type":"W F","icao_code":"EN","area_code":"EUR"},{"id":"EV401","lat":68.45688055555556,"lon":16.68203888888889,"name":"EV401","type":"W D","icao_code":"EN","area_code":"EUR"},{"id":"EV403","lat":68.58954444444444,"lon":16.28720277777778,"name":"EV403","type":"W F","icao_code":"EN","area_code":"EUR"},{"id":"EV502","lat":68.60657222222223,"lon":16.93793888888889,"name":"EV502","type":"W F","icao_code":"EN","area_code":"EUR"},{"id":"EV511","lat":68.66210555555556,"lon":16.65845,"name":"EV511","type":"WAF","icao_code":"EN","area_code":"EUR"},{"id":"EV751","lat":68.07397222222222,"lon":16.24312777777778,"name":"EV751","type":"W F","icao_code":"EN","area_code":"EUR"},{"id":"EVBON","lat":61.39613055555556,"lon":4.453194444444445,"name":"EVBON","type":"R F","icao_code":"EN","area_code":"EUR"},{"id":"FD071","lat":61.54159722222222,"lon":4.875422222222222,"name":"FLO241005","type":"IAF","icao_code":"EN","area_code":"EUR"},{"id":"FD259","lat":61.60553888888889,"lon":5.259105555555555,"name":"FLO079007","type":"IAF","icao_code":"EN","area_code":"EUR"},{"id":"FD312","lat":61.51605,"lon":5.177736111111111,"name":"FLO132006","type":"IAF","icao_code":"EN","area_code":"EUR"},{"id":"FD356","lat":61.48222222222222,"lon":5.0383555555555555,"name":"FLO176006","type":"IAF","icao_code":"EN","area_code":"EUR"},{"id":"FL400","lat":61.5735,"lon":4.989694444444444,"name":"FL400","type":"RMF","icao_code":"EN","area_code":"EUR"},{"id":"FL401","lat":61.54266666666667,"lon":4.873444444444445,"name":"FL401","type":"RAF","icao_code":"EN","area_code":"EUR"},{"id":"FL601","lat":61.460772222222225,"lon":4.993358333333333,"name":"FL601","type":"C Z","icao_code":"EN","area_code":"EUR"},{"id":"FL602","lat":61.4007,"lon":4.768075,"name":"FL602","type":"C Z","icao_code":"EN","area_code":"EUR"},{"id":"FS060","lat":61.54280833333333,"lon":4.873980555555556,"name":"FLO240005","type":"IAF","icao_code":"EN","area_code":"EUR"},{"id":"GIMSA","lat":65.34997777777778,"lon":11.909616666666667,"name":"GIMSA","type":"R F","icao_code":"EN","area_code":"EUR"},{"id":"HR001","lat":68.90372777777777,"lon":16.526494444444445,"name":"HR001","type":"A  ","icao_code":"EN","area_code":"EUR"},{"id":"HR002","lat":68.84291944444445,"lon":16.78570277777778,"name":"HR002","type":"A  ","icao_code":"EN","area_code":"EUR"},{"id":"HR100","lat":68.78524166666666,"lon":16.61757777777778,"name":"HR100","type":"WMF","icao_code":"EN","area_code":"EUR"},{"id":"HR103","lat":68.91952222222223,"lon":16.778352777777776,"name":"HR103","type":"W F","icao_code":"EN","area_code":"EUR"},{"id":"HR104","lat":68.8315638888889,"lon":16.829502777777776,"name":"HR104","type":"W F","icao_code":"EN","area_code":"EUR"},{"id":"HR110","lat":68.76445277777778,"lon":16.580344444444446,"name":"HR110","type":"W F","icao_code":"EN","area_code":"EUR"},{"id":"HR120","lat":68.79059444444445,"lon":16.660919444444446,"name":"HR120","type":"W F","icao_code":"EN","area_code":"EUR"},{"id":"IPMAR","lat":58.732952777777776,"lon":5.07635,"name":"IPMAR","type":"W E","icao_code":"EN","area_code":"EUR"},{"id":"LALOL","lat":68.82514722222223,"lon":16.639363888888887,"name":"LALOL","type":"WIZ","icao_code":"EN","area_code":"EUR"},{"id":"LURUP","lat":58.710836111111114,"lon":6.088441666666666,"name":"LURUP","type":"W E","icao_code":"EN","area_code":"EUR"},{"id":"MAXED","lat":68.1252638888889,"lon":16.67575,"name":"MAXED","type":"WIZ","icao_code":"EN","area_code":"EUR"},{"id":"MD071","lat":61.57324722222222,"lon":4.989991666666667,"name":"FLO241001","type":"IMF","icao_code":"EN","area_code":"EUR"},{"id":"MD259","lat":61.59188611111111,"lon":5.122530555555556,"name":"FLO079003","type":"IMF","icao_code":"EN","area_code":"EUR"},{"id":"MD312","lat":61.57065277777778,"lon":5.046486111111111,"name":"FLO132001","type":"IMF","icao_code":"EN","area_code":"EUR"},{"id":"MD356","lat":61.56500277777778,"lon":5.023216666666666,"name":"FLO176001","type":"IMF","icao_code":"EN","area_code":"EUR"},{"id":"MEDEK","lat":65.27817777777778,"lon":11.86675,"name":"MEDEK","type":"RIF","icao_code":"EN","area_code":"EUR"},{"id":"MN07","lat":61.57852222222222,"lon":4.991991666666666,"name":"REK078004","type":"IMF","icao_code":"EN","area_code":"EUR"},{"id":"MS060","lat":61.5735,"lon":4.989691666666666,"name":"FLO240001","type":"IMF","icao_code":"EN","area_code":"EUR"},{"id":"MX002","lat":66.26275,"lon":13.977158333333334,"name":"MX002","type":"A  ","icao_code":"EN","area_code":"EUR"},{"id":"MX004","lat":66.27648055555555,"lon":13.849877777777778,"name":"MX004","type":"A  ","icao_code":"EN","area_code":"EUR"},{"id":"MX005","lat":66.13726666666666,"lon":13.78656111111111,"name":"MX005","type":"A  ","icao_code":"EN","area_code":"EUR"},{"id":"MX006","lat":66.26149166666667,"lon":13.620563888888888,"name":"MX006","type":"A  ","icao_code":"EN","area_code":"EUR"},{"id":"MX007","lat":66.25382777777777,"lon":13.405077777777779,"name":"MX007","type":"A  ","icao_code":"EN","area_code":"EUR"},{"id":"MX009","lat":66.42659444444445,"lon":13.156597222222222,"name":"MX009","type":"A  ","icao_code":"EN","area_code":"EUR"},{"id":"MX010","lat":66.26155,"lon":13.06155,"name":"MX010","type":"A  ","icao_code":"EN","area_code":"EUR"},{"id":"MX021","lat":66.30643611111111,"lon":14.17971388888889,"name":"MX021","type":"A  ","icao_code":"EN","area_code":"EUR"},{"id":"MX023","lat":66.32175277777777,"lon":14.325691666666666,"name":"MX023","type":"A  ","icao_code":"EN","area_code":"EUR"},{"id":"MX100","lat":66.30854444444445,"lon":14.10743888888889,"name":"MX100","type":"WMF","icao_code":"EN","area_code":"EUR"},{"id":"MX101","lat":66.28912777777778,"lon":13.994041666666666,"name":"MX101","type":"WAF","icao_code":"EN","area_code":"EUR"},{"id":"MX102","lat":66.28260555555556,"lon":13.956105555555556,"name":"MX102","type":"W F","icao_code":"EN","area_code":"EUR"},{"id":"MX103","lat":66.27748055555556,"lon":13.937975,"name":"MX103","type":"WDF","icao_code":"EN","area_code":"EUR"},{"id":"MX104","lat":66.25925555555555,"lon":13.895819444444445,"name":"MX104","type":"W F","icao_code":"EN","area_code":"EUR"},{"id":"MX105","lat":66.25161388888888,"lon":13.838513888888889,"name":"MX105","type":"WIF","icao_code":"EN","area_code":"EUR"},{"id":"MX106","lat":66.23958055555556,"lon":13.649977777777778,"name":"MX106","type":"W F","icao_code":"EN","area_code":"EUR"},{"id":"MX107","lat":66.25933055555555,"lon":13.558983333333334,"name":"MX107","type":"W F","icao_code":"EN","area_code":"EUR"},{"id":"MX108","lat":66.31306666666667,"lon":13.357336111111112,"name":"MX108","type":"W F","icao_code":"EN","area_code":"EUR"},{"id":"MX109","lat":66.30026666666667,"lon":13.25915,"name":"MX109","type":"W F","icao_code":"EN","area_code":"EUR"},{"id":"MX110","lat":66.29715277777778,"lon":13.081944444444444,"name":"MX110","type":"W F","icao_code":"EN","area_code":"EUR"},{"id":"MX111","lat":66.28304444444444,"lon":12.9882,"name":"MX111","type":"W F","icao_code":"EN","area_code":"EUR"},{"id":"MX112","lat":66.32415833333333,"lon":12.945686111111112,"name":"MX112","type":"W F","icao_code":"EN","area_code":"EUR"},{"id":"MX200","lat":66.31867777777778,"lon":14.16686111111111,"name":"MX200","type":"W F","icao_code":"EN","area_code":"EUR"},{"id":"MX201","lat":66.31945555555555,"lon":14.186297222222223,"name":"MX201","type":"W F","icao_code":"EN","area_code":"EUR"},{"id":"MX202","lat":66.30855,"lon":14.318941666666667,"name":"MX202","type":"W F","icao_code":"EN","area_code":"EUR"},{"id":"MX203","lat":66.33447777777778,"lon":14.31465,"name":"MX203","type":"W F","icao_code":"EN","area_code":"EUR"},{"id":"MX204","lat":66.23806666666667,"lon":13.6416,"name":"MX204","type":"W F","icao_code":"EN","area_code":"EUR"},{"id":"NEVMI","lat":58.763625,"lon":5.362752777777778,"name":"NEVMI","type":"W E","icao_code":"EN","area_code":"EUR"},{"id":"NOVDE","lat":58.83578333333333,"lon":5.566380555555556,"name":"NOVDE","type":"WAF","icao_code":"EN","area_code":"EUR"},{"id":"NULVU","lat":59.06838888888889,"lon":6.080727777777778,"name":"NULVU","type":"W E","icao_code":"EN","area_code":"EUR"},{"id":"OKOBO","lat":58.75042777777778,"lon":5.984125,"name":"OKOBO","type":"WIZ","icao_code":"EN","area_code":"EUR"},{"id":"PIDUG","lat":58.73161666666667,"lon":5.642127777777778,"name":"PIDUG","type":"CLF","icao_code":"EN","area_code":"EUR"},{"id":"RA401","lat":66.3285361111111,"lon":14.248561111111112,"name":"RA401","type":"W F","icao_code":"EN","area_code":"EUR"},{"id":"RA402","lat":66.31555277777778,"lon":14.116119444444445,"name":"RA402","type":"WMF","icao_code":"EN","area_code":"EUR"},{"id":"RA403","lat":66.28431388888889,"lon":13.966080555555555,"name":"RA403","type":"WAF","icao_code":"EN","area_code":"EUR"},{"id":"RA404","lat":66.26039444444444,"lon":13.874666666666666,"name":"RA404","type":"WDF","icao_code":"EN","area_code":"EUR"},{"id":"RA405","lat":66.24933333333334,"lon":13.712166666666667,"name":"RA405","type":"W F","icao_code":"EN","area_code":"EUR"},{"id":"RA408","lat":66.37695,"lon":14.219272222222223,"name":"RA408","type":"W F","icao_code":"EN","area_code":"EUR"},{"id":"RA409","lat":66.36908055555556,"lon":14.13885,"name":"RA409","type":"W F","icao_code":"EN","area_code":"EUR"},{"id":"RANAB","lat":59.02464722222222,"lon":5.633416666666667,"name":"RANAB","type":"CLZ","icao_code":"EN","area_code":"EUR"},{"id":"REGVO","lat":58.64707222222222,"lon":5.218719444444444,"name":"REGVO","type":"W E","icao_code":"EN","area_code":"EUR"},{"id":"RUSSE","lat":58.992086111111114,"lon":5.214161111111111,"name":"RUSSE","type":"W F","icao_code":"EN","area_code":"EUR"},{"id":"STAVE","lat":61.49983888888889,"lon":4.712980555555555,"name":"STAVE","type":"RLF","icao_code":"EN","area_code":"EUR"},{"id":"TX400","lat":59.813544444444446,"lon":10.834058333333333,"name":"TX400","type":"WMF","icao_code":"EN","area_code":"EUR"},{"id":"TX401","lat":59.84581388888889,"lon":10.818619444444444,"name":"TX401","type":"WAF","icao_code":"EN","area_code":"EUR"},{"id":"TX402","lat":59.88944166666667,"lon":10.797688888888889,"name":"TX402","type":"WLF","icao_code":"EN","area_code":"EUR"},{"id":"TX403","lat":59.899163888888886,"lon":10.878105555555555,"name":"TX403","type":"W F","icao_code":"EN","area_code":"EUR"},{"id":"TX404","lat":59.87771111111111,"lon":10.701252777777778,"name":"TX404","type":"W F","icao_code":"EN","area_code":"EUR"},{"id":"TX405","lat":59.787683333333334,"lon":10.846411111111111,"name":"TX405","type":"W F","icao_code":"EN","area_code":"EUR"},{"id":"TX406","lat":59.99211388888889,"lon":10.34515,"name":"TX406","type":"W F","icao_code":"EN","area_code":"EUR"},{"id":"TX407","lat":59.937916666666666,"lon":10.774369444444444,"name":"TX407","type":"WIF","icao_code":"EN","area_code":"EUR"},{"id":"TX408","lat":59.78393611111111,"lon":10.8482,"name":"TX408","type":"W F","icao_code":"EN","area_code":"EUR"},{"id":"TX410","lat":59.79491111111111,"lon":10.840658333333334,"name":"TX410","type":"WMF","icao_code":"EN","area_code":"EUR"},{"id":"TX411","lat":59.75656111111111,"lon":10.836825,"name":"TX411","type":"WAF","icao_code":"EN","area_code":"EUR"},{"id":"TX412","lat":59.71007222222222,"lon":10.832191666666667,"name":"TX412","type":"WKF","icao_code":"EN","area_code":"EUR"},{"id":"TX413","lat":59.70742777777778,"lon":10.930775,"name":"TX413","type":"W F","icao_code":"EN","area_code":"EUR"},{"id":"TX414","lat":59.71264166666667,"lon":10.733619444444445,"name":"TX414","type":"W F","icao_code":"EN","area_code":"EUR"},{"id":"TX415","lat":59.825208333333336,"lon":10.843688888888888,"name":"TX415","type":"W F","icao_code":"EN","area_code":"EUR"},{"id":"TX500","lat":59.82826111111111,"lon":10.8247,"name":"TX500","type":"W D","icao_code":"EN","area_code":"EUR"},{"id":"TX510","lat":59.78031111111111,"lon":10.83918888888889,"name":"TX510","type":"W D","icao_code":"EN","area_code":"EUR"},{"id":"TX511","lat":59.765655555555554,"lon":10.837736111111111,"name":"TX511","type":"W D","icao_code":"EN","area_code":"EUR"},{"id":"TX512","lat":59.74777777777778,"lon":10.835936111111112,"name":"TX512","type":"W D","icao_code":"EN","area_code":"EUR"},{"id":"TX600","lat":59.79671944444444,"lon":10.841675,"name":"TX600","type":"WMF","icao_code":"EN","area_code":"EUR"},{"id":"TX601","lat":59.82159444444444,"lon":10.838219444444444,"name":"TX601","type":"W F","icao_code":"EN","area_code":"EUR"},{"id":"TX610","lat":59.77182222222222,"lon":10.845127777777778,"name":"TX610","type":"WAF","icao_code":"EN","area_code":"EUR"},{"id":"TX615","lat":59.77315277777778,"lon":10.882944444444444,"name":"TX615","type":"W F","icao_code":"EN","area_code":"EUR"},{"id":"TX620","lat":59.77446666666667,"lon":10.920758333333334,"name":"TX620","type":"WLF","icao_code":"EN","area_code":"EUR"},{"id":"TX630","lat":59.79933888888889,"lon":10.917308333333333,"name":"TX630","type":"WIF","icao_code":"EN","area_code":"EUR"},{"id":"TX631","lat":59.79723888888889,"lon":10.858072222222223,"name":"TX631","type":"WIF","icao_code":"EN","area_code":"EUR"},{"id":"TX632","lat":59.80141666666667,"lon":10.97655,"name":"TX632","type":"WIF","icao_code":"EN","area_code":"EUR"},{"id":"TXS01","lat":59.56237222222222,"lon":10.636691666666668,"name":"TXS01","type":"W Z","icao_code":"EN","area_code":"EUR"},{"id":"TXS02","lat":59.32720833333333,"lon":10.555575,"name":"TXS02","type":"W Z","icao_code":"EN","area_code":"EUR"},{"id":"TXS03","lat":59.06713333333333,"lon":10.476155555555556,"name":"TXS03","type":"W Z","icao_code":"EN","area_code":"EUR"},{"id":"TXS04","lat":59.034508333333335,"lon":10.282691666666667,"name":"TXS04","type":"W Z","icao_code":"EN","area_code":"EUR"},{"id":"TXS05","lat":58.953297222222226,"lon":10.030944444444444,"name":"TXS05","type":"W Z","icao_code":"EN","area_code":"EUR"},{"id":"TXS06","lat":58.94891666666667,"lon":9.695072222222223,"name":"TXS06","type":"W Z","icao_code":"EN","area_code":"EUR"},{"id":"TXS07","lat":58.43747222222222,"lon":8.912744444444444,"name":"TXS07","type":"W Z","icao_code":"EN","area_code":"EUR"},{"id":"TXS08","lat":58.00219722222222,"lon":8.037005555555556,"name":"TXS08","type":"W Z","icao_code":"EN","area_code":"EUR"},{"id":"TXS09","lat":57.94996666666667,"lon":7.520725,"name":"TXS09","type":"W Z","icao_code":"EN","area_code":"EUR"},{"id":"TXS10","lat":57.99751388888889,"lon":7.260583333333333,"name":"TXS10","type":"W Z","icao_code":"EN","area_code":"EUR"},{"id":"TXS11","lat":57.96178333333334,"lon":7.048925,"name":"TXS11","type":"W Z","icao_code":"EN","area_code":"EUR"},{"id":"TXS12","lat":58.03901111111111,"lon":6.869019444444445,"name":"TXS12","type":"W Z","icao_code":"EN","area_code":"EUR"},{"id":"TXS13","lat":58.05143888888889,"lon":6.809369444444444,"name":"TXS13","type":"W Z","icao_code":"EN","area_code":"EUR"},{"id":"TXS14","lat":58.06073333333333,"lon":6.631525,"name":"TXS14","type":"W Z","icao_code":"EN","area_code":"EUR"},{"id":"TXS15","lat":58.1179,"lon":6.539933333333334,"name":"TXS15","type":"W Z","icao_code":"EN","area_code":"EUR"},{"id":"TXS16","lat":58.14528055555556,"lon":6.562872222222222,"name":"TXS16","type":"W Z","icao_code":"EN","area_code":"EUR"},{"id":"TXS17","lat":58.175022222222225,"lon":6.556866666666666,"name":"TXS17","type":"W Z","icao_code":"EN","area_code":"EUR"},{"id":"TXS18","lat":58.20346388888889,"lon":6.5175833333333335,"name":"TXS18","type":"W Z","icao_code":"EN","area_code":"EUR"},{"id":"TXS19","lat":58.42217222222222,"lon":5.849611111111111,"name":"TXS19","type":"W Z","icao_code":"EN","area_code":"EUR"},{"id":"TXS20","lat":58.53597777777778,"lon":5.650736111111112,"name":"TXS20","type":"W Z","icao_code":"EN","area_code":"EUR"},{"id":"TXS21","lat":58.74101111111111,"lon":5.449544444444444,"name":"TXS21","type":"W F","icao_code":"EN","area_code":"EUR"},{"id":"UGDOM","lat":61.56428888888889,"lon":5.436902777777778,"name":"UGDOM","type":"RKF","icao_code":"EN","area_code":"EUR"},{"id":"UNBOG","lat":61.44824166666667,"lon":5.330691666666667,"name":"UNBOG","type":"RLF","icao_code":"EN","area_code":"EUR"},{"id":"UPOSA","lat":61.53216388888889,"lon":4.715275,"name":"UPOSA","type":"CLF","icao_code":"EN","area_code":"EUR"},{"id":"VAXEM","lat":61.56061944444444,"lon":5.461947222222222,"name":"VAXEM","type":"RLF","icao_code":"EN","area_code":"EUR"},{"id":"VEXIM","lat":67.65434722222223,"lon":12.984041666666666,"name":"VEXIM","type":"WKF","icao_code":"EN","area_code":"EUR"},{"id":"VR520","lat":67.5551611111111,"lon":12.608088888888888,"name":"VR520","type":"WLF","icao_code":"EN","area_code":"EUR"},{"id":"VR530","lat":67.59834444444445,"lon":12.67315,"name":"VR530","type":"WAF","icao_code":"EN","area_code":"EUR"},{"id":"VR540","lat":67.62946111111111,"lon":12.720188888888888,"name":"VR540","type":"WSF","icao_code":"EN","area_code":"EUR"},{"id":"VR550","lat":67.64024444444445,"lon":12.736538888888889,"name":"VR550","type":"WMF","icao_code":"EN","area_code":"EUR"},{"id":"VR560","lat":67.69147222222222,"lon":12.814405555555556,"name":"VR560","type":"W F","icao_code":"EN","area_code":"EUR"},{"id":"VR630","lat":67.76336388888889,"lon":12.875805555555555,"name":"VR630","type":"WLF","icao_code":"EN","area_code":"EUR"},{"id":"VR640","lat":67.71753611111112,"lon":12.824291666666667,"name":"VR640","type":"WAF","icao_code":"EN","area_code":"EUR"},{"id":"VR650","lat":67.67282222222222,"lon":12.774236111111112,"name":"VR650","type":"WSF","icao_code":"EN","area_code":"EUR"},{"id":"VR660","lat":67.66135833333334,"lon":12.76145,"name":"VR660","type":"WMF","icao_code":"EN","area_code":"EUR"},{"id":"VR670","lat":67.60434166666667,"lon":12.698005555555556,"name":"VR670","type":"W F","icao_code":"EN","area_code":"EUR"},{"id":"VR740","lat":67.65448611111111,"lon":12.871466666666667,"name":"VR740","type":"WAF","icao_code":"EN","area_code":"EUR"},{"id":"VR750","lat":67.65454444444444,"lon":12.765875,"name":"VR750","type":"WMF","icao_code":"EN","area_code":"EUR"},{"id":"VR760","lat":67.604725,"lon":12.765894444444445,"name":"VR760","type":"W F","icao_code":"EN","area_code":"EUR"},{"id":"VR770","lat":67.60459166666666,"lon":12.984041666666666,"name":"VR770","type":"W F","icao_code":"EN","area_code":"EUR"},{"id":"WESTY","lat":58.948302777777776,"lon":5.179311111111111,"name":"WESTY","type":"WIF","icao_code":"EN","area_code":"EUR"},{"id":"XERGU","lat":61.490002777777775,"lon":4.684997222222222,"name":"XERGU","type":"WDF","icao_code":"EN","area_code":"EUR"},{"id":"ZV403","lat":58.752988888888886,"lon":5.449002777777777,"name":"ZV403","type":"W E","icao_code":"EN","area_code":"EUR"},{"id":"ZV404","lat":58.651783333333334,"lon":5.785447222222222,"name":"ZV404","type":"W E","icao_code":"EN","area_code":"EUR"},{"id":"ZV405","lat":58.750141666666664,"lon":5.946897222222223,"name":"ZV405","type":"W E","icao_code":"EN","area_code":"EUR"},{"id":"ZV410","lat":58.85413611111111,"lon":5.638502777777778,"name":"ZV410","type":"WMF","icao_code":"EN","area_code":"EUR"},{"id":"ZV427","lat":59.007105555555555,"lon":5.842888888888889,"name":"ZV427","type":"W D","icao_code":"EN","area_code":"EUR"},{"id":"ZV428","lat":58.82850833333333,"lon":5.8281527777777775,"name":"ZV428","type":"W D","icao_code":"EN","area_code":"EUR"},{"id":"ZV439","lat":58.898,"lon":5.393083333333333,"name":"ZV439","type":"WIF","icao_code":"EN","area_code":"EUR"},{"id":"ZV440","lat":58.805036111111114,"lon":5.41625,"name":"ZV440","type":"WIF","icao_code":"EN","area_code":"EUR"},{"id":"ZV441","lat":58.8537,"lon":5.437322222222222,"name":"ZV441","type":"WKF","icao_code":"EN","area_code":"EUR"},{"id":"ZV442","lat":58.860036111111114,"lon":5.531838888888889,"name":"ZV442","type":"WAF","icao_code":"EN","area_code":"EUR"},{"id":"ZV443","lat":58.86722777777778,"lon":5.642763888888889,"name":"ZV443","type":"W F","icao_code":"EN","area_code":"EUR"},{"id":"ZV447","lat":58.80137222222222,"lon":5.497655555555555,"name":"ZV447","type":"WLF","icao_code":"EN","area_code":"EUR"},{"id":"ZV449","lat":58.86933055555556,"lon":5.633586111111111,"name":"ZV449","type":"W F","icao_code":"EN","area_code":"EUR"},{"id":"ZV450","lat":58.92896944444445,"lon":5.636283333333333,"name":"ZV450","type":"W F","icao_code":"EN","area_code":"EUR"},{"id":"ZV465","lat":58.864177777777776,"lon":5.595527777777778,"name":"ZV465","type":"WMF","icao_code":"EN","area_code":"EUR"},{"id":"ZV469","lat":58.854705555555554,"lon":5.604261111111111,"name":"ZV469","type":"WMF","icao_code":"EN","area_code":"EUR"},{"id":"ZV489","lat":58.86241111111111,"lon":5.609938888888889,"name":"ZV489","type":"W D","icao_code":"EN","area_code":"EUR"},{"id":"ZV503","lat":59.14745555555555,"lon":6.0662,"name":"ZV503","type":"W E","icao_code":"EN","area_code":"EUR"},{"id":"ZV504","lat":58.98158333333333,"lon":5.959072222222222,"name":"ZV504","type":"W E","icao_code":"EN","area_code":"EUR"},{"id":"ZV505","lat":59.109902777777776,"lon":5.883175,"name":"ZV505","type":"W E","icao_code":"EN","area_code":"EUR"},{"id":"ZV506","lat":59.451658333333334,"lon":5.487877777777777,"name":"ZV506","type":"W E","icao_code":"EN","area_code":"EUR"},{"id":"ZV507","lat":59.205930555555554,"lon":5.576241666666666,"name":"ZV507","type":"W E","icao_code":"EN","area_code":"EUR"},{"id":"ZV508","lat":58.99990833333333,"lon":5.4403138888888884,"name":"ZV508","type":"W E","icao_code":"EN","area_code":"EUR"},{"id":"ZV510","lat":58.90978611111111,"lon":5.63685,"name":"ZV510","type":"WMF","icao_code":"EN","area_code":"EUR"},{"id":"ZV528","lat":59.02827222222222,"lon":6.299205555555556,"name":"ZV528","type":"W D","icao_code":"EN","area_code":"EUR"},{"id":"ZV600","lat":58.927275,"lon":5.301433333333334,"name":"ZV600","type":"W Z","icao_code":"EN","area_code":"EUR"},{"id":"ZV601","lat":58.847369444444446,"lon":5.2571361111111115,"name":"ZV601","type":"W E","icao_code":"EN","area_code":"EUR"},{"id":"ZV602","lat":59.00716111111111,"lon":5.345936111111111,"name":"ZV602","type":"W E","icao_code":"EN","area_code":"EUR"},{"id":"ZV603","lat":58.66670833333333,"lon":5.807847222222222,"name":"ZV603","type":"W E","icao_code":"EN","area_code":"EUR"},{"id":"ZV604","lat":59.11573611111111,"lon":5.889261111111111,"name":"ZV604","type":"W E","icao_code":"EN","area_code":"EUR"},{"id":"ZV605","lat":59.14017222222222,"lon":5.251094444444444,"name":"ZV605","type":"W E","icao_code":"EN","area_code":"EUR"},{"id":"ZV700","lat":58.83643611111111,"lon":6.017930555555555,"name":"ZV700","type":"W E","icao_code":"EN","area_code":"EUR"},{"id":"ZV701","lat":58.917944444444444,"lon":6.049488888888889,"name":"ZV701","type":"W E","icao_code":"EN","area_code":"EUR"},{"id":"ZV702","lat":58.75492222222222,"lon":5.986519444444444,"name":"ZV702","type":"W E","icao_code":"EN","area_code":"EUR"},{"id":"ZV703","lat":58.77140833333333,"lon":6.249380555555556,"name":"ZV703","type":"W E","icao_code":"EN","area_code":"EUR"},{"id":"ZV704","lat":58.90651666666667,"lon":6.2796916666666664,"name":"ZV704","type":"W E","icao_code":"EN","area_code":"EUR"},{"id":"ZV830","lat":58.833644444444445,"lon":5.9200277777777774,"name":"ZV830","type":"W D","icao_code":"EN","area_code":"EUR"},{"id":"12NM","lat":57.81171111111111,"lon":11.876344444444445,"name":"ATD181001   (GP415)","type":"IPF","icao_code":"ES","area_code":"EUR"},{"id":"GP411","lat":57.931472222222226,"lon":11.896083333333333,"name":"GP411","type":"WIF","icao_code":"ES","area_code":"EUR"},{"id":"GP412","lat":57.87738888888889,"lon":11.981166666666667,"name":"GP412","type":"WIF","icao_code":"ES","area_code":"EUR"},{"id":"GP413","lat":57.88177777777778,"lon":11.887888888888888,"name":"GP413","type":"WLF","icao_code":"ES","area_code":"EUR"},{"id":"GP414","lat":57.83208333333333,"lon":11.879694444444445,"name":"GP414","type":"WAF","icao_code":"ES","area_code":"EUR"},{"id":"GP415","lat":57.79183333333334,"lon":11.873083333333334,"name":"GP415","type":"WMF","icao_code":"ES","area_code":"EUR"},{"id":"GP710","lat":57.74213888888889,"lon":11.864944444444445,"name":"GP710","type":"W F","icao_code":"ES","area_code":"EUR"},{"id":"IK413","lat":49.3581,"lon":10.3471,"name":"IK413","type":"WIF","icao_code":"ET","area_code":"EUR"},{"id":"D206D","lat":37.251552777777775,"lon":-6.037316666666666,"name":"EEC206004","type":"I F","icao_code":"LE","area_code":"EUR"},{"id":"FN026","lat":37.24993888888889,"lon":-6.038255555555556,"name":"EEC206004","type":"IAF","icao_code":"LE","area_code":"EUR"},{"id":"FN035","lat":40.64500833333334,"lon":-3.813038888888889,"name":"ECV215004","type":"IAF","icao_code":"LE","area_code":"EUR"},{"id":"FN087","lat":38.95075833333333,"lon":-3.8037916666666667,"name":"EAL267002","type":"IAF","icao_code":"LE","area_code":"EUR"},{"id":"FN267","lat":38.954775,"lon":-3.7056472222222223,"name":"EAL087002","type":"IAF","icao_code":"LE","area_code":"EUR"},{"id":"MA340","lat":40.69298333333333,"lon":-3.758313888888889,"name":"CNR340003","type":"IMF","icao_code":"LE","area_code":"EUR"},{"id":"D170R","lat":43.38480833333333,"lon":1.3771222222222221,"name":"TOU170018","type":"I F","icao_code":"LF","area_code":"EUR"},{"id":"D324L","lat":43.84106111111111,"lon":1.1446083333333332,"name":"D324L","type":"IDF","icao_code":"LF","area_code":"EUR"},{"id":"DLG04","lat":45.227694444444445,"lon":5.862555555555556,"name":"DLG04","type":"W D","icao_code":"LF","area_code":"EUR"},{"id":"DLG22","lat":45.2025,"lon":5.8285277777777775,"name":"DLG22","type":"W D","icao_code":"LF","area_code":"EUR"},{"id":"FLG04","lat":45.16288888888889,"lon":5.725527777777778,"name":"FLG04","type":"WAF","icao_code":"LF","area_code":"EUR"},{"id":"FLG22","lat":45.383694444444444,"lon":6.006,"name":"FLG22","type":"WAF","icao_code":"LF","area_code":"EUR"},{"id":"FM261","lat":48.079861111111114,"lon":7.4115,"name":"FM261","type":"WAF","icao_code":"LF","area_code":"EUR"},{"id":"FWF08","lat":48.39538888888889,"lon":-4.658388888888889,"name":"FWF08","type":"WAF","icao_code":"LF","area_code":"EUR"},{"id":"FWF26","lat":48.42230555555555,"lon":-4.404972222222222,"name":"FWF26","type":"WAF","icao_code":"LF","area_code":"EUR"},{"id":"GA405","lat":48.29394444444444,"lon":7.571361111111111,"name":"GA405","type":"WIF","icao_code":"LF","area_code":"EUR"},{"id":"ILG04","lat":45.11588888888889,"lon":5.701444444444444,"name":"ILG04","type":"WLF","icao_code":"LF","area_code":"EUR"},{"id":"IWF08","lat":48.38152777777778,"lon":-4.741333333333333,"name":"IWF08","type":"WLF","icao_code":"LF","area_code":"EUR"},{"id":"IWF26","lat":48.43094444444444,"lon":-4.330722222222223,"name":"IWF26","type":"WLF","icao_code":"LF","area_code":"EUR"},{"id":"LG104","lat":45.08255555555556,"lon":5.701527777777778,"name":"LG104","type":"W F","icao_code":"LF","area_code":"EUR"},{"id":"LG204","lat":45.277944444444444,"lon":5.918666666666667,"name":"LG204","type":"W F","icao_code":"LF","area_code":"EUR"},{"id":"LG401","lat":45.19444444444444,"lon":5.796055555555555,"name":"LG401","type":"W D","icao_code":"LF","area_code":"EUR"},{"id":"LG402","lat":45.174305555555556,"lon":5.715138888888889,"name":"LG402","type":"W D","icao_code":"LF","area_code":"EUR"},{"id":"LG422","lat":45.2285,"lon":5.8405000000000005,"name":"LG422","type":"W F","icao_code":"LF","area_code":"EUR"},{"id":"LG501","lat":45.27708333333333,"lon":5.906472222222222,"name":"LG501","type":"W D","icao_code":"LF","area_code":"EUR"},{"id":"LG502","lat":45.32211111111111,"lon":5.946638888888889,"name":"LG502","type":"W D","icao_code":"LF","area_code":"EUR"},{"id":"LG503","lat":45.43980555555556,"lon":6.016777777777778,"name":"LG503","type":"W D","icao_code":"LF","area_code":"EUR"},{"id":"LG522","lat":45.16725,"lon":5.725694444444445,"name":"LG522","type":"W F","icao_code":"LF","area_code":"EUR"},{"id":"MLG04","lat":45.21447222222222,"lon":5.812361111111111,"name":"MLG04","type":"WMF","icao_code":"LF","area_code":"EUR"},{"id":"MLG22","lat":45.247166666666665,"lon":5.860416666666667,"name":"MLG22","type":"WMF","icao_code":"LF","area_code":"EUR"},{"id":"MWF08","lat":48.40997222222222,"lon":-4.570833333333333,"name":"MWF08","type":"WMF","icao_code":"LF","area_code":"EUR"},{"id":"MWF26","lat":48.41186111111111,"lon":-4.494194444444444,"name":"MWF26","type":"WMF","icao_code":"LF","area_code":"EUR"},{"id":"PM261","lat":48.07516666666667,"lon":7.35125,"name":"PM261","type":"WMF","icao_code":"LF","area_code":"EUR"},{"id":"VIFGO","lat":45.04338888888889,"lon":5.681472222222222,"name":"VIFGO","type":"WIZ","icao_code":"LF","area_code":"EUR"},{"id":"WF400","lat":48.41538888888889,"lon":-4.467027777777778,"name":"WF400","type":"W D","icao_code":"LF","area_code":"EUR"},{"id":"WF404","lat":48.41538888888889,"lon":-4.415,"name":"WF404","type":"W D","icao_code":"LF","area_code":"EUR"},{"id":"WF410","lat":48.419916666666666,"lon":-4.272777777777778,"name":"WF410","type":"W D","icao_code":"LF","area_code":"EUR"},{"id":"WF500","lat":48.41458333333333,"lon":-4.565722222222222,"name":"WF500","type":"W D","icao_code":"LF","area_code":"EUR"},{"id":"WF506","lat":48.40983333333333,"lon":-4.666666666666667,"name":"WF506","type":"W D","icao_code":"LF","area_code":"EUR"},{"id":"WF510","lat":48.40511111111111,"lon":-4.765333333333333,"name":"WF510","type":"W D","icao_code":"LF","area_code":"EUR"},{"id":"WF712","lat":48.4375,"lon":-4.2740277777777775,"name":"WF712","type":"WIF","icao_code":"LF","area_code":"EUR"},{"id":"WF714","lat":48.39319444444445,"lon":-4.320861111111111,"name":"WF714","type":"WIF","icao_code":"LF","area_code":"EUR"},{"id":"WF716","lat":48.46702777777778,"lon":-4.340194444444444,"name":"WF716","type":"WIF","icao_code":"LF","area_code":"EUR"},{"id":"WF720","lat":48.40811111111111,"lon":-4.526138888888889,"name":"WF720","type":"W F","icao_code":"LF","area_code":"EUR"},{"id":"WF722","lat":48.45008333333333,"lon":-4.485694444444444,"name":"WF722","type":"W F","icao_code":"LF","area_code":"EUR"},{"id":"WF812","lat":48.37094444444445,"lon":-4.8043611111111115,"name":"WF812","type":"WIF","icao_code":"LF","area_code":"EUR"},{"id":"WF814","lat":48.33844444444444,"lon":-4.747972222222222,"name":"WF814","type":"WIF","icao_code":"LF","area_code":"EUR"},{"id":"WF820","lat":48.41555555555556,"lon":-4.537138888888888,"name":"WF820","type":"W F","icao_code":"LF","area_code":"EUR"},{"id":"WF822","lat":48.45641666666667,"lon":-4.694138888888888,"name":"WF822","type":"W F","icao_code":"LF","area_code":"EUR"},{"id":"WM803","lat":48.02308333333333,"lon":7.4935833333333335,"name":"WM803","type":"W F","icao_code":"LF","area_code":"EUR"},{"id":"WM804","lat":47.99905555555556,"lon":7.325555555555556,"name":"WM804","type":"W F","icao_code":"LF","area_code":"EUR"},{"id":"ABBOZ","lat":46.04371944444444,"lon":11.130033333333333,"name":"ABBOZ","type":"WIZ","icao_code":"LI","area_code":"EUR"},{"id":"ALUCE","lat":46.02333333333333,"lon":11.125,"name":"ALUCE","type":"W D","icao_code":"LI","area_code":"EUR"},{"id":"BAMOV","lat":46.29805555555556,"lon":11.061388888888889,"name":"BAMOV","type":"RIZ","icao_code":"LI","area_code":"EUR"},{"id":"BF001","lat":41.43413888888889,"lon":15.52186111111111,"name":"BF001","type":"WMZ","icao_code":"LI","area_code":"EUR"},{"id":"BF002","lat":41.47377777777778,"lon":15.474361111111111,"name":"BF002","type":"WAF","icao_code":"LI","area_code":"EUR"},{"id":"BF006","lat":41.40936111111111,"lon":15.5515,"name":"BF006","type":"W F","icao_code":"LI","area_code":"EUR"},{"id":"BF011","lat":42.05733333333333,"lon":15.383055555555556,"name":"BF011","type":"WLZ","icao_code":"LI","area_code":"EUR"},{"id":"BF012","lat":42.077444444444446,"lon":15.41875,"name":"BF012","type":"WAF","icao_code":"LI","area_code":"EUR"},{"id":"BF013","lat":42.10755555555556,"lon":15.47236111111111,"name":"BF013","type":"W F","icao_code":"LI","area_code":"EUR"},{"id":"BF014","lat":42.12963888888889,"lon":15.511722222222222,"name":"BF014","type":"W F","icao_code":"LI","area_code":"EUR"},{"id":"BF018","lat":42.105777777777774,"lon":15.469194444444444,"name":"BF018","type":"W D","icao_code":"LI","area_code":"EUR"},{"id":"BF107","lat":41.44283333333333,"lon":15.600916666666667,"name":"BF107","type":"W F","icao_code":"LI","area_code":"EUR"},{"id":"BF108","lat":41.544444444444444,"lon":15.479222222222223,"name":"BF108","type":"W F","icao_code":"LI","area_code":"EUR"},{"id":"BF116","lat":42.089666666666666,"lon":15.552111111111111,"name":"BF116","type":"W F","icao_code":"LI","area_code":"EUR"},{"id":"BF117","lat":42.01741666666667,"lon":15.423472222222223,"name":"BF117","type":"W F","icao_code":"LI","area_code":"EUR"},{"id":"BI104","lat":41.88063888888889,"lon":16.171666666666667,"name":"BI104","type":"W D","icao_code":"LI","area_code":"EUR"},{"id":"BI106","lat":41.90430555555555,"lon":16.182555555555556,"name":"BI106","type":"W D","icao_code":"LI","area_code":"EUR"},{"id":"BI107","lat":41.866527777777776,"lon":16.226472222222224,"name":"BI107","type":"W D","icao_code":"LI","area_code":"EUR"},{"id":"BI504","lat":41.84813888888889,"lon":16.15672222222222,"name":"BI504","type":"WMF","icao_code":"LI","area_code":"EUR"},{"id":"BI506","lat":41.871805555555554,"lon":16.16761111111111,"name":"BI506","type":"W F","icao_code":"LI","area_code":"EUR"},{"id":"BI507","lat":41.83405555555556,"lon":16.2115,"name":"BI507","type":"W F","icao_code":"LI","area_code":"EUR"},{"id":"BI508","lat":41.79580555555555,"lon":16.168388888888888,"name":"BI508","type":"W F","icao_code":"LI","area_code":"EUR"},{"id":"DT702","lat":46.12518333333333,"lon":11.106622222222223,"name":"DT702","type":"WLZ","icao_code":"LI","area_code":"EUR"},{"id":"DT703","lat":46.10826388888889,"lon":11.112008333333334,"name":"DT703","type":"WAF","icao_code":"LI","area_code":"EUR"},{"id":"DT704","lat":46.07188333333333,"lon":11.123583333333332,"name":"DT704","type":"WMF","icao_code":"LI","area_code":"EUR"},{"id":"DT706","lat":46.050783333333335,"lon":11.130288888888888,"name":"DT706","type":"W F","icao_code":"LI","area_code":"EUR"},{"id":"DT707","lat":46.004805555555556,"lon":11.123569444444444,"name":"DT707","type":"W F","icao_code":"LI","area_code":"EUR"},{"id":"DT708","lat":45.95323611111111,"lon":11.06878888888889,"name":"DT708","type":"W F","icao_code":"LI","area_code":"EUR"},{"id":"DT709","lat":45.93559722222222,"lon":11.102936111111111,"name":"DT709","type":"W F","icao_code":"LI","area_code":"EUR"},{"id":"DT711","lat":46.07541111111111,"lon":11.157505555555556,"name":"DT711","type":"W F","icao_code":"LI","area_code":"EUR"},{"id":"DT752","lat":46.16177777777778,"lon":11.109647222222222,"name":"DT752","type":"W F","icao_code":"LI","area_code":"EUR"},{"id":"DT761","lat":46.19280277777778,"lon":11.194902777777777,"name":"DT761","type":"W F","icao_code":"LI","area_code":"EUR"},{"id":"DT790","lat":46.19146388888889,"lon":11.24165,"name":"DT790","type":"W F","icao_code":"LI","area_code":"EUR"},{"id":"DT791","lat":46.211397222222224,"lon":11.206666666666667,"name":"DT791","type":"W F","icao_code":"LI","area_code":"EUR"},{"id":"EVSAC","lat":41.719722222222224,"lon":15.885277777777778,"name":"EVSAC","type":"WLZ","icao_code":"LI","area_code":"EUR"},{"id":"KA403","lat":46.135527777777774,"lon":11.091722222222222,"name":"KA403","type":"W Z","icao_code":"LI","area_code":"EUR"},{"id":"KA503","lat":45.9428,"lon":11.074977777777777,"name":"KA503","type":"W F","icao_code":"LI","area_code":"EUR"},{"id":"KA504","lat":45.88726111111111,"lon":11.044772222222223,"name":"KA504","type":"W F","icao_code":"LI","area_code":"EUR"},{"id":"KA506","lat":45.83000555555556,"lon":11.01298888888889,"name":"KA506","type":"W F","icao_code":"LI","area_code":"EUR"},{"id":"KA507","lat":45.83573888888889,"lon":10.966022222222222,"name":"KA507","type":"WLF","icao_code":"LI","area_code":"EUR"},{"id":"KA508","lat":45.84642777777778,"lon":10.947730555555555,"name":"KA508","type":"WAF","icao_code":"LI","area_code":"EUR"},{"id":"KA509","lat":45.88982222222222,"lon":10.873344444444445,"name":"KA509","type":"WMF","icao_code":"LI","area_code":"EUR"},{"id":"KA511","lat":45.903533333333336,"lon":10.849805555555555,"name":"KA511","type":"W F","icao_code":"LI","area_code":"EUR"},{"id":"KA512","lat":45.964888888888886,"lon":10.923197222222223,"name":"KA512","type":"W F","icao_code":"LI","area_code":"EUR"},{"id":"KA514","lat":46.08371388888889,"lon":11.008547222222223,"name":"KA514","type":"W F","icao_code":"LI","area_code":"EUR"},{"id":"KA601","lat":45.90376666666667,"lon":10.853305555555556,"name":"KA601","type":"W D","icao_code":"LI","area_code":"EUR"},{"id":"KA602","lat":45.86696666666667,"lon":10.882505555555555,"name":"KA602","type":"W D","icao_code":"LI","area_code":"EUR"},{"id":"KA603","lat":45.85846388888889,"lon":10.928627777777777,"name":"KA603","type":"W D","icao_code":"LI","area_code":"EUR"},{"id":"KA604","lat":45.849961111111114,"lon":10.973952777777777,"name":"KA604","type":"W D","icao_code":"LI","area_code":"EUR"},{"id":"KA606","lat":45.93355555555556,"lon":11.09618611111111,"name":"KA606","type":"W D","icao_code":"LI","area_code":"EUR"},{"id":"KB502","lat":46.251125,"lon":11.338366666666667,"name":"KB502","type":"WLF","icao_code":"LI","area_code":"EUR"},{"id":"KB503","lat":46.2571,"lon":11.360788888888889,"name":"KB503","type":"WAF","icao_code":"LI","area_code":"EUR"},{"id":"KB504","lat":46.27456388888889,"lon":11.426430555555555,"name":"KB504","type":"WMF","icao_code":"LI","area_code":"EUR"},{"id":"KB505","lat":46.29154444444445,"lon":11.49043611111111,"name":"KB505","type":"W F","icao_code":"LI","area_code":"EUR"},{"id":"KB790","lat":46.272058333333334,"lon":11.417,"name":"KB790","type":"W D","icao_code":"LI","area_code":"EUR"},{"id":"KB791","lat":46.26609166666667,"lon":11.394566666666666,"name":"KB791","type":"W D","icao_code":"LI","area_code":"EUR"},{"id":"KB792","lat":46.251125,"lon":11.338366666666667,"name":"KB792","type":"W D","icao_code":"LI","area_code":"EUR"},{"id":"KC501","lat":46.34898333333334,"lon":11.04288888888889,"name":"KC501","type":"W D","icao_code":"LI","area_code":"EUR"},{"id":"KC716","lat":46.27658611111111,"lon":11.067844444444445,"name":"KC716","type":"WLZ","icao_code":"LI","area_code":"EUR"},{"id":"KC717","lat":46.29390277777778,"lon":11.066966666666668,"name":"KC717","type":"WAF","icao_code":"LI","area_code":"EUR"},{"id":"KC718","lat":46.34952777777778,"lon":11.064144444444445,"name":"KC718","type":"WMF","icao_code":"LI","area_code":"EUR"},{"id":"KC719","lat":46.388105555555555,"lon":11.062186111111112,"name":"KC719","type":"W F","icao_code":"LI","area_code":"EUR"},{"id":"KC721","lat":46.38965,"lon":11.119483333333333,"name":"KC721","type":"W F","icao_code":"LI","area_code":"EUR"},{"id":"KC722","lat":46.303977777777774,"lon":11.124255555555555,"name":"KC722","type":"W F","icao_code":"LI","area_code":"EUR"},{"id":"KC771","lat":46.311844444444446,"lon":11.066102777777777,"name":"KC771","type":"W D","icao_code":"LI","area_code":"EUR"},{"id":"KC772","lat":46.222519444444444,"lon":11.083058333333334,"name":"KC772","type":"W D","icao_code":"LI","area_code":"EUR"},{"id":"KC781","lat":46.23822222222222,"lon":11.06761388888889,"name":"KC781","type":"W F","icao_code":"LI","area_code":"EUR"},{"id":"YB107","lat":41.01569444444444,"lon":17.01033333333333,"name":"YB107","type":"WLZ","icao_code":"LI","area_code":"EUR"},{"id":"YB108","lat":41.05336111111111,"lon":16.951444444444444,"name":"YB108","type":"WAZ","icao_code":"LI","area_code":"EUR"},{"id":"YB109","lat":41.10711111111111,"lon":16.86722222222222,"name":"YB109","type":"WMZ","icao_code":"LI","area_code":"EUR"},{"id":"YB111","lat":41.11588888888889,"lon":16.853472222222223,"name":"YB111","type":"W F","icao_code":"LI","area_code":"EUR"},{"id":"YB112","lat":41.135527777777774,"lon":16.925305555555557,"name":"YB112","type":"W F","icao_code":"LI","area_code":"EUR"},{"id":"YB113","lat":41.10325,"lon":16.97586111111111,"name":"YB113","type":"W F","icao_code":"LI","area_code":"EUR"},{"id":"YC502","lat":41.45283333333333,"lon":14.988416666666666,"name":"YC502","type":"WLF","icao_code":"LI","area_code":"EUR"},{"id":"YC503","lat":41.50275,"lon":14.993055555555555,"name":"YC503","type":"WAF","icao_code":"LI","area_code":"EUR"},{"id":"YC504","lat":41.55169444444444,"lon":14.997583333333333,"name":"YC504","type":"WMF","icao_code":"LI","area_code":"EUR"},{"id":"YC506","lat":41.565416666666664,"lon":14.998861111111111,"name":"YC506","type":"W F","icao_code":"LI","area_code":"EUR"},{"id":"YC507","lat":41.56188888888889,"lon":15.065333333333333,"name":"YC507","type":"W F","icao_code":"LI","area_code":"EUR"},{"id":"YC508","lat":41.51230555555556,"lon":15.05636111111111,"name":"YC508","type":"W F","icao_code":"LI","area_code":"EUR"},{"id":"YC509","lat":41.577,"lon":14.991055555555555,"name":"YC509","type":"W D","icao_code":"LI","area_code":"EUR"},{"id":"YC511","lat":41.606972222222225,"lon":14.971555555555556,"name":"YC511","type":"W D","icao_code":"LI","area_code":"EUR"},{"id":"YP101","lat":41.94661111111111,"lon":16.01022222222222,"name":"YP101","type":"W D","icao_code":"LI","area_code":"EUR"},{"id":"YP102","lat":41.9715,"lon":16.006722222222223,"name":"YP102","type":"W D","icao_code":"LI","area_code":"EUR"},{"id":"YP103","lat":41.95113888888889,"lon":16.067944444444443,"name":"YP103","type":"W D","icao_code":"LI","area_code":"EUR"},{"id":"YP104","lat":41.892805555555555,"lon":16.07063888888889,"name":"YP104","type":"W D","icao_code":"LI","area_code":"EUR"},{"id":"YP502","lat":41.85455555555556,"lon":16.05061111111111,"name":"YP502","type":"WAF","icao_code":"LI","area_code":"EUR"},{"id":"YP503","lat":41.91111111111111,"lon":16.021583333333332,"name":"YP503","type":"WMF","icao_code":"LI","area_code":"EUR"},{"id":"YP504","lat":41.936277777777775,"lon":16.00863888888889,"name":"YP504","type":"W F","icao_code":"LI","area_code":"EUR"},{"id":"YP506","lat":41.928444444444445,"lon":16.074805555555557,"name":"YP506","type":"W F","icao_code":"LI","area_code":"EUR"},{"id":"YP507","lat":41.878416666666666,"lon":16.07472222222222,"name":"YP507","type":"W F","icao_code":"LI","area_code":"EUR"},{"id":"YS502","lat":41.669555555555554,"lon":15.657027777777778,"name":"YS502","type":"WAZ","icao_code":"LI","area_code":"EUR"},{"id":"YS503","lat":41.68902777777778,"lon":15.700194444444444,"name":"YS503","type":"WMZ","icao_code":"LI","area_code":"EUR"},{"id":"YS504","lat":41.69636111111111,"lon":15.716472222222222,"name":"YS504","type":"W F","icao_code":"LI","area_code":"EUR"},{"id":"YS506","lat":41.65347222222222,"lon":15.75088888888889,"name":"YS506","type":"W F","icao_code":"LI","area_code":"EUR"},{"id":"YS507","lat":41.65258333333333,"lon":15.684166666666666,"name":"YS507","type":"W F","icao_code":"LI","area_code":"EUR"},{"id":"YS508","lat":41.73122222222222,"lon":15.972972222222221,"name":"YS508","type":"W E","icao_code":"LI","area_code":"EUR"},{"id":"YS511","lat":41.70697222222222,"lon":15.786527777777778,"name":"YS511","type":"WAF","icao_code":"LI","area_code":"EUR"},{"id":"YS512","lat":41.69836111111111,"lon":15.721083333333333,"name":"YS512","type":"WMF","icao_code":"LI","area_code":"EUR"},{"id":"YS513","lat":41.68963888888889,"lon":15.655,"name":"YS513","type":"W F","icao_code":"LI","area_code":"EUR"},{"id":"YS514","lat":41.64538888888889,"lon":15.7045,"name":"YS514","type":"W F","icao_code":"LI","area_code":"EUR"},{"id":"YS516","lat":41.67052777777778,"lon":15.896638888888889,"name":"YS516","type":"W F","icao_code":"LI","area_code":"EUR"},{"id":"09NM","lat":47.27616666666667,"lon":16.18626666666667,"name":"ATD172001   (DO904)","type":"IPF","icao_code":"LO","area_code":"EUR"},{"id":"AV900","lat":47.919380555555556,"lon":16.387586111111112,"name":"AV900","type":"WLF","icao_code":"LO","area_code":"EUR"},{"id":"AV901","lat":47.93526388888889,"lon":16.342194444444445,"name":"AV901","type":"WAF","icao_code":"LO","area_code":"EUR"},{"id":"AV902","lat":47.959855555555556,"lon":16.271763888888888,"name":"AV902","type":"WMF","icao_code":"LO","area_code":"EUR"},{"id":"AV903","lat":47.97213055555556,"lon":16.236538888888887,"name":"AV903","type":"W F","icao_code":"LO","area_code":"EUR"},{"id":"AV950","lat":47.97077222222222,"lon":16.2744,"name":"AV950","type":"W D","icao_code":"LO","area_code":"EUR"},{"id":"AV951","lat":47.98661111111111,"lon":16.326027777777778,"name":"AV951","type":"W Z","icao_code":"LO","area_code":"EUR"},{"id":"BI503","lat":41.803444444444445,"lon":16.136166666666668,"name":"BI503","type":"WAF","icao_code":"LO","area_code":"EUR"},{"id":"DO700","lat":47.09063888888889,"lon":15.848725,"name":"DO700","type":"W E","icao_code":"LO","area_code":"EUR"},{"id":"DO800","lat":47.395697222222225,"lon":16.27413888888889,"name":"DO800","type":"W E","icao_code":"LO","area_code":"EUR"},{"id":"DO801","lat":47.232752777777776,"lon":16.269336111111112,"name":"DO801","type":"W E","icao_code":"LO","area_code":"EUR"},{"id":"DO900","lat":47.18512222222222,"lon":16.194872222222223,"name":"DO900","type":"WKF","icao_code":"LO","area_code":"EUR"},{"id":"DO901","lat":47.18188888888889,"lon":16.12172222222222,"name":"DO901","type":"WIZ","icao_code":"LO","area_code":"EUR"},{"id":"DO902","lat":47.18830833333333,"lon":16.268030555555555,"name":"DO902","type":"WIZ","icao_code":"LO","area_code":"EUR"},{"id":"DO903","lat":47.234994444444446,"lon":16.190158333333333,"name":"DO903","type":"WAF","icao_code":"LO","area_code":"EUR"},{"id":"DO904","lat":47.291130555555554,"lon":16.184852777777778,"name":"DO904","type":"WMF","icao_code":"LO","area_code":"EUR"},{"id":"DO905","lat":47.33806111111111,"lon":16.180405555555556,"name":"DO905","type":"W F","icao_code":"LO","area_code":"EUR"},{"id":"DO950","lat":47.31856666666667,"lon":16.182402777777778,"name":"DO950","type":"W D","icao_code":"LO","area_code":"EUR"},{"id":"DO951","lat":47.390819444444446,"lon":16.17635,"name":"DO951","type":"W D","icao_code":"LO","area_code":"EUR"},{"id":"GH900","lat":47.00383055555555,"lon":15.606133333333334,"name":"GH900","type":"WIF","icao_code":"LO","area_code":"EUR"},{"id":"GH901","lat":46.98233333333334,"lon":15.546505555555555,"name":"GH901","type":"WLF","icao_code":"LO","area_code":"EUR"},{"id":"GH902","lat":47.02256111111111,"lon":15.515480555555555,"name":"GH902","type":"WAF","icao_code":"LO","area_code":"EUR"},{"id":"GH903","lat":47.06743055555555,"lon":15.480813888888889,"name":"GH903","type":"WMZ","icao_code":"LO","area_code":"EUR"},{"id":"GH904","lat":47.08730277777778,"lon":15.465438888888889,"name":"GH904","type":"W F","icao_code":"LO","area_code":"EUR"},{"id":"CUBIG","lat":21.989941666666667,"lon":-159.335875,"name":"CUBIG","type":"WMF","icao_code":"PH","area_code":"PAC"},{"id":"JABDI","lat":21.996980555555556,"lon":-159.32299722222223,"name":"JABDI","type":"WMF","icao_code":"PH","area_code":"PAC"},{"id":"KREEN","lat":21.996277777777777,"lon":-159.12556388888888,"name":"KREEN","type":"CIF","icao_code":"PH","area_code":"PAC"},{"id":"MAVKP","lat":21.99465,"lon":-159.32541666666665,"name":"MAVKP","type":"WMF","icao_code":"PH","area_code":"PAC"},{"id":"MAVLB","lat":21.949616666666667,"lon":-159.33166111111112,"name":"MAVLB","type":"WMF","icao_code":"PH","area_code":"PAC"},{"id":"COGPA","lat":35.42617222222222,"lon":139.37759722222222,"name":"COGPA","type":"WKF","icao_code":"RJ","area_code":"PAC"},{"id":"FH300","lat":33.69302777777778,"lon":130.37830555555556,"name":"FH300","type":"W D","icao_code":"RJ","area_code":"PAC"},{"id":"FH301","lat":33.72497222222222,"lon":130.29175,"name":"FH301","type":"W D","icao_code":"RJ","area_code":"PAC"},{"id":"FH550","lat":33.69130277777778,"lon":130.3795888888889,"name":"FH550","type":"WMF","icao_code":"RJ","area_code":"PAC"},{"id":"FH551","lat":33.702780555555556,"lon":130.27712222222223,"name":"FH551","type":"W F","icao_code":"RJ","area_code":"PAC"},{"id":"ISONO","lat":33.71364166666667,"lon":130.36129722222222,"name":"ISONO","type":"W D","icao_code":"RJ","area_code":"PAC"},{"id":"KAVSE","lat":35.45914444444445,"lon":139.38363611111112,"name":"KAVSE","type":"WAF","icao_code":"RJ","area_code":"PAC"},{"id":"KETSE","lat":35.56599722222222,"lon":139.4032361111111,"name":"KETSE","type":"WAF","icao_code":"RJ","area_code":"PAC"},{"id":"MASUO","lat":33.71200555555556,"lon":130.3627138888889,"name":"MASUO","type":"WAF","icao_code":"RJ","area_code":"PAC"},{"id":"R01H","lat":35.51276111111111,"lon":139.39345555555556,"name":"R01H","type":"WMF","icao_code":"RJ","area_code":"PAC"},{"id":"SAZAE","lat":33.73735555555555,"lon":130.32052222222222,"name":"SAZAE","type":"WLF","icao_code":"RJ","area_code":"PAC"},{"id":"TIMUE","lat":35.599,"lon":139.40933333333334,"name":"TIMUE","type":"WKZ","icao_code":"RJ","area_code":"PAC"},{"id":"40VOR","lat":14.477552777777777,"lon":120.96051388888888,"name":"MIA243004","type":"IPF","icao_code":"RP","area_code":"PAC"},{"id":"ASBAH","lat":14.529166666666667,"lon":120.995,"name":"ASBAH","type":"WMF","icao_code":"RP","area_code":"PAC"},{"id":"AYIFF","lat":14.8325,"lon":121.08305555555556,"name":"AYIFF","type":"W E","icao_code":"RP","area_code":"PAC"},{"id":"BORIS","lat":14.046944444444444,"lon":121.28222222222222,"name":"BORIS","type":"W E","icao_code":"RP","area_code":"PAC"},{"id":"BUZAL","lat":14.7745,"lon":121.11761111111112,"name":"BUZAL","type":"WIZ","icao_code":"RP","area_code":"PAC"},{"id":"CD06","lat":14.424280555555555,"lon":120.85342222222222,"name":"MIA243011","type":"ICF","icao_code":"RP","area_code":"PAC"},{"id":"D057D","lat":14.54306388888889,"lon":121.07515833333333,"name":"MIA057004","type":"I F","icao_code":"RP","area_code":"PAC"},{"id":"D243D","lat":14.478494444444445,"lon":120.96485277777778,"name":"MIA243004","type":"I F","icao_code":"RP","area_code":"PAC"},{"id":"DOXEB","lat":14.329222222222223,"lon":120.69141666666667,"name":"DOXEB","type":"RIZ","icao_code":"RP","area_code":"PAC"},{"id":"ELLIS","lat":14.56638888888889,"lon":120.93777777777778,"name":"ELLIS","type":"WLF","icao_code":"RP","area_code":"PAC"},{"id":"ESTEL","lat":14.220833333333333,"lon":120.50222222222222,"name":"ESTEL","type":"W E","icao_code":"RP","area_code":"PAC"},{"id":"FD06","lat":14.462336111111112,"lon":120.92991111111111,"name":"MIA243006","type":"IAF","icao_code":"RP","area_code":"PAC"},{"id":"FF06","lat":14.435163888888889,"lon":120.88740277777778,"name":"IML241010","type":"IAF","icao_code":"RP","area_code":"PAC"},{"id":"FS06","lat":14.45293888888889,"lon":120.91556944444444,"name":"MIA243007","type":"IAF","icao_code":"RP","area_code":"PAC"},{"id":"GONDO","lat":14.326777777777778,"lon":120.6925,"name":"GONDO","type":"WIZ","icao_code":"RP","area_code":"PAC"},{"id":"LL24H","lat":14.730888888888888,"lon":121.14316666666667,"name":"LL24H","type":"W F","icao_code":"RP","area_code":"PAC"},{"id":"MALAC","lat":14.581111111111111,"lon":120.915,"name":"MALAC","type":"W F","icao_code":"RP","area_code":"PAC"},{"id":"MD06","lat":14.490480555555555,"lon":120.98653055555556,"name":"MIA243002","type":"IMF","icao_code":"RP","area_code":"PAC"},{"id":"ML06","lat":14.493072222222223,"lon":120.99154166666666,"name":"IML241003","type":"IMF","icao_code":"RP","area_code":"PAC"},{"id":"MUTAN","lat":14.705916666666667,"lon":121.37491666666666,"name":"MUTAN","type":"WIZ","icao_code":"RP","area_code":"PAC"},{"id":"MYLIN","lat":14.547777777777778,"lon":120.96638888888889,"name":"MYLIN","type":"WAF","icao_code":"RP","area_code":"PAC"},{"id":"NATAY","lat":14.495277777777778,"lon":121.28105555555555,"name":"NATAY","type":"WIZ","icao_code":"RP","area_code":"PAC"},{"id":"OYLER","lat":14.68361111111111,"lon":120.81416666666667,"name":"OYLER","type":"RIF","icao_code":"RP","area_code":"PAC"},{"id":"PALAG","lat":14.615555555555556,"lon":120.86222222222223,"name":"PALAG","type":"WIZ","icao_code":"RP","area_code":"PAC"},{"id":"PATCA","lat":14.789722222222222,"lon":121.52444444444444,"name":"PATCA","type":"W E","icao_code":"RP","area_code":"PAC"},{"id":"SIDRO","lat":15.022638888888888,"lon":120.78302777777778,"name":"SIDRO","type":"W E","icao_code":"RP","area_code":"PAC"},{"id":"TARA","lat":14.409602777777778,"lon":120.83920555555555,"name":"TARA","type":"RLF","icao_code":"RP","area_code":"PAC"},{"id":"WAYEM","lat":14.1725,"lon":120.94611111111111,"name":"WAYEM","type":"W E","icao_code":"RP","area_code":"PAC"},{"id":"YANNI","lat":14.616388888888888,"lon":120.68555555555555,"name":"YANNI","type":"W E","icao_code":"RP","area_code":"PAC"},{"id":"CUSDO","lat":22.27885,"lon":114.09544444444444,"name":"CUSDO","type":"WMF","icao_code":"VH","area_code":"PAC"},{"id":"FIDLA","lat":22.235008333333333,"lon":114.06246944444445,"name":"FIDLA","type":"WAZ","icao_code":"VH","area_code":"PAC"},{"id":"IONIC","lat":22.267916666666668,"lon":114.08720277777778,"name":"IONIC","type":"W D","icao_code":"VH","area_code":"PAC"},{"id":"KEMTE","lat":22.09571111111111,"lon":114.11403888888889,"name":"KEMTE","type":"W D","icao_code":"VH","area_code":"PAC"},{"id":"WALIN","lat":22.094472222222223,"lon":113.97866666666667,"name":"WALIN","type":"WIF","icao_code":"VH","area_code":"PAC"},{"id":"ZEXEK","lat":22.173083333333334,"lon":114.00969444444445,"name":"ZEXEK","type":"WLZ","icao_code":"VH","area_code":"PAC"},{"id":"AG001","lat":-23.06801388888889,"lon":-44.40033611111111,"name":"AG001","type":"WIZ","icao_code":"SB","area_code":"SAM"},{"id":"AG002","lat":-22.98363611111111,"lon":-44.416175,"name":"AG002","type":"WLF","icao_code":"SB","area_code":"SAM"},{"id":"AG003","lat":-22.959772222222224,"lon":-44.39086666666667,"name":"AG003","type":"WAF","icao_code":"SB","area_code":"SAM"},{"id":"AG004","lat":-22.968366666666668,"lon":-44.34661388888889,"name":"AG004","type":"WMZ","icao_code":"SB","area_code":"SAM"},{"id":"AG006","lat":-22.97418888888889,"lon":-44.31659444444445,"name":"AG006","type":"W F","icao_code":"SB","area_code":"SAM"},{"id":"AG007","lat":-23.014166666666668,"lon":-44.311166666666665,"name":"AG007","type":"W F","icao_code":"SB","area_code":"SAM"},{"id":"AG008","lat":-23.08796111111111,"lon":-44.346066666666665,"name":"AG008","type":"W F","icao_code":"SB","area_code":"SAM"},{"id":"AG012","lat":-22.97424722222222,"lon":-44.381813888888885,"name":"AG012","type":"W D","icao_code":"SB","area_code":"SAM"},{"id":"AG013","lat":-23.145622222222222,"lon":-44.38455277777778,"name":"AG013","type":"WIF","icao_code":"SB","area_code":"SAM"},{"id":"BUTRU","lat":-22.69901388888889,"lon":-40.637708333333336,"name":"BUTRU","type":"W D","icao_code":"SB","area_code":"SAM"},{"id":"CQ001","lat":-30.007833333333334,"lon":-55.020247222222224,"name":"CQ001","type":"WIF","icao_code":"SB","area_code":"SAM"},{"id":"CQ002","lat":-30.068758333333335,"lon":-54.978633333333335,"name":"CQ002","type":"WIF","icao_code":"SB","area_code":"SAM"},{"id":"CQ003","lat":-30.03256111111111,"lon":-54.90861666666667,"name":"CQ003","type":"WIF","icao_code":"SB","area_code":"SAM"},{"id":"CQ004","lat":-30.020186111111112,"lon":-54.96443333333333,"name":"CQ004","type":"WLF","icao_code":"SB","area_code":"SAM"},{"id":"CQ006","lat":-29.971611111111113,"lon":-54.950244444444444,"name":"CQ006","type":"WAF","icao_code":"SB","area_code":"SAM"},