[{"airport_identifier":"DAOO","id":"ON","name":"ORAN","freq":415,"lat":35.7146,"lon":-0.351375,"navaid_class":"H MW ","magvar":1,"range":25},{"airport_identifier":"DNBC","id":"BU","name":"BAUCHI","freq":323,"lat":10.507802777777778,"lon":9.7396,"navaid_class":"H MW ","magvar":-1,"range":25},{"airport_identifier":"DNGO","id":"GO","name":"GOMBE","freq":360,"lat":10.300444444444445,"lon":10.897305555555555,"navaid_class":"H MW ","magvar":-1,"range":25},{"airport_identifier":"DNIL","id":"IL","name":"ILORIN","freq":391,"lat":8.425027777777778,"lon":4.476388888888889,"navaid_class":"H LW ","magvar":-2,"range":20},{"airport_identifier":"DNKA","id":"KC","name":"NEW KADUNA","freq":330,"lat":10.681694444444444,"lon":7.303222222222222,"navaid_class":"H LW ","magvar":-1,"range":20},{"airport_identifier":"DNKT","id":"KT","name":"KATSINA","freq":365,"lat":12.990416666666667,"lon":7.643277777777778,"navaid_class":"H LW ","magvar":-1,"range":20},{"airport_identifier":"DNMA","id":"MA","name":"MAIDUGURI","freq":332,"lat":11.838194444444444,"lon":13.062888888888889,"navaid_class":"H MW ","magvar":1,"range":25},{"airport_identifier":"DNMN","id":"MN","name":"MINNA","freq":350,"lat":9.669055555555556,"lon":6.479388888888889,"navaid_class":"H LW ","magvar":-1,"range":20},{"airport_identifier":"DNZA","id":"ZA","name":"ZARIA","freq":336,"lat":11.141166666666667,"lon":7.698777777777778,"navaid_class":"H LW ","magvar":-1,"range":20},{"airport_identifier":"DTMB","id":"MS","name":"M'SAKEN ","freq":275,"lat":35.72544444444444,"lon":10.62325,"navaid_class":"H  W ","magvar":3,"range":50},{"airport_identifier":"FBPM","id":"FRW","name":"FRANCISTOWN","freq":375,"lat":-21.164313888888888,"lon":27.487783333333333,"navaid_class":"H LW ","magvar":-13,"range":25},{"airport_identifier":"FGMY","id":"MY","name":"MONGOMEYEN","freq":382,"lat":1.6638055555555555,"lon":11.023188888888889,"navaid_class":"H  W ","magvar":-2,"range":50},{"airport_identifier":"FMMI","id":"IA","name":"IVATO ","freq":364,"lat":-18.793366666666667,"lon":47.454908333333336,"navaid_class":"H MW ","magvar":-15,"range":25},{"airport_identifier":"FMMI","id":"IO","name":"IVATO ","freq":305,"lat":-18.784080555555555,"lon":47.392891666666664,"navaid_class":"H MW ","magvar":-15,"range":25},{"airport_identifier":"FMMT","id":"MV","name":"TOAMASINA","freq":267,"lat":-18.09138888888889,"lon":49.39052777777778,"navaid_class":"HMMW ","magvar":-15,"range":25},{"airport_identifier":"FMMT","id":"TO","name":"TOAMASINA","freq":394,"lat":-18.040694444444444,"lon":49.384972222222224,"navaid_class":"HOMW ","magvar":-15,"range":25},{"airport_identifier":"FVRG","id":"OL","name":"ROBERT GABRIEL MUGABE INTL","freq":346,"lat":-17.99427222222222,"lon":31.027566666666665,"navaid_class":"H MW ","magvar":-8,"range":25},{"airport_identifier":"FVRG","id":"SI","name":"ROBERT GABRIEL MUGABE INTL","freq":330,"lat":-17.953766666666667,"lon":31.069891666666667,"navaid_class":"H MW ","magvar":-8,"range":25},{"airport_identifier":"FWKI","id":"KG","name":"KAMUZU INTL ","freq":305,"lat":-13.737222222222222,"lon":33.716944444444444,"navaid_class":"HOHW ","magvar":-3,"range":25},{"airport_identifier":"FZAA","id":"OK","name":"N'DJILI INTL ","freq":340,"lat":-4.340130555555556,"lon":15.515047222222222,"navaid_class":"H MW ","magvar":-2,"range":25},{"airport_identifier":"GMFF","id":"FEZ","name":"SAISS ","freq":315,"lat":33.926875,"lon":-4.890919444444444,"navaid_class":"H LW ","magvar":-2,"range":25},{"airport_identifier":"GMME","id":"SBI","name":"RABAT","freq":332,"lat":34.176405555555554,"lon":-6.6642777777777775,"navaid_class":"H MW ","magvar":0,"range":25},{"airport_identifier":"GMMN","id":"NSR","name":"BARRECHID ","freq":282,"lat":33.27342222222222,"lon":-7.555366666666667,"navaid_class":"H LW ","magvar":-1,"range":25},{"airport_identifier":"HAAM","id":"AM","name":"ARBA MINCH","freq":275,"lat":6.057691666666667,"lon":37.60235,"navaid_class":"H    ","magvar":2,"range":50},{"airport_identifier":"HEAZ","id":"A","name":"ALMAZA AB","freq":490,"lat":30.09122222222222,"lon":31.360944444444446,"navaid_class":"H MW ","magvar":5,"range":25},{"airport_identifier":"HLBK","id":"OM","name":"KAMBUT ","freq":344,"lat":31.85413888888889,"lon":24.592472222222224,"navaid_class":"H LW ","magvar":3,"range":20},{"airport_identifier":"HLLB","id":"BN","name":"BENINA ","freq":362,"lat":32.172222222222224,"lon":20.219444444444445,"navaid_class":"H LW ","magvar":3,"range":20},{"airport_identifier":"HLUB","id":"UBA","name":"UBARI","freq":435,"lat":26.570283333333332,"lon":12.823833333333333,"navaid_class":"H LW ","magvar":2,"range":20},{"airport_identifier":"CJW5","id":"3Z","name":"RUSSELL","freq":263,"lat":50.76416666666667,"lon":-101.29638888888888,"navaid_class":"H M  ","magvar":7,"range":25},{"airport_identifier":"CSH4","id":"2H","name":"LEBEL-SUR-QUEVILLON","freq":261,"lat":49.03585555555556,"lon":-77.02004444444445,"navaid_class":"H M  ","magvar":-14,"range":25},{"airport_identifier":"CYFI","id":"1L","name":"FORT MACKAY/FIREBAG","freq":400,"lat":57.28066111111111,"lon":-110.97223333333334,"navaid_class":"H MW ","magvar":14,"range":25},{"airport_identifier":"CYHZ","id":"ZHZ","name":"SPLIT CROW ","freq":364,"lat":44.80222222222222,"lon":-63.58972222222222,"navaid_class":"H MW ","magvar":-18,"range":25},{"airport_identifier":"CYHZ","id":"ZNS","name":"BLUENOSE ","freq":385,"lat":44.96666111111111,"lon":-63.42701111111111,"navaid_class":"H MW ","magvar":-18,"range":25},{"airport_identifier":"CYTR","id":"ZZR","name":"SEVERN ","freq":317,"lat":44.05277777777778,"lon":-77.62666666666667,"navaid_class":"H MW ","magvar":-12,"range":25},{"airport_identifier":"CYYZ","id":"ZTO","name":"WOODHILL ","freq":403,"lat":43.73878611111111,"lon":-79.70341944444445,"navaid_class":"H M  ","magvar":-10,"range":25},{"airport_identifier":"CYZP","id":"ZZP","name":"DEAD TREE ","freq":248,"lat":53.35003611111111,"lon":-131.940025,"navaid_class":"H MW ","magvar":19,"range":25},{"airport_identifier":"EPDA","id":"S","name":"DARLOWO","freq":436,"lat":54.41463888888889,"lon":16.36863888888889,"navaid_class":"H L  ","magvar":6,"range":15},{"airport_identifier":"EPDA","id":"SA","name":"DARLOWO","freq":474.5,"lat":54.43225,"lon":16.396361111111112,"navaid_class":"H L  ","magvar":6,"range":20},{"airport_identifier":"EPDE","id":"ND","name":"DEBLIN","freq":366,"lat":51.5415,"lon":21.918,"navaid_class":"H L  ","magvar":6,"range":20},{"airport_identifier":"EPDE","id":"NE","name":"DEBLIN","freq":366,"lat":51.56075,"lon":21.866083333333332,"navaid_class":"H L  ","magvar":6,"range":20},{"airport_identifier":"EPIR","id":"NR","name":"INOWROCLAW","freq":262,"lat":52.834805555555555,"lon":18.34375,"navaid_class":"H L  ","magvar":6,"range":20},{"airport_identifier":"EPIR","id":"NRD","name":"INOWROCLAW","freq":444,"lat":52.84475,"lon":18.36488888888889,"navaid_class":"H L  ","magvar":6,"range":20},{"airport_identifier":"EPKS","id":"NK","name":"KRZESINY ","freq":489,"lat":52.322472222222224,"lon":16.99588888888889,"navaid_class":"H L  ","magvar":5,"range":20},{"airport_identifier":"EPLY","id":"NW","name":"LECZYCA","freq":520,"lat":51.999805555555554,"lon":19.17813888888889,"navaid_class":"H L  ","magvar":6,"range":20},{"airport_identifier":"EPLY","id":"NWT","name":"LECZYCA","freq":385,"lat":51.99330555555556,"lon":19.220388888888888,"navaid_class":"H L  ","magvar":6,"range":20},{"airport_identifier":"EPMB","id":"NB","name":"MALBORK","freq":345,"lat":54.03030555555556,"lon":19.168805555555554,"navaid_class":"H L  ","magvar":7,"range":15},{"airport_identifier":"EPMI","id":"NA","name":"MIROSLAWIEC","freq":297,"lat":53.383916666666664,"lon":16.109555555555556,"navaid_class":"H L  ","magvar":5,"range":20},{"airport_identifier":"EPMM","id":"NF","name":"MINSK MAZOWIECKI","freq":282,"lat":52.19541666666667,"lon":21.691833333333335,"navaid_class":"H L  ","magvar":6,"range":20},{"airport_identifier":"EPPR","id":"NE","name":"PRUSZCZ GDANSKI","freq":300,"lat":54.24513888888889,"lon":18.700222222222223,"navaid_class":"H L  ","magvar":6,"range":20},{"airport_identifier":"EPPR","id":"NET","name":"PRUSZCZ GDANSKI","freq":370,"lat":54.24063888888889,"lon":18.745666666666665,"navaid_class":"H L  ","magvar":6,"range":20},{"airport_identifier":"EPPW","id":"NG","name":"POWIDZ","freq":322,"lat":52.371138888888886,"lon":17.89338888888889,"navaid_class":"H L  ","magvar":5,"range":20},{"airport_identifier":"EPPW","id":"NT","name":"POWIDZ","freq":303,"lat":52.375972222222224,"lon":17.880972222222223,"navaid_class":"H L  ","magvar":5,"range":20},{"airport_identifier":"EPRA","id":"NR","name":"RADOM ","freq":313,"lat":51.39383333333333,"lon":21.24163888888889,"navaid_class":"H L  ","magvar":7,"range":20},{"airport_identifier":"EPRA","id":"NRA","name":"RADOM ","freq":328,"lat":51.40063888888889,"lon":21.28188888888889,"navaid_class":"H L  ","magvar":7,"range":20},{"airport_identifier":"EPSN","id":"ND","name":"SWIDWIN","freq":280,"lat":53.78341666666667,"lon":15.858277777777777,"navaid_class":"H L  ","magvar":5,"range":20},{"airport_identifier":"EPTM","id":"NP","name":"TOMASZOW MAZOWIECKI","freq":437,"lat":51.57658333333333,"lon":20.124,"navaid_class":"H L  ","magvar":6,"range":20},{"airport_identifier":"EPTM","id":"NPR","name":"TOMASZOW MAZOWIECKI","freq":488,"lat":51.565194444444444,"lon":20.161805555555556,"navaid_class":"H L  ","magvar":6,"range":20},{"airport_identifier":"EYKA","id":"KUS","name":"KAUNAS INTL","freq":343,"lat":54.96572222222222,"lon":24.121861111111112,"navaid_class":"H L  ","magvar":8,"range":20},{"airport_identifier":"EYPA","id":"PN","name":"PALANGA INTL","freq":407,"lat":55.95641666666667,"lon":21.087083333333332,"navaid_class":"H L  ","magvar":6,"range":15},{"airport_identifier":"LBGO","id":"GNA","name":"GORNA ","freq":284,"lat":43.161722222222224,"lon":25.61413888888889,"navaid_class":"H L  ","magvar":6,"range":20},{"airport_identifier":"LHBC","id":"BC","name":"BEKESCSABA","freq":400,"lat":46.66488888888889,"lon":21.16508333333333,"navaid_class":"H LW ","magvar":6,"range":20},{"airport_identifier":"LHDC","id":"DC","name":"DEBRECEN","freq":295,"lat":47.45675,"lon":21.563055555555554,"navaid_class":"H L  ","magvar":6,"range":20},{"airport_identifier":"LHDC","id":"EN","name":"DEBRECEN","freq":383,"lat":47.53325,"lon":21.688027777777776,"navaid_class":"H L  ","magvar":6,"range":20},{"airport_identifier":"LHKE","id":"N","name":"KECSKEMET","freq":440,"lat":46.928555555555555,"lon":19.724166666666665,"navaid_class":"HML  ","magvar":5,"range":15},{"airport_identifier":"LHKE","id":"NT","name":"KECSKEMET","freq":313,"lat":46.94486111111111,"lon":19.68702777777778,"navaid_class":"HOLW ","magvar":5,"range":15},{"airport_identifier":"LHKE","id":"T","name":"KECSKEMET","freq":440,"lat":46.90627777777778,"lon":19.77466666666667,"navaid_class":"HML  ","magvar":5,"range":15},{"airport_identifier":"LHKE","id":"TN","name":"KECSKEMET","freq":313,"lat":46.89222222222222,"lon":19.806555555555555,"navaid_class":"HOLW ","magvar":5,"range":15},{"airport_identifier":"LHNY","id":"NY","name":"NYIREGYHAZA 36","freq":330,"lat":47.911833333333334,"lon":21.687944444444444,"navaid_class":"H L  ","magvar":6,"range":30},{"airport_identifier":"LHNY","id":"PQ","name":"NYIREGYHAZA","freq":522,"lat":48.001305555555554,"lon":21.692888888888888,"navaid_class":"H L  ","magvar":6,"range":30},{"airport_identifier":"LHNY","id":"Y","name":"NYIREGYHAZA 36","freq":346,"lat":47.967888888888886,"lon":21.691833333333335,"navaid_class":"H L  ","magvar":6,"range":30},{"airport_identifier":"LHPA","id":"C","name":"PAPA","freq":493,"lat":47.38202777777778,"lon":17.49111111111111,"navaid_class":"HML  ","magvar":5,"range":15},{"airport_identifier":"LHPA","id":"CP","name":"PAPA","freq":318,"lat":47.40716666666667,"lon":17.477888888888888,"navaid_class":"HOL  ","magvar":5,"range":15},{"airport_identifier":"LHPA","id":"P","name":"PAPA","freq":493,"lat":47.34480555555555,"lon":17.510638888888888,"navaid_class":"HML  ","magvar":5,"range":15},{"airport_identifier":"LHPA","id":"PC","name":"PAPA","freq":318,"lat":47.31863888888889,"lon":17.524333333333335,"navaid_class":"HOL  ","magvar":5,"range":15},{"airport_identifier":"LHSN","id":"A","name":"SZOLNOK","freq":422,"lat":47.10541666666666,"lon":20.225666666666665,"navaid_class":"HML  ","magvar":6,"range":15},{"airport_identifier":"LHSN","id":"AO","name":"SZOLNOK","freq":282,"lat":47.081,"lon":20.211805555555557,"navaid_class":"HOL  ","magvar":6,"range":15},{"airport_identifier":"LHSN","id":"O","name":"SZOLNOK","freq":422,"lat":47.13763888888889,"lon":20.244027777777777,"navaid_class":"HML  ","magvar":6,"range":15},{"airport_identifier":"LHSN","id":"OA","name":"SZOLNOK","freq":282,"lat":47.16325,"lon":20.25861111111111,"navaid_class":"HOL  ","magvar":6,"range":15},{"airport_identifier":"LHUD","id":"SEG","name":"SZEGED","freq":456,"lat":46.24005,"lon":20.089183333333335,"navaid_class":"H L  ","magvar":4,"range":25},{"airport_identifier":"LKCV","id":"C","name":"CASLAV","freq":715,"lat":49.92478611111111,"lon":15.403166666666667,"navaid_class":"H L  ","magvar":5,"range":15},{"airport_identifier":"LKCV","id":"CF","name":"CASLAV","freq":345.5,"lat":49.904022222222224,"lon":15.432847222222222,"navaid_class":"H L  ","magvar":5,"range":20},{"airport_identifier":"LKCV","id":"F","name":"CASLAV","freq":715,"lat":49.95816388888889,"lon":15.355347222222223,"navaid_class":"H L  ","magvar":5,"range":15},{"airport_identifier":"LKKB","id":"K","name":"KBELY","freq":438,"lat":50.12968333333333,"lon":14.568172222222222,"navaid_class":"H L  ","magvar":5,"range":15},{"airport_identifier":"LKKB","id":"KD","name":"KBELY","freq":300,"lat":50.15260833333333,"lon":14.636608333333333,"navaid_class":"H L  ","magvar":5,"range":20},{"airport_identifier":"LKKU","id":"KUN","name":"KUNOVICE","freq":416,"lat":49.113927777777775,"lon":17.501402777777777,"navaid_class":"H L  ","magvar":5,"range":20},{"airport_identifier":"LKNA","id":"L","name":"NAMEST","freq":362,"lat":49.150530555555555,"lon":16.15356111111111,"navaid_class":"H L  ","magvar":5,"range":15},{"airport_identifier":"LKNA","id":"LA","name":"NAMEST","freq":514.5,"lat":49.13650555555556,"lon":16.17961111111111,"navaid_class":"H L  ","magvar":5,"range":20},{"airport_identifier":"LKNA","id":"X","name":"NAMEST","freq":362,"lat":49.180994444444444,"lon":16.09682777777778,"navaid_class":"H L  ","magvar":5,"range":15},{"airport_identifier":"LKNA","id":"XU","name":"NAMEST","freq":563,"lat":49.19725277777778,"lon":16.066791666666667,"navaid_class":"H L  ","magvar":5,"range":20},{"airport_identifier":"LRBC","id":"B","name":"GEORGE ENESCU ","freq":520,"lat":46.501444444444445,"lon":26.918222222222223,"navaid_class":"H L  ","magvar":7,"range":15},{"airport_identifier":"LRTR","id":"TIM","name":"TRAIAN VUIA ","freq":338,"lat":45.80130555555556,"lon":21.371777777777776,"navaid_class":"H LW ","magvar":5,"range":20},{"airport_identifier":"LZMC","id":"R","name":"MALACKY","freq":231,"lat":48.42113888888889,"lon":17.127388888888888,"navaid_class":"H L  ","magvar":5,"range":25},{"airport_identifier":"LZPW","id":"P","name":"PRESOV","freq":571,"lat":49.032555555555554,"lon":21.317777777777778,"navaid_class":"H L  ","magvar":6,"range":25},{"airport_identifier":"LZSL","id":"F","name":"SLIAC","freq":295,"lat":48.61808333333333,"lon":19.133111111111113,"navaid_class":"H L  ","magvar":5,"range":25},{"airport_identifier":"LZSL","id":"FS","name":"SLIAC","freq":412,"lat":48.56272777777778,"lon":19.129997222222222,"navaid_class":"H L  ","magvar":5,"range":25},{"airport_identifier":"LZZI","id":"Z","name":"HLINIK ","freq":508,"lat":49.22761111111111,"lon":18.594638888888888,"navaid_class":"H L  ","magvar":5,"range":15},{"airport_identifier":"UAAL","id":"R","name":"USHARAL","freq":380,"lat":46.18811111111111,"lon":80.85925,"navaid_class":"H L  ","magvar":5,"range":20},{"airport_identifier":"UAAL","id":"SH","name":"USHARAL","freq":380,"lat":46.19327777777778,"lon":80.8031388888889,"navaid_class":"H L  ","magvar":5,"range":20},{"airport_identifier":"UACC","id":"M","name":"ASTANA","freq":654,"lat":51.00366666666667,"lon":71.43675,"navaid_class":"H L  ","magvar":10,"range":20},{"airport_identifier":"UAII","id":"SKN","name":"SHYMKENT","freq":733,"lat":42.35841666666666,"lon":69.50622222222222,"navaid_class":"H L  ","magvar":6,"range":25},{"airport_identifier":"UATE","id":"T","name":"AKTAU","freq":326,"lat":43.847944444444444,"lon":51.11716666666667,"navaid_class":"H L  ","magvar":8,"range":15},{"airport_identifier":"UATZ","id":"KI","name":"TENGIZ","freq":660,"lat":46.31502777777778,"lon":53.43002777777778,"navaid_class":"H L  ","magvar":9,"range":20},{"airport_identifier":"UBBL","id":"L","name":"LENKORAN","freq":740,"lat":38.73877777777778,"lon":48.82033333333333,"navaid_class":"H LW ","magvar":6,"range":15},{"airport_identifier":"UBEE","id":"E","name":"YEVLAKH","freq":839,"lat":40.62386111111111,"lon":47.15977777777778,"navaid_class":"H L  ","magvar":6,"range":20},{"airport_identifier":"UCFB","id":"BT","name":"BATKEN","freq":705,"lat":40.079,"lon":70.80322222222222,"navaid_class":"H LW ","magvar":5,"range":25},{"airport_identifier":"UCFR","id":"IF","name":"RAZZAKOV","freq":375,"lat":39.82344444444445,"lon":69.56922222222222,"navaid_class":"H LW ","magvar":5,"range":25},{"airport_identifier":"UCFV","id":"AG","name":"KERBEN","freq":560,"lat":41.47913333333333,"lon":71.72898333333333,"navaid_class":"H LW ","magvar":5,"range":25},{"airport_identifier":"UDYE","id":"ER","name":"EREBUNI ","freq":496,"lat":40.145916666666665,"lon":44.48244444444445,"navaid_class":"H M  ","magvar":7,"range":45},{"airport_identifier":"UDYE","id":"FH","name":"EREBUNI ","freq":465,"lat":40.060694444444444,"lon":44.382694444444446,"navaid_class":"H M  ","magvar":7,"range":45},{"airport_identifier":"UDYE","id":"Y","name":"EREBUNI ","freq":1180,"lat":40.10461111111111,"lon":44.450583333333334,"navaid_class":"HM W ","magvar":7,"range":30},{"airport_identifier":"UDYE","id":"YN","name":"EREBUNI ","freq":580,"lat":40.09313888888889,"lon":44.441583333333334,"navaid_class":"HO W ","magvar":7,"range":60},{"airport_identifier":"UECT","id":"T","name":"TALAKAN","freq":690,"lat":59.85711111111111,"lon":111.04547222222222,"navaid_class":"H LW ","magvar":-10,"range":15},{"airport_identifier":"UEEE","id":"M","name":"YAKUTSK","freq":685,"lat":62.11366666666667,"lon":129.80758333333333,"navaid_class":"HMLW ","magvar":-16,"range":15},{"airport_identifier":"UERL","id":"I","name":"LENSK","freq":330,"lat":60.733,"lon":114.85625,"navaid_class":"H MW ","magvar":-11,"range":25},{"airport_identifier":"UERL","id":"IG","name":"LENSK","freq":678,"lat":60.747277777777775,"lon":114.90358333333333,"navaid_class":"H MW ","magvar":-11,"range":25},{"airport_identifier":"UERP","id":"W","name":"POLIARNY","freq":255,"lat":66.37758333333333,"lon":112.04644444444445,"navaid_class":"HMLW ","magvar":-11,"range":15},{"airport_identifier":"UERP","id":"WN","name":"POLIARNY","freq":525,"lat":66.35441666666667,"lon":112.0633611111111,"navaid_class":"HOLW ","magvar":-11,"range":20},{"airport_identifier":"UERR","id":"N","name":"MIRNY","freq":770,"lat":62.52280555555556,"lon":114.00075,"navaid_class":"H MW ","magvar":-12,"range":25},{"airport_identifier":"UESO","id":"L","name":"CHOKURDAKH","freq":1220,"lat":70.63197222222222,"lon":147.95,"navaid_class":"H LW ","magvar":-15,"range":20},{"airport_identifier":"UESO","id":"LT","name":"CHOKURDAKH","freq":600,"lat":70.6468888888889,"lon":148.06025,"navaid_class":"H MW ","magvar":-15,"range":25},{"airport_identifier":"UESO","id":"V","name":"CHOKURDAKH","freq":1220,"lat":70.61838888888889,"lon":147.8491388888889,"navaid_class":"H LW ","magvar":-15,"range":20},{"airport_identifier":"UEST","id":"F","name":"TIKSI","freq":660,"lat":71.67666666666666,"lon":128.89166666666668,"navaid_class":"H LW ","magvar":-18,"range":15},{"airport_identifier":"UEST","id":"K","name":"TIKSI","freq":660,"lat":71.71722222222222,"lon":128.91222222222223,"navaid_class":"H LW ","magvar":-18,"range":25},{"airport_identifier":"UEST","id":"KF","name":"TIKSI","freq":320,"lat":71.74138888888889,"lon":128.92111111111112,"navaid_class":"H LW ","magvar":-18,"range":20},{"airport_identifier":"UHBW","id":"P","name":"TYNDA","freq":975,"lat":55.27316666666667,"lon":124.75558333333333,"navaid_class":"H LW ","magvar":-14,"range":25},{"airport_identifier":"UHBW","id":"PW","name":"TYNDA","freq":480,"lat":55.254777777777775,"lon":124.71894444444445,"navaid_class":"H LW ","magvar":-14,"range":20},{"airport_identifier":"UHBE","id":"KZ","name":"ZEYA","freq":815,"lat":53.67194444444444,"lon":127.08333333333333,"navaid_class":"H MW ","magvar":-14,"range":25},{"airport_identifier":"UHEK","id":"KL","name":"KUPOL","freq":760,"lat":66.90367222222223,"lon":169.57108333333332,"navaid_class":"H LW ","magvar":-3,"range":20},{"airport_identifier":"UHHH","id":"H","name":"NOVY ","freq":950,"lat":48.54958333333333,"lon":135.22030555555557,"navaid_class":"H MW ","magvar":-12,"range":25},{"airport_identifier":"UHHH","id":"HI","name":"NOVY ","freq":469,"lat":48.568444444444445,"lon":135.2461111111111,"navaid_class":"H MW ","magvar":-12,"range":25},{"airport_identifier":"UHHH","id":"HR","name":"NOVY ","freq":258,"lat":48.508722222222225,"lon":135.15933333333334,"navaid_class":"H MW ","magvar":-12,"range":25},{"airport_identifier":"UHHH","id":"U","name":"NOVY ","freq":950,"lat":48.50611111111111,"lon":135.1611111111111,"navaid_class":"H MW ","magvar":-12,"range":25},{"airport_identifier":"UHHH","id":"UF","name":"NOVY ","freq":469,"lat":48.48836111111111,"lon":135.13697222222223,"navaid_class":"H MW ","magvar":-12,"range":25},{"airport_identifier":"UHKD","id":"F","name":"DZEMGI ","freq":723,"lat":50.62661111111111,"lon":137.08130555555556,"navaid_class":"H L  ","magvar":-13,"range":20},{"airport_identifier":"UHKD","id":"FQ","name":"DZEMGI ","freq":370,"lat":50.66986111111111,"lon":137.08163888888888,"navaid_class":"H L  ","magvar":-13,"range":20},{"airport_identifier":"UHKD","id":"U","name":"DZEMGI ","freq":723,"lat":50.586,"lon":137.08133333333333,"navaid_class":"H L  ","magvar":-13,"range":20},{"airport_identifier":"UHKD","id":"UI","name":"DZEMGI ","freq":370,"lat":50.52925,"lon":137.08061111111112,"navaid_class":"H L  ","magvar":-13,"range":20},{"airport_identifier":"UHKM","id":"Z","name":"MAY-GATKA ","freq":1086,"lat":48.93127777777778,"lon":140.06805555555556,"navaid_class":"H LW ","magvar":-12,"range":15},{"airport_identifier":"UHKM","id":"ZE","name":"MAY-GATKA ","freq":516,"lat":48.93683333333333,"lon":140.0973888888889,"navaid_class":"H MW ","magvar":-12,"range":25},{"airport_identifier":"UHMA","id":"K","name":"UGOLNY ","freq":389,"lat":64.7106388888889,"lon":177.72672222222224,"navaid_class":"H LW ","magvar":0,"range":15},{"airport_identifier":"UHMA","id":"U","name":"UGOLNY ","freq":389,"lat":64.75958333333334,"lon":177.7568611111111,"navaid_class":"H LW ","magvar":0,"range":15},{"airport_identifier":"UHMM","id":"F","name":"SOKOL ","freq":765,"lat":59.912277777777774,"lon":150.67163888888888,"navaid_class":"HMMW ","magvar":-11,"range":25},{"airport_identifier":"UHMM","id":"WA","name":"SOKOL ","freq":375,"lat":59.90969444444445,"lon":150.77330555555557,"navaid_class":"H MW ","magvar":-11,"range":25},{"airport_identifier":"UHMP","id":"BM","name":"PEVEK","freq":560,"lat":69.76247222222223,"lon":170.61025,"navaid_class":"H LW ","magvar":-3,"range":25},{"airport_identifier":"UHMP","id":"PK","name":"PEVEK","freq":560,"lat":69.80333333333333,"lon":170.58341666666666,"navaid_class":"H MW ","magvar":-3,"range":25},{"airport_identifier":"UHNN","id":"M","name":"NIKOLAYEVSK-NA-AMURE","freq":800,"lat":53.15258333333333,"lon":140.68441666666666,"navaid_class":"H LW ","magvar":-13,"range":20},{"airport_identifier":"UHNN","id":"ME","name":"NIKOLAYEVSK-NA-AMURE","freq":444,"lat":53.15072222222222,"lon":140.72469444444445,"navaid_class":"H LW ","magvar":-13,"range":20},{"airport_identifier":"UHPP","id":"LW","name":"YELIZOVO","freq":920,"lat":53.11391666666667,"lon":158.48902777777778,"navaid_class":"H LW ","magvar":-7,"range":20},{"airport_identifier":"UHPP","id":"M","name":"YELIZOVO","freq":407,"lat":53.19116666666667,"lon":158.43555555555557,"navaid_class":"H LW ","magvar":-7,"range":20},{"airport_identifier":"UHPP","id":"W","name":"YELIZOVO","freq":465,"lat":53.14575,"lon":158.467,"navaid_class":"H LW ","magvar":-7,"range":20},{"airport_identifier":"UHSH","id":"OI","name":"NOVOSTROYKA ","freq":786,"lat":53.510083333333334,"lon":142.90252777777778,"navaid_class":"H MW ","magvar":-12,"range":25},{"airport_identifier":"UHSH","id":"TF","name":"NOVOSTROYKA ","freq":786,"lat":53.52594444444444,"lon":142.85569444444445,"navaid_class":"H MW ","magvar":-12,"range":25},{"airport_identifier":"UHSI","id":"T","name":"ITURUP","freq":311,"lat":45.264722222222225,"lon":147.93227777777778,"navaid_class":"H MW ","magvar":-8,"range":25},{"airport_identifier":"UHSI","id":"TP","name":"ITURUP","freq":547,"lat":45.24713888888889,"lon":147.98191666666668,"navaid_class":"H MW ","magvar":-8,"range":25},{"airport_identifier":"UHSI","id":"TR","name":"ITURUP","freq":623,"lat":45.27725,"lon":147.89691666666667,"navaid_class":"H MW ","magvar":-8,"range":25},{"airport_identifier":"UHSK","id":"R","name":"SHAKHTERSK","freq":427,"lat":49.17725,"lon":142.09733333333332,"navaid_class":"H MW ","magvar":-11,"range":25},{"airport_identifier":"UHSK","id":"RD","name":"SHAKHTERSK","freq":207,"lat":49.15580555555555,"lon":142.12016666666668,"navaid_class":"H MW ","magvar":-11,"range":25},{"airport_identifier":"UHSM","id":"B","name":"MENDELEYEVO ","freq":255,"lat":43.94425,"lon":145.68275,"navaid_class":"H LW ","magvar":-9,"range":20},{"airport_identifier":"UHSM","id":"BF","name":"MENDELEYEVO ","freq":525,"lat":43.913666666666664,"lon":145.67902777777778,"navaid_class":"H LW ","magvar":-9,"range":20},{"airport_identifier":"UHSN","id":"J","name":"NOGLIKI","freq":475,"lat":51.799527777777776,"lon":143.15316666666666,"navaid_class":"H LW ","magvar":-11,"range":20},{"airport_identifier":"UHSS","id":"P","name":"KHOMUTOVO ","freq":645,"lat":46.910444444444444,"lon":142.718,"navaid_class":"HMLW ","magvar":-11,"range":15},{"airport_identifier":"UHSS","id":"S","name":"KHOMUTOVO ","freq":645,"lat":46.86002777777778,"lon":142.71680555555557,"navaid_class":"HMLW ","magvar":-11,"range":15},{"airport_identifier":"UHWW","id":"L","name":"KNEVICHI ","freq":295,"lat":43.38538888888889,"lon":132.12102777777778,"navaid_class":"H MW ","magvar":-11,"range":25},{"airport_identifier":"UHWW","id":"LN","name":"KNEVICHI ","freq":368,"lat":43.40830555555556,"lon":132.17775,"navaid_class":"H MW ","magvar":-11,"range":25},{"airport_identifier":"UHWW","id":"LS","name":"KNEVICHI ","freq":630,"lat":43.36533333333333,"lon":132.07141666666666,"navaid_class":"H MW ","magvar":-11,"range":25},{"airport_identifier":"UIAA","id":"D","name":"KADALA ","freq":553,"lat":52.022083333333335,"lon":113.34016666666666,"navaid_class":"HMMW ","magvar":-8,"range":25},{"airport_identifier":"UIAA","id":"DG","name":"KADALA ","freq":518,"lat":52.01786111111111,"lon":113.37977777777778,"navaid_class":"HOMW ","magvar":-8,"range":25},{"airport_identifier":"UIAA","id":"Z","name":"KADALA ","freq":553,"lat":52.03022222222222,"lon":113.27105555555555,"navaid_class":"HMLW ","magvar":-8,"range":15},{"airport_identifier":"UIAA","id":"ZM","name":"KADALA ","freq":518,"lat":52.03975,"lon":113.19036111111112,"navaid_class":"HOLW ","magvar":-8,"range":20},{"airport_identifier":"UIBB","id":"B","name":"BRATSK","freq":755,"lat":56.36038888888889,"lon":101.73794444444444,"navaid_class":"HMLW ","magvar":-2,"range":15},{"airport_identifier":"UIBB","id":"G","name":"BRATSK","freq":755,"lat":56.38016666666667,"lon":101.66119444444445,"navaid_class":"HMLW ","magvar":-2,"range":15},{"airport_identifier":"UIII","id":"C","name":"IRKUTSK","freq":545,"lat":52.27558333333333,"lon":104.36294444444444,"navaid_class":"HMLW ","magvar":-5,"range":15},{"airport_identifier":"UIII","id":"CN","name":"IRKUTSK","freq":514,"lat":52.28513888888889,"lon":104.32630555555555,"navaid_class":"HO W ","magvar":-5,"range":50},{"airport_identifier":"UIII","id":"I","name":"IRKUTSK","freq":545,"lat":52.25855555555555,"lon":104.42658333333333,"navaid_class":"HMMW ","magvar":-5,"range":25},{"airport_identifier":"UIII","id":"IR","name":"IRKUTSK","freq":514,"lat":52.24777777777778,"lon":104.4675,"navaid_class":"HO W ","magvar":-5,"range":50},{"airport_identifier":"UITT","id":"C","name":"UST-KUT","freq":670,"lat":56.84886111111111,"lon":105.76213888888888,"navaid_class":"H LW ","magvar":-6,"range":15},{"airport_identifier":"UIUU","id":"U","name":"MUKHINO ","freq":320,"lat":51.805,"lon":107.40383333333334,"navaid_class":"HIMW ","magvar":-6,"range":25},{"airport_identifier":"UIUU","id":"Z","name":"MUKHINO ","freq":320,"lat":51.81461111111111,"lon":107.47741666666667,"navaid_class":"HMLW ","magvar":-6,"range":20},{"airport_identifier":"UIUU","id":"ZD","name":"MUKHINO ","freq":349,"lat":51.82030555555556,"lon":107.52105555555555,"navaid_class":"HOLW ","magvar":-6,"range":20},{"airport_identifier":"UKBB","id":"B","name":"BORYSPIL ","freq":405,"lat":50.36266666666667,"lon":30.882361111111113,"navaid_class":"H LW ","magvar":7,"range":15},{"airport_identifier":"UKBB","id":"BI","name":"BORYSPIL ","freq":310,"lat":50.397444444444446,"lon":30.909111111111113,"navaid_class":"H LW ","magvar":7,"range":20},{"airport_identifier":"UKBB","id":"E","name":"BORYSPIL ","freq":405,"lat":50.31166666666667,"lon":30.878666666666668,"navaid_class":"H LW ","magvar":7,"range":15},{"airport_identifier":"UKBB","id":"I","name":"BORYSPIL ","freq":640,"lat":50.36888888888889,"lon":30.907138888888888,"navaid_class":"H LW ","magvar":7,"range":15},{"airport_identifier":"UKBB","id":"KB","name":"BORYSPIL ","freq":825,"lat":50.38638888888889,"lon":30.884083333333333,"navaid_class":"H LW ","magvar":7,"range":20},{"airport_identifier":"UKBB","id":"KE","name":"BORYSPIL ","freq":825,"lat":50.28286111111111,"lon":30.876583333333333,"navaid_class":"H LW ","magvar":7,"range":20},{"airport_identifier":"UKBB","id":"NO","name":"BORYSPIL ","freq":310,"lat":50.28747222222222,"lon":30.901055555555555,"navaid_class":"H LW ","magvar":7,"range":20},{"airport_identifier":"UKBB","id":"O","name":"BORYSPIL ","freq":640,"lat":50.315694444444446,"lon":30.903111111111112,"navaid_class":"H LW ","magvar":7,"range":15},{"airport_identifier":"UKDD","id":"DP","name":"DNIPRO","freq":335,"lat":48.35713888888889,"lon":35.02633333333333,"navaid_class":"H L  ","magvar":8,"range":20},{"airport_identifier":"UKDD","id":"DR","name":"DNIPRO","freq":335,"lat":48.35744444444445,"lon":35.17491666666667,"navaid_class":"H L  ","magvar":8,"range":20},{"airport_identifier":"UKDD","id":"P","name":"DNIPRO","freq":687,"lat":48.35722222222222,"lon":35.06916666666667,"navaid_class":"H L  ","magvar":8,"range":15},{"airport_identifier":"UKDD","id":"R","name":"DNIPRO","freq":687,"lat":48.35722222222222,"lon":35.13344444444444,"navaid_class":"H L  ","magvar":8,"range":15},{"airport_identifier":"UKDE","id":"ZA","name":"ZAPORIZHZHIA","freq":295,"lat":47.82161111111111,"lon":35.28638888888889,"navaid_class":"H LW ","magvar":7,"range":20},{"airport_identifier":"UKDE","id":"ZP","name":"ZAPORIZHZHIA","freq":608,"lat":47.886,"lon":35.32680555555555,"navaid_class":"H LW ","magvar":7,"range":15},{"airport_identifier":"UKDR","id":"RG","name":"LOZUVATKA ","freq":697,"lat":48.06433333333333,"lon":33.21088888888889,"navaid_class":"H L  ","magvar":8,"range":20},{"airport_identifier":"UKHK","id":"KN","name":"VELYKA KOKHNIVKA ","freq":1145,"lat":49.1225,"lon":33.486111111111114,"navaid_class":"H L  ","magvar":8,"range":20},{"airport_identifier":"UKHP","id":"PO","name":"POLTAVA","freq":580,"lat":49.57161111111111,"lon":34.36205555555556,"navaid_class":"H L  ","magvar":7,"range":20},{"airport_identifier":"UKHS","id":"SU","name":"SUMY","freq":303,"lat":50.85575,"lon":34.7285,"navaid_class":"H L  ","magvar":8,"range":20},{"airport_identifier":"UKKG","id":"KD","name":"KIROVOHRAD","freq":635,"lat":48.556111111111115,"lon":32.281666666666666,"navaid_class":"H MW ","magvar":7,"range":25},{"airport_identifier":"UKKK","id":"ZK","name":"ZHULIANY ","freq":733,"lat":50.400416666666665,"lon":30.41922222222222,"navaid_class":"H LW ","magvar":7,"range":20},{"airport_identifier":"UKKM","id":"C","name":"ANTONOV-2 ","freq":257,"lat":50.62583333333333,"lon":30.174722222222222,"navaid_class":"HMLW ","magvar":7,"range":15},{"airport_identifier":"UKKM","id":"GO","name":"ANTONOV-2 ","freq":590,"lat":50.558055555555555,"lon":30.225,"navaid_class":"HOHW ","magvar":7,"range":75},{"airport_identifier":"UKKM","id":"LC","name":"ANTONOV-2 ","freq":534,"lat":50.65083333333333,"lon":30.155833333333334,"navaid_class":"HOHW ","magvar":7,"range":75},{"airport_identifier":"UKKM","id":"O","name":"ANTONOV-2 ","freq":286,"lat":50.58111111111111,"lon":30.208055555555557,"navaid_class":"HMLW ","magvar":7,"range":15},{"airport_identifier":"UKKT","id":"W","name":"ANTONOV-1 ","freq":376,"lat":50.495,"lon":30.36638888888889,"navaid_class":"H L  ","magvar":7,"range":15},{"airport_identifier":"UKLI","id":"FN","name":"IVANO-FRANKIVSK","freq":598,"lat":48.87888888888889,"lon":24.71472222222222,"navaid_class":"H L  ","magvar":6,"range":25},{"airport_identifier":"UKLN","id":"CR","name":"CHERNIVTSI","freq":509,"lat":48.241166666666665,"lon":25.993777777777776,"navaid_class":"H L  ","magvar":5,"range":20},{"airport_identifier":"UKOH","id":"HE","name":"KHERSON","freq":1065,"lat":46.6375,"lon":32.470555555555556,"navaid_class":"H LW ","magvar":7,"range":20},{"airport_identifier":"UKON","id":"NI","name":"MYKOLAIV","freq":509,"lat":47.045138888888886,"lon":31.896416666666667,"navaid_class":"H L  ","magvar":7,"range":15},{"airport_identifier":"UKWW","id":"I","name":"GAVRYSHIVKA ","freq":842,"lat":49.257416666666664,"lon":28.59288888888889,"navaid_class":"H LW ","magvar":6,"range":15},{"airport_identifier":"UKWW","id":"N","name":"GAVRYSHIVKA ","freq":842,"lat":49.22786111111111,"lon":28.63447222222222,"navaid_class":"HMLW ","magvar":6,"range":15},{"airport_identifier":"UKWW","id":"WI","name":"GAVRYSHIVKA ","freq":415,"lat":49.27763888888889,"lon":28.56475,"navaid_class":"H LW ","magvar":6,"range":20},{"airport_identifier":"UKWW","id":"WN","name":"GAVRYSHIVKA ","freq":415,"lat":49.20605555555556,"lon":28.664166666666667,"navaid_class":"HOLW ","magvar":6,"range":20},{"airport_identifier":"ULAA","id":"A","name":"TALAGI ","freq":334,"lat":64.60227777777777,"lon":40.67311111111111,"navaid_class":"HMMW ","magvar":18,"range":25},{"airport_identifier":"ULAA","id":"AZ","name":"TALAGI ","freq":690,"lat":64.60677777777778,"lon":40.58461111111111,"navaid_class":"HOMW ","magvar":18,"range":25},{"airport_identifier":"ULAA","id":"K","name":"TALAGI ","freq":334,"lat":64.59775,"lon":40.766083333333334,"navaid_class":"HMMW ","magvar":18,"range":25},{"airport_identifier":"ULAA","id":"KM","name":"TALAGI ","freq":690,"lat":64.5946111111111,"lon":40.83327777777778,"navaid_class":"HOMW ","magvar":18,"range":25},{"airport_identifier":"ULAM","id":"G","name":"NARYAN-MAR","freq":332,"lat":67.63761111111111,"lon":53.070861111111114,"navaid_class":"H LW ","magvar":24,"range":20},{"airport_identifier":"ULAM","id":"R","name":"NARYAN-MAR","freq":332,"lat":67.6433611111111,"lon":53.17988888888889,"navaid_class":"H LW ","magvar":24,"range":20},{"airport_identifier":"ULLI","id":"K","name":"PULKOVO ","freq":700,"lat":59.80258333333333,"lon":30.200388888888888,"navaid_class":"HMMW ","magvar":11,"range":25},{"airport_identifier":"ULLI","id":"L","name":"PULKOVO ","freq":960,"lat":59.79869444444444,"lon":30.32025,"navaid_class":"HMMW ","magvar":11,"range":25},{"airport_identifier":"ULLI","id":"O","name":"PULKOVO ","freq":572,"lat":59.78783333333333,"lon":30.29975,"navaid_class":"HMMW ","magvar":11,"range":25},{"airport_identifier":"ULLI","id":"PK","name":"PULKOVO ","freq":342,"lat":59.81027777777778,"lon":30.14836111111111,"navaid_class":"HOMW ","magvar":11,"range":25},{"airport_identifier":"ULLI","id":"PL","name":"PULKOVO ","freq":525,"lat":59.79097222222222,"lon":30.372027777777777,"navaid_class":"H MW ","magvar":11,"range":25},{"airport_identifier":"ULLI","id":"PU","name":"PULKOVO ","freq":326,"lat":59.82058333333333,"lon":30.17152777777778,"navaid_class":"H MW ","magvar":11,"range":25},{"airport_identifier":"ULLI","id":"U","name":"PULKOVO ","freq":625,"lat":59.812444444444445,"lon":30.226861111111113,"navaid_class":"HMMW ","magvar":11,"range":25},{"airport_identifier":"ULMK","id":"I","name":"KHIBINY ","freq":595,"lat":67.476,"lon":33.54188888888889,"navaid_class":"H LW ","magvar":16,"range":20},{"airport_identifier":"ULMK","id":"IO","name":"KHIBINY ","freq":1210,"lat":67.49333333333334,"lon":33.48630555555555,"navaid_class":"H LW ","magvar":16,"range":20},{"airport_identifier":"ULMM","id":"P","name":"MURMANSK","freq":1290,"lat":68.79888888888888,"lon":32.71958333333333,"navaid_class":"HMLW ","magvar":17,"range":15},{"airport_identifier":"ULMM","id":"PF","name":"MURMANSK","freq":635,"lat":68.82369444444444,"lon":32.673611111111114,"navaid_class":"HOMW ","magvar":17,"range":25},{"airport_identifier":"ULMM","id":"R","name":"MURMANSK","freq":1290,"lat":68.76458333333333,"lon":32.78308333333333,"navaid_class":"HMLW ","magvar":17,"range":15},{"airport_identifier":"ULMM","id":"RD","name":"MURMANSK","freq":635,"lat":68.74308333333333,"lon":32.82244444444444,"navaid_class":"HOMW ","magvar":17,"range":25},{"airport_identifier":"ULOO","id":"N","name":"PSKOV","freq":620,"lat":57.801611111111114,"lon":28.406277777777778,"navaid_class":"H LW ","magvar":9,"range":15},{"airport_identifier":"ULPB","id":"X","name":"PETROZAVODSK","freq":645,"lat":61.8665,"lon":34.13777777777778,"navaid_class":"H MW ","magvar":14,"range":25},{"airport_identifier":"ULWC","id":"F","name":"CHEREPOVETS","freq":825,"lat":59.29105555555556,"lon":38.04541666666667,"navaid_class":"H LW ","magvar":13,"range":15},{"airport_identifier":"ULWC","id":"FP","name":"CHEREPOVETS","freq":405,"lat":59.31038888888889,"lon":38.07952777777778,"navaid_class":"H LW ","magvar":13,"range":20},{"airport_identifier":"ULWC","id":"O","name":"CHEREPOVETS","freq":825,"lat":59.260527777777774,"lon":37.99122222222222,"navaid_class":"H LW ","magvar":13,"range":15},{"airport_identifier":"ULWC","id":"OW","name":"CHEREPOVETS","freq":405,"lat":59.24330555555556,"lon":37.96088888888889,"navaid_class":"H LW ","magvar":13,"range":20},{"airport_identifier":"UUYH","id":"B","name":"UKHTA","freq":628,"lat":63.547666666666665,"lon":53.79263888888889,"navaid_class":"H MW ","magvar":21,"range":25},{"airport_identifier":"UUYH","id":"BF","name":"UKHTA","freq":304,"lat":63.522166666666664,"lon":53.77672222222222,"navaid_class":"H MW ","magvar":21,"range":25},{"airport_identifier":"UUYH","id":"D","name":"UKHTA","freq":628,"lat":63.5865,"lon":53.81675,"navaid_class":"H MW ","magvar":21,"range":25},{"airport_identifier":"UUYH","id":"DP","name":"UKHTA","freq":304,"lat":63.61172222222222,"lon":53.831833333333336,"navaid_class":"H MW ","magvar":21,"range":25},{"airport_identifier":"UUYS","id":"U","name":"USINSK","freq":749,"lat":66.02416666666667,"lon":57.34688888888889,"navaid_class":"H LW ","magvar":23,"range":25},{"airport_identifier":"UUYS","id":"UL","name":"USINSK","freq":370,"lat":66.04752777777777,"lon":57.32175,"navaid_class":"H LW ","magvar":23,"range":25},{"airport_identifier":"UUYS","id":"Y","name":"USINSK","freq":749,"lat":65.98608333333334,"lon":57.38697222222222,"navaid_class":"H LW ","magvar":23,"range":25},{"airport_identifier":"UUYS","id":"YT","name":"USINSK","freq":370,"lat":65.96227777777777,"lon":57.412333333333336,"navaid_class":"H MW ","magvar":23,"range":25},{"airport_identifier":"UUYW","id":"D","name":"VORKUTA","freq":315,"lat":67.49361111111111,"lon":63.936194444444446,"navaid_class":"H L  ","magvar":25,"range":25},{"airport_identifier":"UUYW","id":"DW","name":"VORKUTA","freq":522,"lat":67.49919444444444,"lon":63.86241666666667,"navaid_class":"H M  ","magvar":25,"range":25},{"airport_identifier":"UUYW","id":"K","name":"VORKUTA","freq":315,"lat":67.48580555555556,"lon":64.03105555555555,"navaid_class":"H L  ","magvar":25,"range":25},{"airport_identifier":"UUYW","id":"KZ","name":"VORKUTA","freq":522,"lat":67.47983333333333,"lon":64.109,"navaid_class":"H M  ","magvar":25,"range":25},{"airport_identifier":"UUYY","id":"P","name":"SYKTYVKAR","freq":705,"lat":61.62836111111111,"lon":50.82955555555556,"navaid_class":"HMMW ","magvar":19,"range":25},{"airport_identifier":"UUYY","id":"PW","name":"SYKTYVKAR","freq":345,"lat":61.60377777777778,"lon":50.80911111111111,"navaid_class":"HOMW ","magvar":19,"range":25},{"airport_identifier":"UUYY","id":"S","name":"SYKTYVKAR","freq":705,"lat":61.66458333333333,"lon":50.86013888888889,"navaid_class":"HMMW ","magvar":19,"range":25},{"airport_identifier":"UUYY","id":"SR","name":"SYKTYVKAR","freq":345,"lat":61.69383333333333,"lon":50.884027777777774,"navaid_class":"HOMW ","magvar":19,"range":25},{"airport_identifier":"UMBB","id":"C","name":"BREST","freq":485,"lat":52.116638888888886,"lon":23.86561111111111,"navaid_class":"H L  ","magvar":7,"range":15},{"airport_identifier":"UMGG","id":"G","name":"HOMIEL","freq":511,"lat":52.53458333333333,"lon":30.984055555555557,"navaid_class":"HMLW ","magvar":9,"range":15},{"airport_identifier":"UMGG","id":"M","name":"HOMIEL","freq":511,"lat":52.519083333333334,"lon":31.05102777777778,"navaid_class":"HML  ","magvar":9,"range":15},{"airport_identifier":"UMII","id":"U","name":"VICIEBSK","freq":1065,"lat":55.135527777777774,"lon":30.38025,"navaid_class":"H L  ","magvar":9,"range":15},{"airport_identifier":"UMII","id":"W","name":"VICIEBSK","freq":1065,"lat":55.11569444444444,"lon":30.315333333333335,"navaid_class":"H L  ","magvar":9,"range":15},{"airport_identifier":"UMKK","id":"K","name":"KHRABROVO ","freq":410,"lat":54.90152777777778,"lon":20.636805555555554,"navaid_class":"HMLW ","magvar":7,"range":15},{"airport_identifier":"UMKK","id":"KR","name":"KHRABROVO ","freq":840,"lat":54.91452777777778,"lon":20.68711111111111,"navaid_class":"HOLW ","magvar":7,"range":20},{"airport_identifier":"UMMG","id":"G","name":"HRODNA","freq":920,"lat":53.62261111111111,"lon":24.052666666666667,"navaid_class":"H L  ","magvar":8,"range":15},{"airport_identifier":"UMMS","id":"G","name":"MINSK-2","freq":308,"lat":53.863638888888886,"lon":28.058611111111112,"navaid_class":"H L  ","magvar":9,"range":15},{"airport_identifier":"UMMS","id":"V","name":"MINSK-2","freq":308,"lat":53.90172222222222,"lon":28.002111111111113,"navaid_class":"H L  ","magvar":9,"range":15},{"airport_identifier":"UMOO","id":"C","name":"MAHILIOU","freq":985,"lat":53.940694444444446,"lon":30.11788888888889,"navaid_class":"H L  ","magvar":9,"range":15},{"airport_identifier":"UMOO","id":"U","name":"MAHILIOU","freq":985,"lat":53.97163888888889,"lon":30.068277777777777,"navaid_class":"H L  ","magvar":9,"range":15},{"airport_identifier":"UNAA","id":"A","name":"ABAKAN","freq":733,"lat":53.723416666666665,"lon":91.37222222222222,"navaid_class":"H MW ","magvar":3,"range":25},{"airport_identifier":"UNAA","id":"AB","name":"ABAKAN","freq":360,"lat":53.70141666666667,"lon":91.35519444444445,"navaid_class":"H MW ","magvar":3,"range":25},{"airport_identifier":"UNBB","id":"A","name":"MIKHAYLOVKA ","freq":865,"lat":53.37166666666667,"lon":83.57352777777778,"navaid_class":"HMMW ","magvar":7,"range":25},{"airport_identifier":"UNBG","id":"GO","name":"GORNO-ALTAISK","freq":350,"lat":52.02741666666667,"lon":85.88086111111112,"navaid_class":"H MW ","magvar":6,"range":25},{"airport_identifier":"UNEE","id":"N","name":"KEMEROVO","freq":995,"lat":55.28411111111111,"lon":86.141,"navaid_class":"HMLW ","magvar":7,"range":15},{"airport_identifier":"UNEE","id":"NC","name":"KEMEROVO","freq":489,"lat":55.29980555555556,"lon":86.17838888888889,"navaid_class":"HOLW ","magvar":7,"range":20},{"airport_identifier":"UNII","id":"RD","name":"YENISEYSK","freq":520,"lat":58.49366666666667,"lon":92.10572222222223,"navaid_class":"H MW ","magvar":4,"range":25},{"airport_identifier":"UNIP","id":"P","name":"PODKAMENNAYA TUNGUSKA","freq":600,"lat":61.580083333333334,"lon":89.97269444444444,"navaid_class":"H LW ","magvar":8,"range":20},{"airport_identifier":"UNIP","id":"PU","name":"PODKAMENNAYA TUNGUSKA","freq":290,"lat":61.562583333333336,"lon":89.93308333333333,"navaid_class":"H LW ","magvar":8,"range":20},{"airport_identifier":"UNIP","id":"RE","name":"PODKAMENNAYA TUNGUSKA","freq":290,"lat":61.60052777777778,"lon":90.02027777777778,"navaid_class":"H MW ","magvar":8,"range":25},{"airport_identifier":"UNKL","id":"BK","name":"KRASNOYARSK","freq":334,"lat":56.151555555555554,"lon":92.58402777777778,"navaid_class":"HOMW ","magvar":3,"range":25},{"airport_identifier":"UNKM","id":"KP","name":"CHEREMSHANKA ","freq":390,"lat":56.184555555555555,"lon":92.51672222222223,"navaid_class":"H MW ","magvar":4,"range":25},{"airport_identifier":"UNKM","id":"R","name":"CHEREMSHANKA ","freq":795,"lat":56.16988888888889,"lon":92.57802777777778,"navaid_class":"H MW ","magvar":4,"range":25},{"airport_identifier":"UNKM","id":"RL","name":"CHEREMSHANKA ","freq":390,"lat":56.158055555555556,"lon":92.62744444444445,"navaid_class":"H MW ","magvar":4,"range":25},{"airport_identifier":"UNKY","id":"P","name":"KYZYL","freq":996,"lat":51.68238888888889,"lon":94.42702777777778,"navaid_class":"H LW ","magvar":2,"range":20},{"airport_identifier":"UNNT","id":"G","name":"TOLMACHEVO ","freq":700,"lat":55.00922222222222,"lon":82.60625,"navaid_class":"H LW ","magvar":9,"range":15},{"airport_identifier":"UNNT","id":"GH","name":"TOLMACHEVO ","freq":875,"lat":54.981944444444444,"lon":82.61525,"navaid_class":"H LW ","magvar":9,"range":20},{"airport_identifier":"UNNT","id":"K","name":"TOLMACHEVO ","freq":620,"lat":55.01627777777778,"lon":82.69427777777778,"navaid_class":"HMLW ","magvar":9,"range":15},{"airport_identifier":"UNNT","id":"KT","name":"TOLMACHEVO ","freq":310,"lat":55.020916666666665,"lon":82.74119444444445,"navaid_class":"HOLW ","magvar":9,"range":20},{"airport_identifier":"UNNT","id":"R","name":"TOLMACHEVO ","freq":597,"lat":55.00855555555555,"lon":82.60644444444445,"navaid_class":"HMLW ","magvar":9,"range":15},{"airport_identifier":"UNNT","id":"RO","name":"TOLMACHEVO ","freq":860,"lat":55.004194444444444,"lon":82.56013888888889,"navaid_class":"HOLW ","magvar":9,"range":20},{"airport_identifier":"UNNT","id":"S","name":"TOLMACHEVO ","freq":722,"lat":55.05738888888889,"lon":82.59208333333333,"navaid_class":"H LW ","magvar":9,"range":15},{"airport_identifier":"UNNT","id":"SV","name":"TOLMACHEVO ","freq":520,"lat":55.08272222222222,"lon":82.58366666666667,"navaid_class":"H LW ","magvar":9,"range":20},{"airport_identifier":"UNOO","id":"R","name":"TSENTRALNY ","freq":680,"lat":54.962361111111115,"lon":73.27463888888889,"navaid_class":"HMLW ","magvar":12,"range":15},{"airport_identifier":"UNOO","id":"T","name":"TSENTRALNY ","freq":680,"lat":54.971666666666664,"lon":73.34361111111112,"navaid_class":"HMLW ","magvar":12,"range":15},{"airport_identifier":"UNSS","id":"M","name":"STREZHEVOY","freq":318,"lat":60.72636111111111,"lon":77.65005555555555,"navaid_class":"H MW ","magvar":15,"range":25},{"airport_identifier":"UNSS","id":"MP","name":"STREZHEVOY","freq":655,"lat":60.75261111111111,"lon":77.634,"navaid_class":"H MW ","magvar":15,"range":25},{"airport_identifier":"UNTT","id":"I","name":"BOGASHEVO ","freq":770,"lat":56.36505555555556,"lon":85.18902777777778,"navaid_class":"H LW ","magvar":8,"range":20},{"airport_identifier":"UNTT","id":"T","name":"BOGASHEVO ","freq":770,"lat":56.40113888888889,"lon":85.23186111111112,"navaid_class":"H LW ","magvar":8,"range":20},{"airport_identifier":"UNTT","id":"TI","name":"BOGASHEVO ","freq":380,"lat":56.42461111111111,"lon":85.25977777777777,"navaid_class":"H LW ","magvar":8,"range":20},{"airport_identifier":"UNWW","id":"U","name":"SPICHENKOVO ","freq":620,"lat":53.83247222222222,"lon":86.89086111111111,"navaid_class":"H MW ","magvar":6,"range":25},{"airport_identifier":"UNWW","id":"UF","name":"SPICHENKOVO ","freq":300,"lat":53.85652777777778,"lon":86.90563888888889,"navaid_class":"H MW ","magvar":6,"range":25},{"airport_identifier":"UOHH","id":"O","name":"KHATANGA","freq":681,"lat":71.97013888888888,"lon":102.43577777777777,"navaid_class":"H LW ","magvar":5,"range":15},{"airport_identifier":"UOHH","id":"OA","name":"KHATANGA","freq":332,"lat":71.95188888888889,"lon":102.31194444444445,"navaid_class":"H LW ","magvar":5,"range":20},{"airport_identifier":"UOHH","id":"Z","name":"KHATANGA","freq":681,"lat":71.98733333333334,"lon":102.554,"navaid_class":"H LW ","magvar":5,"range":15},{"airport_identifier":"UOHH","id":"ZT","name":"KHATANGA","freq":332,"lat":71.99847222222222,"lon":102.63080555555555,"navaid_class":"H LW ","magvar":5,"range":20},{"airport_identifier":"UOII","id":"L","name":"IGARKA","freq":650,"lat":67.44977777777778,"lon":86.58902777777777,"navaid_class":"H LW ","magvar":16,"range":15},{"airport_identifier":"UOII","id":"LS","name":"IGARKA","freq":315,"lat":67.47091666666667,"lon":86.53166666666667,"navaid_class":"H MW ","magvar":16,"range":25},{"airport_identifier":"UOOO","id":"A","name":"ALYKEL ","freq":260,"lat":69.28955555555555,"lon":87.29347222222222,"navaid_class":"H MW ","magvar":18,"range":25},{"airport_identifier":"UOOO","id":"AP","name":"ALYKEL ","freq":535,"lat":69.26816666666667,"lon":87.25563888888888,"navaid_class":"HOMW ","magvar":18,"range":25},{"airport_identifier":"UOOO","id":"B","name":"ALYKEL ","freq":260,"lat":69.3266388888889,"lon":87.35986111111112,"navaid_class":"HMMW ","magvar":18,"range":25},{"airport_identifier":"UOOO","id":"BF","name":"ALYKEL ","freq":535,"lat":69.35288888888888,"lon":87.40752777777777,"navaid_class":"HOMW ","magvar":18,"range":25},{"airport_identifier":"UOTT","id":"F","name":"TURUKHANSK","freq":1000,"lat":65.81216666666667,"lon":87.90497222222223,"navaid_class":"H LW ","magvar":14,"range":20},{"airport_identifier":"UOTT","id":"FT","name":"TURUKHANSK","freq":492,"lat":65.8295,"lon":87.8685,"navaid_class":"H LW ","magvar":14,"range":20},{"airport_identifier":"URKA","id":"N","name":"VITYAZEVO ","freq":780,"lat":44.986555555555555,"lon":37.327305555555554,"navaid_class":"HMMW ","magvar":8,"range":25},{"airport_identifier":"URKA","id":"P","name":"VITYAZEVO ","freq":780,"lat":45.01891666666667,"lon":37.36855555555555,"navaid_class":"H MW ","magvar":8,"range":25},{"airport_identifier":"URKK","id":"KR","name":"PASHKOVSKIY ","freq":377,"lat":45.02005555555556,"lon":39.16177777777778,"navaid_class":"H LW ","magvar":8,"range":20},{"airport_identifier":"URMG","id":"WK","name":"SEVERNY ","freq":408,"lat":43.38941666666667,"lon":45.72830555555556,"navaid_class":"H MW ","magvar":7,"range":25},{"airport_identifier":"URML","id":"H","name":"UYTASH ","freq":740,"lat":42.83463888888889,"lon":47.63722222222222,"navaid_class":"HMMW ","magvar":7,"range":25},{"airport_identifier":"URML","id":"S","name":"UYTASH ","freq":740,"lat":42.79844444444444,"lon":47.668055555555554,"navaid_class":"HMMW ","magvar":7,"range":25},{"airport_identifier":"URML","id":"SM","name":"UYTASH ","freq":365,"lat":42.777277777777776,"lon":47.68602777777778,"navaid_class":"H MW ","magvar":7,"range":25},{"airport_identifier":"URMM","id":"MD","name":"MINERALNYYE VODY","freq":468,"lat":44.260305555555554,"lon":43.008944444444445,"navaid_class":"H MW ","magvar":8,"range":25},{"airport_identifier":"URMN","id":"N","name":"NALCHIK","freq":350,"lat":43.52158333333333,"lon":43.659444444444446,"navaid_class":"HMLW ","magvar":7,"range":15},{"airport_identifier":"URMN","id":"NF","name":"NALCHIK","freq":718,"lat":43.53358333333333,"lon":43.692194444444446,"navaid_class":"H LW ","magvar":7,"range":20},{"airport_identifier":"URMS","id":"S","name":"MAGAS","freq":554,"lat":43.32597222222222,"lon":44.979416666666665,"navaid_class":"H MW ","magvar":8,"range":25},{"airport_identifier":"URMS","id":"SC","name":"MAGAS","freq":276,"lat":43.32833333333333,"lon":44.94552777777778,"navaid_class":"H MW ","magvar":8,"range":25},{"airport_identifier":"URMT","id":"K","name":"SHPAKOVSKOYE ","freq":358,"lat":45.114777777777775,"lon":42.14363888888889,"navaid_class":"HMMW ","magvar":8,"range":25},{"airport_identifier":"URMT","id":"KT","name":"SHPAKOVSKOYE ","freq":730,"lat":45.12155555555555,"lon":42.180638888888886,"navaid_class":"HOMW ","magvar":8,"range":25},{"airport_identifier":"URMT","id":"O","name":"SHPAKOVSKOYE ","freq":358,"lat":45.10402777777778,"lon":42.08430555555555,"navaid_class":"HMMW ","magvar":8,"range":25},{"airport_identifier":"URMT","id":"OP","name":"SHPAKOVSKOYE ","freq":730,"lat":45.09766666666667,"lon":42.04866666666667,"navaid_class":"HOMW ","magvar":8,"range":25},{"airport_identifier":"URRP","id":"RD","name":"PLATOV ","freq":682,"lat":47.479305555555555,"lon":39.89458333333333,"navaid_class":"H MW ","magvar":8,"range":25},{"airport_identifier":"URRT","id":"MS","name":"YUZHNY ","freq":350,"lat":47.19352777777778,"lon":38.87727777777778,"navaid_class":"H MW ","magvar":8,"range":25},{"airport_identifier":"URRT","id":"U","name":"YUZHNY ","freq":735,"lat":47.203694444444444,"lon":38.818,"navaid_class":"H LW ","magvar":8,"range":15},{"airport_identifier":"URRT","id":"UF","name":"YUZHNY ","freq":350,"lat":47.20977777777778,"lon":38.782222222222224,"navaid_class":"H MW ","magvar":8,"range":25},{"airport_identifier":"URWA","id":"G","name":"ASTRAKHAN","freq":315,"lat":46.285555555555554,"lon":47.97847222222222,"navaid_class":"HMLW ","magvar":9,"range":15},{"airport_identifier":"USCC","id":"K","name":"BALANDINO ","freq":367,"lat":55.30016666666667,"lon":61.54419444444444,"navaid_class":"H LW ","magvar":14,"range":15},{"airport_identifier":"USCC","id":"KS","name":"BALANDINO ","freq":412,"lat":55.29425,"lon":61.58705555555556,"navaid_class":"H LW ","magvar":14,"range":20},{"airport_identifier":"USCC","id":"L","name":"BALANDINO ","freq":392,"lat":55.31125,"lon":61.46494444444444,"navaid_class":"HMLW ","magvar":14,"range":15},{"airport_identifier":"USCC","id":"LB","name":"BALANDINO ","freq":452,"lat":55.31744444444445,"lon":61.42,"navaid_class":"H LW ","magvar":14,"range":20},{"airport_identifier":"USCM","id":"C","name":"MAGNITOGORSK","freq":975,"lat":53.41577777777778,"lon":58.76658333333334,"navaid_class":"H MW ","magvar":13,"range":25},{"airport_identifier":"USCM","id":"R","name":"MAGNITOGORSK","freq":975,"lat":53.3705,"lon":58.744527777777776,"navaid_class":"H MW ","magvar":13,"range":25},{"airport_identifier":"USDA","id":"SA","name":"SABETTA","freq":835,"lat":71.20183333333334,"lon":71.95122222222223,"navaid_class":"H LW ","magvar":30,"range":20},{"airport_identifier":"USDA","id":"ST","name":"SABETTA","freq":835,"lat":71.22316666666667,"lon":72.09880555555556,"navaid_class":"H LW ","magvar":30,"range":20},{"airport_identifier":"USDB","id":"BN","name":"BOVANENKOVO","freq":450,"lat":70.31608333333334,"lon":68.34908333333334,"navaid_class":"H MW ","magvar":29,"range":25},{"airport_identifier":"USDD","id":"D","name":"SALEKHARD","freq":650,"lat":66.60086111111112,"lon":66.6583888888889,"navaid_class":"H LW ","magvar":23,"range":15},{"airport_identifier":"USDD","id":"N","name":"SALEKHARD","freq":650,"lat":66.581,"lon":66.56644444444444,"navaid_class":"H LW ","magvar":23,"range":15},{"airport_identifier":"USHH","id":"B","name":"KHANTY-MANSIYSK","freq":345,"lat":61.02327777777778,"lon":69.04488888888889,"navaid_class":"HMMW ","magvar":17,"range":25},{"airport_identifier":"USHH","id":"BD","name":"KHANTY-MANSIYSK","freq":707,"lat":61.01658333333334,"lon":68.989,"navaid_class":"HOMW ","magvar":17,"range":25},{"airport_identifier":"USHH","id":"Z","name":"KHANTY-MANSIYSK","freq":345,"lat":61.03388888888889,"lon":69.12869444444445,"navaid_class":"HMMW ","magvar":17,"range":25},{"airport_identifier":"USHH","id":"ZJ","name":"KHANTY-MANSIYSK","freq":707,"lat":61.041,"lon":69.18630555555555,"navaid_class":"HOMW ","magvar":17,"range":25},{"airport_identifier":"USHN","id":"L","name":"NYAGAN","freq":615,"lat":62.089666666666666,"lon":65.61194444444445,"navaid_class":"H LW ","magvar":20,"range":20},{"airport_identifier":"USHN","id":"LS","name":"NYAGAN","freq":298,"lat":62.06422222222222,"lon":65.60994444444444,"navaid_class":"H MW ","magvar":20,"range":25},{"airport_identifier":"USHN","id":"N","name":"NYAGAN","freq":615,"lat":62.13111111111111,"lon":65.61566666666667,"navaid_class":"H LW ","magvar":20,"range":20},{"airport_identifier":"USHN","id":"NA","name":"NYAGAN","freq":298,"lat":62.15602777777778,"lon":65.61775,"navaid_class":"H MW ","magvar":20,"range":25},{"airport_identifier":"USHQ","id":"I","name":"BELOYARSKIY","freq":387,"lat":63.70375,"lon":66.70125,"navaid_class":"H MW ","magvar":21,"range":25},{"airport_identifier":"USHQ","id":"IU","name":"BELOYARSKIY","freq":785,"lat":63.72697222222222,"lon":66.70302777777778,"navaid_class":"H MW ","magvar":21,"range":25},{"airport_identifier":"USHS","id":"U","name":"SOVETSKIY","freq":530,"lat":61.308166666666665,"lon":63.630694444444444,"navaid_class":"H LW ","magvar":19,"range":15},{"airport_identifier":"USHS","id":"UY","name":"SOVETSKIY","freq":1075,"lat":61.28775,"lon":63.66361111111111,"navaid_class":"H LW ","magvar":19,"range":20},{"airport_identifier":"USHU","id":"P","name":"URAY","freq":378,"lat":60.08958333333333,"lon":64.81811111111111,"navaid_class":"H LW ","magvar":17,"range":20},{"airport_identifier":"USHU","id":"PM","name":"URAY","freq":780,"lat":60.06352777777778,"lon":64.807,"navaid_class":"H LW ","magvar":17,"range":20},{"airport_identifier":"USHU","id":"W","name":"URAY","freq":378,"lat":60.12538888888889,"lon":64.83366666666667,"navaid_class":"H LW ","magvar":17,"range":20},{"airport_identifier":"USHU","id":"WI","name":"URAY","freq":780,"lat":60.15211111111111,"lon":64.84652777777778,"navaid_class":"H LW ","magvar":17,"range":20},{"airport_identifier":"USII","id":"L","name":"IZHEVSK","freq":308,"lat":56.85425,"lon":53.47891666666666,"navaid_class":"H LW ","magvar":15,"range":15},{"airport_identifier":"USII","id":"LV","name":"IZHEVSK","freq":635,"lat":56.881861111111114,"lon":53.502472222222224,"navaid_class":"H MW ","magvar":15,"range":25},{"airport_identifier":"USII","id":"M","name":"IZHEVSK","freq":308,"lat":56.81516666666667,"lon":53.44555555555556,"navaid_class":"H LW ","magvar":15,"range":15},{"airport_identifier":"USII","id":"MD","name":"IZHEVSK","freq":635,"lat":56.79383333333333,"lon":53.42744444444445,"navaid_class":"H MW ","magvar":15,"range":25},{"airport_identifier":"USKK","id":"O","name":"POBEDILOVO ","freq":213,"lat":58.49,"lon":49.318583333333336,"navaid_class":"H MW ","magvar":16,"range":25},{"airport_identifier":"USKK","id":"X","name":"POBEDILOVO ","freq":213,"lat":58.51725,"lon":49.376,"navaid_class":"H MW ","magvar":16,"range":25},{"airport_identifier":"USKK","id":"XA","name":"POBEDILOVO ","freq":438,"lat":58.53463888888889,"lon":49.41255555555556,"navaid_class":"H MW ","magvar":16,"range":25},{"airport_identifier":"USMM","id":"N","name":"NADYM","freq":983,"lat":65.50055555555555,"lon":72.67994444444444,"navaid_class":"H LW ","magvar":22,"range":20},{"airport_identifier":"USMM","id":"NO","name":"NADYM","freq":485,"lat":65.52461111111111,"lon":72.65541666666667,"navaid_class":"HOMW ","magvar":22,"range":25},{"airport_identifier":"USMM","id":"P","name":"NADYM","freq":983,"lat":65.46358333333333,"lon":72.71725,"navaid_class":"H LW ","magvar":22,"range":20},{"airport_identifier":"USMM","id":"PZ","name":"NADYM","freq":485,"lat":65.43916666666667,"lon":72.74166666666666,"navaid_class":"HOMW ","magvar":22,"range":25},{"airport_identifier":"USMQ","id":"M","name":"YAMBURG","freq":707,"lat":68.006,"lon":75.07625,"navaid_class":"H LW ","magvar":24,"range":15},{"airport_identifier":"USMQ","id":"O","name":"YAMBURG","freq":707,"lat":67.96872222222223,"lon":75.1198611111111,"navaid_class":"H LW ","magvar":24,"range":15},{"airport_identifier":"USMQ","id":"ON","name":"YAMBURG","freq":345,"lat":67.94447222222222,"lon":75.149,"navaid_class":"H LW ","magvar":24,"range":20},{"airport_identifier":"USMU","id":"N","name":"NOVY URENGOY","freq":568,"lat":66.07602777777778,"lon":76.47316666666667,"navaid_class":"H LW ","magvar":21,"range":20},{"airport_identifier":"USMU","id":"ND","name":"NOVY URENGOY","freq":275,"lat":66.08461111111112,"lon":76.40633333333334,"navaid_class":"H LW ","magvar":21,"range":20},{"airport_identifier":"USMU","id":"Y","name":"NOVY URENGOY","freq":568,"lat":66.06391666666667,"lon":76.56613888888889,"navaid_class":"H LW ","magvar":21,"range":20},{"airport_identifier":"USMU","id":"YC","name":"NOVY URENGOY","freq":275,"lat":66.05605555555556,"lon":76.62736111111111,"navaid_class":"H LW ","magvar":21,"range":20},{"airport_identifier":"USNN","id":"J","name":"NIZHNEVARTOVSK","freq":915,"lat":60.931916666666666,"lon":76.4495,"navaid_class":"HMLW ","magvar":16,"range":15},{"airport_identifier":"USNN","id":"JH","name":"NIZHNEVARTOVSK","freq":450,"lat":60.912444444444446,"lon":76.4131388888889,"navaid_class":"HOMW ","magvar":16,"range":25},{"airport_identifier":"USNN","id":"N","name":"NIZHNEVARTOVSK","freq":915,"lat":60.96794444444444,"lon":76.51688888888889,"navaid_class":"H LW ","magvar":16,"range":15},{"airport_identifier":"USNN","id":"NZ","name":"NIZHNEVARTOVSK","freq":450,"lat":60.98652777777778,"lon":76.55208333333333,"navaid_class":"H MW ","magvar":16,"range":25},{"airport_identifier":"USPP","id":"BK","name":"BOLSHOE SAVINO ","freq":705,"lat":57.87863888888889,"lon":55.95188888888889,"navaid_class":"H MW ","magvar":16,"range":25},{"airport_identifier":"USPP","id":"K","name":"BOLSHOE SAVINO ","freq":345,"lat":57.89727777777778,"lon":55.987944444444445,"navaid_class":"HMMW ","magvar":16,"range":25},{"airport_identifier":"USPP","id":"PX","name":"BOLSHOE SAVINO ","freq":705,"lat":57.94961111111111,"lon":56.08938888888889,"navaid_class":"HOMW ","magvar":16,"range":25},{"airport_identifier":"USPP","id":"X","name":"BOLSHOE SAVINO ","freq":345,"lat":57.93088888888889,"lon":56.05316666666667,"navaid_class":"HMMW ","magvar":16,"range":25},{"airport_identifier":"USRK","id":"K","name":"KOGALYM","freq":996,"lat":62.211083333333335,"lon":74.54141666666666,"navaid_class":"HMLW ","magvar":18,"range":15},{"airport_identifier":"USRK","id":"KG","name":"KOGALYM","freq":490,"lat":62.24675,"lon":74.55480555555556,"navaid_class":"HOLW ","magvar":18,"range":20},{"airport_identifier":"USRK","id":"O","name":"KOGALYM","freq":996,"lat":62.17138888888889,"lon":74.52652777777777,"navaid_class":"HMLW ","magvar":18,"range":15},{"airport_identifier":"USRK","id":"OL","name":"KOGALYM","freq":490,"lat":62.14577777777778,"lon":74.51797222222223,"navaid_class":"HOLW ","magvar":18,"range":20},{"airport_identifier":"USRO","id":"U","name":"NOYABRSK","freq":1252,"lat":63.201277777777776,"lon":75.28727777777777,"navaid_class":"H MW ","magvar":18,"range":25},{"airport_identifier":"USRO","id":"UC","name":"NOYABRSK","freq":615,"lat":63.22805555555556,"lon":75.31497222222222,"navaid_class":"H MW ","magvar":18,"range":25},{"airport_identifier":"USRO","id":"Z","name":"NOYABRSK","freq":1252,"lat":63.16577777777778,"lon":75.25069444444445,"navaid_class":"H MW ","magvar":18,"range":25},{"airport_identifier":"USRR","id":"A","name":"SURGUT","freq":668,"lat":61.343944444444446,"lon":73.44705555555555,"navaid_class":"H LW ","magvar":17,"range":15},{"airport_identifier":"USRR","id":"AM","name":"SURGUT","freq":325,"lat":61.344166666666666,"lon":73.50488888888889,"navaid_class":"H LW ","magvar":17,"range":20},{"airport_identifier":"USRR","id":"G","name":"SURGUT","freq":668,"lat":61.34372222222222,"lon":73.35683333333333,"navaid_class":"H LW ","magvar":17,"range":15},{"airport_identifier":"USRR","id":"GK","name":"SURGUT","freq":325,"lat":61.343944444444446,"lon":73.29880555555556,"navaid_class":"H LW ","magvar":17,"range":20},{"airport_identifier":"USSS","id":"D","name":"KOLTSOVO ","freq":388,"lat":56.73988888888889,"lon":60.84180555555555,"navaid_class":"HMMW ","magvar":15,"range":25},{"airport_identifier":"USSS","id":"U","name":"KOLTSOVO ","freq":749,"lat":56.74469444444444,"lon":60.83888888888889,"navaid_class":"H MW ","magvar":15,"range":25},{"airport_identifier":"USTJ","id":"S","name":"REMEZOV ","freq":430,"lat":58.058416666666666,"lon":68.31141666666667,"navaid_class":"H MW ","magvar":15,"range":25},{"airport_identifier":"USTR","id":"R","name":"ROSHCHINO ","freq":650,"lat":57.16313888888889,"lon":65.26861111111111,"navaid_class":"HMMW ","magvar":15,"range":25},{"airport_identifier":"USTR","id":"RN","name":"ROSHCHINO ","freq":315,"lat":57.14652777777778,"lon":65.23519444444445,"navaid_class":"H MW ","magvar":15,"range":25},{"airport_identifier":"USTR","id":"T","name":"ROSHCHINO ","freq":650,"lat":57.19419444444444,"lon":65.33172222222223,"navaid_class":"HMMW ","magvar":15,"range":25},{"airport_identifier":"USTR","id":"TM","name":"ROSHCHINO ","freq":315,"lat":57.212583333333335,"lon":65.369,"navaid_class":"HOMW ","magvar":15,"range":25},{"airport_identifier":"USUU","id":"R","name":"KURGAN","freq":353,"lat":55.45608333333333,"lon":65.39572222222222,"navaid_class":"H LW ","magvar":14,"range":20},{"airport_identifier":"USUU","id":"RD","name":"KURGAN","freq":708,"lat":55.43436111111111,"lon":65.37358333333333,"navaid_class":"H M  ","magvar":14,"range":25},{"airport_identifier":"USUU","id":"U","name":"KURGAN","freq":353,"lat":55.494305555555556,"lon":65.43475,"navaid_class":"H LW ","magvar":14,"range":20},{"airport_identifier":"USUU","id":"UN","name":"KURGAN","freq":708,"lat":55.51808333333334,"lon":65.45852777777777,"navaid_class":"H M  ","magvar":14,"range":25},{"airport_identifier":"UTAA","id":"AP","name":"ASHGABAT","freq":407,"lat":37.96861111111111,"lon":58.38425,"navaid_class":"H MW ","magvar":5,"range":25},{"airport_identifier":"UTAA","id":"PQ","name":"ASHGABAT","freq":295,"lat":37.95722222222222,"lon":58.41305555555556,"navaid_class":"H HW ","magvar":5,"range":75},{"airport_identifier":"UTAM","id":"M","name":"MARY","freq":213,"lat":37.59919444444444,"lon":61.89833055555555,"navaid_class":"HMLW ","magvar":5,"range":15},{"airport_identifier":"UTAM","id":"MR","name":"MARY","freq":439,"lat":37.571416666666664,"lon":61.89833333333333,"navaid_class":"HOLW ","magvar":5,"range":20},{"airport_identifier":"UTAN","id":"ZO","name":"BALKANABAT","freq":355,"lat":39.703297222222226,"lon":54.196475,"navaid_class":"H MW ","magvar":6,"range":25},{"airport_identifier":"UTAT","id":"R","name":"DAZHOGUZ","freq":662,"lat":41.75995277777778,"lon":59.79952222222222,"navaid_class":"H LW ","magvar":7,"range":20},{"airport_identifier":"UTAT","id":"RP","name":"DASHOGUZ","freq":322,"lat":41.76028888888889,"lon":59.76441388888889,"navaid_class":"HOLW ","magvar":7,"range":20},{"airport_identifier":"UTDD","id":"F","name":"DUSHANBE","freq":732,"lat":38.54375,"lon":68.79508333333334,"navaid_class":"HMMW ","magvar":4,"range":25},{"airport_identifier":"UTDD","id":"FN","name":"DUSHANBE","freq":372,"lat":38.54394444444444,"lon":68.75433333333334,"navaid_class":"HOMW ","magvar":4,"range":25},{"airport_identifier":"UTDD","id":"W","name":"DUSHANBE","freq":732,"lat":38.54386111111111,"lon":68.85316666666667,"navaid_class":"HMMW ","magvar":4,"range":25},{"airport_identifier":"UTDD","id":"WG","name":"DUSHANBE","freq":372,"lat":38.54383333333333,"lon":68.88111111111111,"navaid_class":"HOMW ","magvar":4,"range":25},{"airport_identifier":"UTDK","id":"C","name":"KULOB","freq":615,"lat":37.96652777777778,"lon":69.79719444444444,"navaid_class":"HMLW ","magvar":4,"range":25},{"airport_identifier":"UTDL","id":"HV","name":"KHUJAND","freq":655,"lat":40.22188888888889,"lon":69.75530555555555,"navaid_class":"HOMW ","magvar":5,"range":25},{"airport_identifier":"UTDL","id":"V","name":"KHUJAND","freq":318,"lat":40.21772222222222,"lon":69.71975,"navaid_class":"HMMW ","magvar":5,"range":25},{"airport_identifier":"UTDT","id":"N","name":"BOKHTAR","freq":752,"lat":37.84988888888889,"lon":68.86786111111111,"navaid_class":"HMMW ","magvar":4,"range":25},{"airport_identifier":"UTDT","id":"NH","name":"BOKHTAR","freq":420,"lat":37.82091666666667,"lon":68.87502777777777,"navaid_class":"HOMW ","magvar":4,"range":25},{"airport_identifier":"UZFF","id":"Z","name":"FERGANA","freq":303,"lat":40.38003888888889,"lon":71.74631388888889,"navaid_class":"H LW ","magvar":5,"range":20},{"airport_identifier":"UZFN","id":"S","name":"NAMANGAN","freq":676,"lat":40.975744444444445,"lon":71.592725,"navaid_class":"H LW ","magvar":5,"range":15},{"airport_identifier":"UZNN","id":"D","name":"NUKUS INTL","freq":888,"lat":42.50969444444444,"lon":59.609611111111114,"navaid_class":"H LW ","magvar":7,"range":20},{"airport_identifier":"UZNN","id":"Z","name":"NUKUS INTL","freq":888,"lat":42.469055555555556,"lon":59.635666666666665,"navaid_class":"H LW ","magvar":7,"range":20},{"airport_identifier":"UZNU","id":"N","name":"URGENCH INTL","freq":485,"lat":41.56594444444445,"lon":60.66266666666667,"navaid_class":"HMLW ","magvar":7,"range":15},{"airport_identifier":"UZNU","id":"NU","name":"URGENCH INTL","freq":983,"lat":41.54516666666667,"lon":60.68622222222222,"navaid_class":"HOLW ","magvar":7,"range":20},{"airport_identifier":"UZNU","id":"R","name":"URGENCH INTL","freq":485,"lat":41.60041666666667,"lon":60.623194444444444,"navaid_class":"HMLW ","magvar":7,"range":15},{"airport_identifier":"UZSB","id":"B","name":"BUKHARA INTL","freq":390,"lat":39.79716666666667,"lon":64.48741666666666,"navaid_class":"HMMW ","magvar":5,"range":25},{"airport_identifier":"UZSB","id":"BR","name":"BUKHARA INTL","freq":795,"lat":39.823972222222224,"lon":64.49352777777777,"navaid_class":"HOMW ","magvar":5,"range":25},{"airport_identifier":"UZSB","id":"U","name":"BUKHARA INTL","freq":390,"lat":39.752916666666664,"lon":64.47708333333334,"navaid_class":"HMMW ","magvar":5,"range":25},{"airport_identifier":"UZSB","id":"UH","name":"BUKHARA INTL","freq":795,"lat":39.729,"lon":64.47158333333333,"navaid_class":"HOMW ","magvar":5,"range":25},{"airport_identifier":"UZSK","id":"J","name":"KARSHI INTL","freq":301,"lat":38.822975,"lon":65.76552777777778,"navaid_class":"H MW ","magvar":5,"range":25},{"airport_identifier":"UZTC","id":"C","name":"CHIRCHIK","freq":250,"lat":41.51350277777778,"lon":69.54957777777778,"navaid_class":"H MW ","magvar":6,"range":25},{"airport_identifier":"UZTC","id":"CR","name":"CHIRCHIK","freq":513,"lat":41.50748333333333,"lon":69.50270833333333,"navaid_class":"H MW ","magvar":6,"range":25},{"airport_identifier":"UUBC","id":"GC","name":"GRABTSEVO ","freq":286,"lat":54.53272222222222,"lon":36.391333333333336,"navaid_class":"H LW ","magvar":11,"range":25},{"airport_identifier":"UUBC","id":"WI","name":"GRABTSEVO ","freq":286,"lat":54.56444444444445,"lon":36.35127777777778,"navaid_class":"H LW ","magvar":11,"range":20},{"airport_identifier":"UUBI","id":"A","name":"YUZHNY ","freq":670,"lat":56.95322222222222,"lon":40.89963888888889,"navaid_class":"H LW ","magvar":13,"range":20},{"airport_identifier":"UUBI","id":"AL","name":"YUZHNY ","freq":326,"lat":56.96763888888889,"lon":40.85597222222222,"navaid_class":"H LW ","magvar":13,"range":20},{"airport_identifier":"UUBI","id":"D","name":"YUZHNY ","freq":670,"lat":56.931222222222225,"lon":40.96597222222222,"navaid_class":"H LW ","magvar":13,"range":15},{"airport_identifier":"UUBI","id":"DD","name":"YUZHNY ","freq":326,"lat":56.91727777777778,"lon":41.007333333333335,"navaid_class":"H LW ","magvar":13,"range":20},{"airport_identifier":"UUBP","id":"N","name":"BRYANSK","freq":668,"lat":53.1955,"lon":34.18075,"navaid_class":"HMMW ","magvar":10,"range":25},{"airport_identifier":"UUBW","id":"D","name":"RAMENSKOYE","freq":1185,"lat":55.56986111111111,"lon":38.11611111111111,"navaid_class":"H MW ","magvar":12,"range":25},{"airport_identifier":"UUBW","id":"DM","name":"RAMENSKOYE","freq":581,"lat":55.60491666666667,"lon":38.04591666666666,"navaid_class":"H MW ","magvar":12,"range":25},{"airport_identifier":"UUBW","id":"R","name":"RAMENSKOYE","freq":760,"lat":55.53055555555556,"lon":38.19411111111111,"navaid_class":"H MW ","magvar":12,"range":25},{"airport_identifier":"UUDL","id":"R","name":"TUNOSHNA ","freq":650,"lat":57.57011111111111,"lon":40.19280555555556,"navaid_class":"HMMW ","magvar":13,"range":25},{"airport_identifier":"UUDL","id":"RG","name":"TUNOSHNA ","freq":315,"lat":57.58233333333333,"lon":40.23877777777778,"navaid_class":"HOMW ","magvar":13,"range":25},{"airport_identifier":"UUEE","id":"AD","name":"SHEREMETYEVO ","freq":700,"lat":55.980555555555554,"lon":37.45897222222222,"navaid_class":"HMMW ","magvar":12,"range":25},{"airport_identifier":"UUEE","id":"BW","name":"SHEREMETYEVO ","freq":380,"lat":55.97841666666667,"lon":37.46163888888889,"navaid_class":"HMMW ","magvar":12,"range":25},{"airport_identifier":"UUEE","id":"ER","name":"SHEREMETYEVO","freq":794,"lat":55.99036111111111,"lon":37.39169444444445,"navaid_class":"H MW ","magvar":12,"range":25},{"airport_identifier":"UUEE","id":"M","name":"SHEREMETYEVO ","freq":338,"lat":55.96763888888889,"lon":37.37258333333333,"navaid_class":"HMMW ","magvar":12,"range":25},{"airport_identifier":"UUEE","id":"N","name":"SHEREMETYEVO ","freq":770,"lat":55.96502777777778,"lon":37.37255555555556,"navaid_class":"HMMW ","magvar":12,"range":25},{"airport_identifier":"UUMO","id":"N","name":"OSTAFYEVO","freq":305,"lat":55.50611111111111,"lon":37.47472222222222,"navaid_class":"H LW ","magvar":11,"range":15},{"airport_identifier":"UUMO","id":"NW","name":"OSTAFYEVO","freq":625,"lat":55.50416666666667,"lon":37.43611111111111,"navaid_class":"H LW ","magvar":11,"range":20},{"airport_identifier":"UUMO","id":"P","name":"OSTAFYEVO ","freq":305,"lat":55.50888888888889,"lon":37.53111111111111,"navaid_class":"H LW ","magvar":11,"range":15},{"airport_identifier":"UUMO","id":"PS","name":"OSTAFYEVO ","freq":625,"lat":55.511944444444445,"lon":37.58305555555555,"navaid_class":"H LW ","magvar":11,"range":20},{"airport_identifier":"UUOB","id":"A","name":"BELGOROD","freq":350,"lat":50.652166666666666,"lon":36.56516666666667,"navaid_class":"H LW ","magvar":8,"range":15},{"airport_identifier":"UUOB","id":"B","name":"BELGOROD","freq":350,"lat":50.63441666666667,"lon":36.61913888888889,"navaid_class":"HMLW ","magvar":8,"range":15},{"airport_identifier":"UUOD","id":"Z","name":"PRIDACHA ","freq":250,"lat":51.66744444444444,"lon":39.27419444444445,"navaid_class":"H LW ","magvar":10,"range":25},{"airport_identifier":"UUOD","id":"ZF","name":"PRIDACHA ","freq":495,"lat":51.70308333333333,"lon":39.318083333333334,"navaid_class":"H LW ","magvar":10,"range":20},{"airport_identifier":"UUOK","id":"G","name":"VOSTOCHNY ","freq":368,"lat":51.76188888888889,"lon":36.2685,"navaid_class":"H MW ","magvar":8,"range":25},{"airport_identifier":"UUOK","id":"W","name":"VOSTOCHNY ","freq":368,"lat":51.73902777777778,"lon":36.323277777777776,"navaid_class":"H MW ","magvar":8,"range":25},{"airport_identifier":"UUOL","id":"D","name":"LIPETSK","freq":815,"lat":52.72094444444444,"lon":39.52708333333333,"navaid_class":"H LW ","magvar":11,"range":25},{"airport_identifier":"UUOL","id":"I","name":"LIPETSK","freq":400,"lat":52.68633333333333,"lon":39.54794444444445,"navaid_class":"H MW ","magvar":11,"range":25},{"airport_identifier":"UUOO","id":"A","name":"CHERTOVITSKOYE ","freq":595,"lat":51.80330555555555,"lon":39.2515,"navaid_class":"H MW ","magvar":10,"range":25},{"airport_identifier":"UUOO","id":"W","name":"CHERTOVITSKOYE ","freq":595,"lat":51.827666666666666,"lon":39.20608333333333,"navaid_class":"HMMW ","magvar":10,"range":25},{"airport_identifier":"UUOT","id":"F","name":"DONSKOE ","freq":362,"lat":52.821527777777774,"lon":41.46988888888889,"navaid_class":"H LW ","magvar":11,"range":20},{"airport_identifier":"UUOT","id":"FF","name":"DONSKOE ","freq":735,"lat":52.853722222222224,"lon":41.442861111111114,"navaid_class":"H MW ","magvar":11,"range":25},{"airport_identifier":"UUOT","id":"X","name":"DONSKOE ","freq":362,"lat":52.79058333333333,"lon":41.496,"navaid_class":"H LW ","magvar":11,"range":15},{"airport_identifier":"UUOT","id":"XV","name":"DONSKOE ","freq":735,"lat":52.76138888888889,"lon":41.5195,"navaid_class":"H MW ","magvar":11,"range":25},{"airport_identifier":"UUWW","id":"GT","name":"VNUKOVO ","freq":294,"lat":55.5835,"lon":37.22547222222222,"navaid_class":"H MW ","magvar":11,"range":25},{"airport_identifier":"UUWW","id":"OB","name":"VNUKOVO ","freq":852,"lat":55.60147222222222,"lon":37.3055,"navaid_class":"H MW ","magvar":11,"range":25},{"airport_identifier":"UUWW","id":"OE","name":"VNUKOVO ","freq":949,"lat":55.578722222222225,"lon":37.25163888888889,"navaid_class":"H MW ","magvar":11,"range":25},{"airport_identifier":"UUWW","id":"SX","name":"VNUKOVO ","freq":914,"lat":55.61913888888889,"lon":37.2825,"navaid_class":"H MW ","magvar":11,"range":25},{"airport_identifier":"UWGG","id":"BO","name":"STRIGINO ","freq":676,"lat":56.17594444444445,"lon":43.76530555555556,"navaid_class":"H MW ","magvar":13,"range":25},{"airport_identifier":"UWGG","id":"U","name":"STRIGINO ","freq":327,"lat":56.24894444444445,"lon":43.792722222222224,"navaid_class":"H MW ","magvar":13,"range":25},{"airport_identifier":"UWKB","id":"LB","name":"BUGULMA","freq":325,"lat":54.68752777777778,"lon":52.83513888888889,"navaid_class":"H MW ","magvar":13,"range":25},{"airport_identifier":"UWKB","id":"M","name":"BUGULMA","freq":672,"lat":54.625527777777776,"lon":52.788444444444444,"navaid_class":"H MW ","magvar":13,"range":25},{"airport_identifier":"UWKB","id":"MC","name":"BUGULMA","freq":325,"lat":54.60311111111111,"lon":52.77166666666667,"navaid_class":"H MW ","magvar":13,"range":25},{"airport_identifier":"UWKD","id":"AM","name":"KAZAN","freq":475,"lat":55.62280555555556,"lon":49.23608333333333,"navaid_class":"H MW ","magvar":14,"range":25},{"airport_identifier":"UWKD","id":"BL","name":"KAZAN","freq":965,"lat":55.59263888888889,"lon":49.313833333333335,"navaid_class":"H MW ","magvar":14,"range":25},{"airport_identifier":"UWKE","id":"A","name":"BEGISHEVO ","freq":749,"lat":55.55088888888889,"lon":52.06644444444444,"navaid_class":"H MW ","magvar":14,"range":25},{"airport_identifier":"UWKE","id":"K","name":"BEGISHEVO ","freq":749,"lat":55.57838888888889,"lon":52.11863888888889,"navaid_class":"H MW ","magvar":14,"range":25},{"airport_identifier":"UWKJ","id":"I","name":"YOSHKAR-OLA","freq":297,"lat":56.68475,"lon":47.89975,"navaid_class":"H MW ","magvar":14,"range":25},{"airport_identifier":"UWKJ","id":"IO","name":"YOSHKAR-OLA","freq":610,"lat":56.658833333333334,"lon":47.9055,"navaid_class":"H MW ","magvar":14,"range":25},{"airport_identifier":"UWKS","id":"C","name":"CHEBOKSARY","freq":480,"lat":56.096694444444445,"lon":47.382305555555554,"navaid_class":"HMMW ","magvar":14,"range":25},{"airport_identifier":"UWKS","id":"L","name":"CHEBOKSARY","freq":480,"lat":56.08375,"lon":47.31175,"navaid_class":"HMMW ","magvar":14,"range":25},{"airport_identifier":"UWLL","id":"L","name":"BARATAYEVKA ","freq":680,"lat":54.29,"lon":48.24697222222222,"navaid_class":"H MW ","magvar":13,"range":25},{"airport_identifier":"UWLL","id":"LS","name":"BARATAYEVKA ","freq":332,"lat":54.313138888888886,"lon":48.27180555555555,"navaid_class":"H MW ","magvar":13,"range":25},{"airport_identifier":"UWLL","id":"M","name":"BARATAYEVKA ","freq":680,"lat":54.25080555555556,"lon":48.20475,"navaid_class":"H MW ","magvar":13,"range":25},{"airport_identifier":"UWLW","id":"U","name":"VOSTOCHNY ","freq":830,"lat":54.37502777777778,"lon":48.775666666666666,"navaid_class":"HMMW ","magvar":13,"range":25},{"airport_identifier":"UWLW","id":"UL","name":"VOSTOCHNY ","freq":408,"lat":54.35177777777778,"lon":48.75213888888889,"navaid_class":"HOMW ","magvar":13,"range":25},{"airport_identifier":"UWLW","id":"W","name":"VOSTOCHNY ","freq":830,"lat":54.42802777777778,"lon":48.830666666666666,"navaid_class":"HMMW ","magvar":13,"range":25},{"airport_identifier":"UWLW","id":"WN","name":"VOSTOCHNY ","freq":408,"lat":54.45297222222222,"lon":48.85722222222222,"navaid_class":"HOMW ","magvar":13,"range":25},{"airport_identifier":"UWOO","id":"L","name":"ORENBURG","freq":843,"lat":51.795833333333334,"lon":55.49066666666667,"navaid_class":"HMMW ","magvar":11,"range":25},{"airport_identifier":"UWOO","id":"LM","name":"ORENBURG","freq":415,"lat":51.795944444444444,"lon":55.535333333333334,"navaid_class":"HOMW ","magvar":11,"range":25},{"airport_identifier":"UWOO","id":"W","name":"ORENBURG","freq":843,"lat":51.79575,"lon":55.4225,"navaid_class":"HMMW ","magvar":11,"range":25},{"airport_identifier":"UWOO","id":"WP","name":"ORENBURG","freq":415,"lat":51.79569444444444,"lon":55.38102777777778,"navaid_class":"HOMW ","magvar":11,"range":25},{"airport_identifier":"UWOR","id":"O","name":"ORSK","freq":780,"lat":51.07775,"lon":58.630944444444445,"navaid_class":"HMMW ","magvar":11,"range":25},{"airport_identifier":"UWOR","id":"OR","name":"ORSK","freq":385,"lat":51.083333333333336,"lon":58.66875,"navaid_class":"HOMW ","magvar":11,"range":25},{"airport_identifier":"UWOR","id":"S","name":"ORSK","freq":780,"lat":51.067083333333336,"lon":58.559083333333334,"navaid_class":"HMMW ","magvar":11,"range":25},{"airport_identifier":"UWOR","id":"SF","name":"ORSK","freq":385,"lat":51.060916666666664,"lon":58.51733333333333,"navaid_class":"HOMW ","magvar":11,"range":25},{"airport_identifier":"UWPP","id":"R","name":"PENZA","freq":286,"lat":53.11877777777778,"lon":44.993833333333335,"navaid_class":"H MW ","magvar":12,"range":25},{"airport_identifier":"UWPP","id":"RN","name":"PENZA","freq":591,"lat":53.12986111111111,"lon":44.95625,"navaid_class":"H MW ","magvar":12,"range":25},{"airport_identifier":"UWPP","id":"W","name":"PENZA","freq":286,"lat":53.099583333333335,"lon":45.05866666666667,"navaid_class":"H MW ","magvar":12,"range":25},{"airport_identifier":"UWPP","id":"WH","name":"PENZA","freq":591,"lat":53.08811111111111,"lon":45.09752777777778,"navaid_class":"H MW ","magvar":12,"range":25},{"airport_identifier":"UWPS","id":"G","name":"SARANSK","freq":1025,"lat":54.143055555555556,"lon":45.23236111111111,"navaid_class":"H LW ","magvar":12,"range":20},{"airport_identifier":"UWSG","id":"GR","name":"GAGARIN ","freq":479,"lat":51.71333333333333,"lon":46.14041666666667,"navaid_class":"H MW ","magvar":11,"range":25},{"airport_identifier":"UWUU","id":"L","name":"UFA","freq":435,"lat":54.53986111111111,"lon":55.900888888888886,"navaid_class":"H MW ","magvar":13,"range":25},{"airport_identifier":"UWUU","id":"N","name":"UFA","freq":1215,"lat":54.534527777777775,"lon":55.886583333333334,"navaid_class":"H MW ","magvar":13,"range":25},{"airport_identifier":"UWUU","id":"P","name":"UFA","freq":1215,"lat":54.58230555555556,"lon":55.84052777777778,"navaid_class":"H MW ","magvar":13,"range":25},{"airport_identifier":"UWUU","id":"R","name":"UFA","freq":435,"lat":54.575694444444444,"lon":55.866416666666666,"navaid_class":"H MW ","magvar":13,"range":25},{"airport_identifier":"UWUU","id":"RG","name":"UFA","freq":212,"lat":54.599666666666664,"lon":55.843333333333334,"navaid_class":"H MW ","magvar":13,"range":25},{"airport_identifier":"UWWW","id":"A","name":"KURUMOCH ","freq":588,"lat":53.48427777777778,"lon":50.18897222222222,"navaid_class":"HMMW ","magvar":13,"range":25},{"airport_identifier":"UWWW","id":"AZ","name":"KURUMOCH ","freq":287,"lat":53.46091666666667,"lon":50.20297222222222,"navaid_class":"HOMW ","magvar":13,"range":25},{"airport_identifier":"UWWW","id":"W","name":"KURUMOCH ","freq":588,"lat":53.527166666666666,"lon":50.16330555555555,"navaid_class":"HMMW ","magvar":13,"range":25},{"airport_identifier":"UWWW","id":"WG","name":"KURUMOCH ","freq":287,"lat":53.55302777777778,"lon":50.14783333333333,"navaid_class":"HOMW ","magvar":13,"range":25},{"airport_identifier":"ZBDT","id":"J","name":"YUNGANG ","freq":305,"lat":40.076861111111114,"lon":113.45805555555556,"navaid_class":"H MW ","magvar":-6,"range":25},{"airport_identifier":"ZBMZ","id":"G","name":"MANZHOULI","freq":300,"lat":49.575,"lon":117.28864166666666,"navaid_class":"H MW ","magvar":-10,"range":25},{"airport_identifier":"ZBMZ","id":"Z","name":"XIJIAO ","freq":225,"lat":49.560205555555555,"lon":117.36191388888889,"navaid_class":"H MW ","magvar":-10,"range":25},{"airport_identifier":"ZBOW","id":"X","name":"DONGHE ","freq":306,"lat":40.574,"lon":109.97447222222222,"navaid_class":"H MW ","magvar":-5,"range":25},{"airport_identifier":"ZBSJ","id":"F","name":"ZHENGDING ","freq":377,"lat":38.25995,"lon":114.714175,"navaid_class":"H MW ","magvar":-6,"range":25},{"airport_identifier":"ZBSJ","id":"O","name":"ZHENGDING ","freq":528,"lat":38.301233333333336,"lon":114.68045,"navaid_class":"HMMW ","magvar":-6,"range":25},{"airport_identifier":"ZGDY","id":"D","name":"HEHUA ","freq":308,"lat":29.0972,"lon":110.41755277777777,"navaid_class":"HMMW ","magvar":-3,"range":25},{"airport_identifier":"ZGDY","id":"P","name":"HEHUA ","freq":384,"lat":29.10868333333333,"lon":110.46952777777778,"navaid_class":"H MW ","magvar":-3,"range":25},{"airport_identifier":"ZGKL","id":"J","name":"LIANGJIANG ","freq":316,"lat":25.19446111111111,"lon":110.0370361111111,"navaid_class":"H MW ","magvar":-2,"range":25},{"airport_identifier":"ZGKL","id":"P","name":"LIANGJIANG ","freq":330,"lat":25.243016666666666,"lon":110.0417,"navaid_class":"H MW ","magvar":-2,"range":25},{"airport_identifier":"ZHYC","id":"F","name":"SANXIA ","freq":333,"lat":30.571083333333334,"lon":111.46211111111111,"navaid_class":"H MW ","magvar":-4,"range":25},{"airport_identifier":"ZHYC","id":"JA","name":"SANXIA ","freq":436,"lat":30.485444444444443,"lon":111.56725,"navaid_class":"H MW ","magvar":-4,"range":25},{"airport_identifier":"ZJHK","id":"P","name":"MEILAN ","freq":402,"lat":19.934822222222223,"lon":110.48703888888889,"navaid_class":"H MW ","magvar":-2,"range":25},{"airport_identifier":"ZJSY","id":"K","name":"PHOENIX INTL ","freq":305,"lat":18.299219444444443,"lon":109.38432777777778,"navaid_class":"HM W ","magvar":-2,"range":50},{"airport_identifier":"ZLIC","id":"V","name":"HEDONG ","freq":249,"lat":38.343183333333336,"lon":106.40787777777778,"navaid_class":"H MW ","magvar":-3,"range":25},{"airport_identifier":"ZMCD","id":"ON","name":"CHOIBALSAN","freq":430,"lat":48.14366666666667,"lon":114.61738888888888,"navaid_class":"H MW ","magvar":-9,"range":25},{"airport_identifier":"ZMUB","id":"IM","name":"ULAANBAATAR","freq":450,"lat":47.860277777777775,"lon":106.7436388888889,"navaid_class":"H MW ","magvar":-5,"range":25},{"airport_identifier":"ZSNJ","id":"Z","name":"LUKOU","freq":420,"lat":31.71,"lon":118.83833333333334,"navaid_class":"H MW ","magvar":-6,"range":25},{"airport_identifier":"ZSNT","id":"W","name":"XINGDONG ","freq":425,"lat":32.04861666666667,"lon":120.98077777777777,"navaid_class":"H MW ","magvar":-5,"range":25},{"airport_identifier":"ZSQZ","id":"O","name":"JINJIANG ","freq":438,"lat":24.814480555555555,"lon":118.60026944444445,"navaid_class":"H MW ","magvar":-5,"range":25},{"airport_identifier":"ZSXZ","id":"CK","name":"GUANYIN ","freq":244,"lat":34.05285833333333,"lon":117.46576388888889,"navaid_class":"H MW ","magvar":-5,"range":25},{"airport_identifier":"ZSZS","id":"L","name":"PUTUOSHAN ","freq":228,"lat":29.94828888888889,"lon":122.36199444444445,"navaid_class":"H MW ","magvar":-4,"range":25},{"airport_identifier":"ZUUU","id":"Z","name":"SHUANGLIU ","freq":396,"lat":30.554680555555557,"lon":103.93588611111112,"navaid_class":"H LW ","magvar":-2,"range":15},{"airport_identifier":"ZUXC","id":"G","name":"QINGSHAN ","freq":304,"lat":27.958986111111113,"lon":102.18546388888889,"navaid_class":"H MW ","magvar":-1,"range":25},{"airport_identifier":"ZUXC","id":"GO","name":"QINGSHAN ","freq":627,"lat":27.919144444444445,"lon":102.18703055555555,"navaid_class":"H MW ","magvar":-1,"range":40},{"airport_identifier":"ZUXC","id":"U","name":"QINGSHAN ","freq":364,"lat":28.019075,"lon":102.18314722222222,"navaid_class":"H MW ","magvar":-1,"range":25},{"airport_identifier":"ZUXC","id":"UZ","name":"QINGSHAN ","freq":388,"lat":28.05559722222222,"lon":102.18170833333333,"navaid_class":"H MW ","magvar":-1,"range":40},{"airport_identifier":"ZWTN","id":"R","name":"KUNGANG ","freq":228,"lat":37.028841666666665,"lon":79.89653055555556,"navaid_class":"H MW ","magvar":2,"range":25},{"airport_identifier":"ZWWW","id":"O","name":"TIANSHAN ","freq":212,"lat":43.90005277777778,"lon":87.44074444444445,"navaid_class":"H MW ","magvar":3,"range":25},{"airport_identifier":"ZYCC","id":"D","name":"LONGJIA ","freq":216,"lat":43.98115277777778,"lon":125.66087222222222,"navaid_class":"HMMW ","magvar":-11,"range":25},{"airport_identifier":"ZYCC","id":"P","name":"LONGJIA ","freq":198,"lat":44.01185,"lon":125.71013055555555,"navaid_class":"HMMW ","magvar":-11,"range":25},{"airport_identifier":"ZYJM","id":"G","name":"JIAMUSI","freq":304,"lat":46.856458333333336,"lon":130.48645,"navaid_class":"H MW ","magvar":-11,"range":25},{"airport_identifier":"ZYJM","id":"R","name":"JIAMUSI","freq":200,"lat":46.82975,"lon":130.44316666666666,"navaid_class":"HMMW ","magvar":-11,"range":25},{"airport_identifier":"ZYYJ","id":"JA","name":"DEXIN ","freq":332,"lat":42.87135555555555,"lon":129.34102222222222,"navaid_class":"HOMW ","magvar":-10,"range":25},{"airport_identifier":"BIAR","id":"HJ","name":"HJALTEYRI ","freq":319,"lat":65.85166666666667,"lon":-18.19161111111111,"navaid_class":"H LW ","magvar":-10,"range":25},{"airport_identifier":"BIAR","id":"KN","name":"KRISTNES ","freq":364,"lat":65.58694444444444,"lon":-18.058833333333332,"navaid_class":"H LW ","magvar":-10,"range":25},{"airport_identifier":"BIAR","id":"OE","name":"ODDEYRI ","freq":415,"lat":65.68647222222222,"lon":-18.077638888888888,"navaid_class":"H LW ","magvar":-10,"range":25},{"airport_identifier":"BIAR","id":"TO","name":"TORFUR ","freq":324,"lat":65.50041666666667,"lon":-18.150944444444445,"navaid_class":"H LW ","magvar":-10,"range":25},{"airport_identifier":"BIEG","id":"MN","name":"MYNES ","freq":382,"lat":65.30227777777777,"lon":-14.380083333333333,"navaid_class":"H L  ","magvar":-9,"range":25},{"airport_identifier":"EDDC","id":"FS","name":"DRESDEN","freq":374,"lat":51.19301111111111,"lon":13.850030555555556,"navaid_class":"H LW ","magvar":3,"range":15},{"airport_identifier":"EDDK","id":"LJ","name":"COLOGNE-BONN","freq":365,"lat":50.927055555555555,"lon":7.062294444444444,"navaid_class":"HOLW ","magvar":3,"range":25},{"airport_identifier":"EDDM","id":"MNE","name":"MUNICH","freq":369,"lat":48.355402777777776,"lon":11.675977777777778,"navaid_class":"H MW ","magvar":3,"range":25},{"airport_identifier":"EDDM","id":"MNW","name":"MUNICH","freq":338,"lat":48.374266666666664,"lon":11.914141666666668,"navaid_class":"H MW ","magvar":3,"range":20},{"airport_identifier":"EDDM","id":"MSE","name":"MUNICH","freq":358,"lat":48.33340833333333,"lon":11.652883333333333,"navaid_class":"H MW ","magvar":3,"range":25},{"airport_identifier":"EDDM","id":"MSW","name":"MUNICH","freq":400,"lat":48.352377777777775,"lon":11.903766666666666,"navaid_class":"H MW ","magvar":3,"range":18},{"airport_identifier":"EDDP","id":"SKZ","name":"SCHKEUDITZ ","freq":357,"lat":51.41489722222222,"lon":12.271277777777778,"navaid_class":"H LW ","magvar":3,"range":15},{"airport_identifier":"EDDR","id":"SR","name":"ENSHEIM ","freq":360,"lat":49.21776944444444,"lon":7.219511111111111,"navaid_class":"H MW ","magvar":3,"range":10},{"airport_identifier":"EFMI","id":"ME","name":"MIKKELI","freq":336,"lat":61.696044444444446,"lon":27.15506388888889,"navaid_class":"H L  ","magvar":12,"range":25},{"airport_identifier":"EFMI","id":"SK","name":"MIKKELI","freq":374,"lat":61.67421111111111,"lon":27.26615,"navaid_class":"H L  ","magvar":12,"range":25},{"airport_identifier":"EFSI","id":"O","name":"SEINAJOKI","freq":408,"lat":62.70303611111111,"lon":22.80955277777778,"navaid_class":"H LW ","magvar":9,"range":10},{"airport_identifier":"EGGW","id":"LUT","name":"LUTON","freq":345,"lat":51.89463611111111,"lon":-0.2525055555555556,"navaid_class":"H L  ","magvar":1,"range":25},{"airport_identifier":"EGHQ","id":"NQY","name":"NEWQUAY","freq":347,"lat":50.442544444444444,"lon":-4.996675,"navaid_class":"H    ","magvar":0,"range":25},{"airport_identifier":"EGPD","id":"ATF","name":"DYCE ","freq":348,"lat":57.077511111111114,"lon":-2.1057027777777777,"navaid_class":"H L  ","magvar":-1,"range":25},{"airport_identifier":"EGPE","id":"IVR","name":"INVERNESS","freq":328,"lat":57.54150833333333,"lon":-4.045966666666667,"navaid_class":"H L  ","magvar":-2,"range":25},{"airport_identifier":"EGPF","id":"GLW","name":"GLASGOW","freq":331,"lat":55.869769444444444,"lon":-4.433627777777778,"navaid_class":"H L  ","magvar":-2,"range":25},{"airport_identifier":"EGPL","id":"BBA","name":"BENBECULA","freq":401,"lat":57.47617777777778,"lon":-7.369255555555555,"navaid_class":"H M  ","magvar":-2,"range":25},{"airport_identifier":"EGPN","id":"DND","name":"DUNDEE","freq":394,"lat":56.45506666666667,"lon":-3.114925,"navaid_class":"H L  ","magvar":-1,"range":25},{"airport_identifier":"EGPO","id":"SAY","name":"STORNOWAY","freq":431,"lat":58.21547777777778,"lon":-6.329080555555556,"navaid_class":"H M  ","magvar":-3,"range":25},{"airport_identifier":"EGTC","id":"CIT","name":"CRANFIELD","freq":850,"lat":52.130155555555554,"lon":-0.5568805555555555,"navaid_class":"H L  ","magvar":1,"range":25},{"airport_identifier":"EGTE","id":"EX","name":"EXETER","freq":337,"lat":50.75215277777778,"lon":-3.29505,"navaid_class":"H L  ","magvar":-1,"range":25},{"airport_identifier":"EINN","id":"OL","name":"SHANNON","freq":339,"lat":52.749,"lon":-8.823888888888888,"navaid_class":"H MW ","magvar":-4,"range":25},{"airport_identifier":"ENBV","id":"BV","name":"BERLEVAG","freq":399,"lat":70.87346944444444,"lon":29.05605277777778,"navaid_class":"H LW ","magvar":16,"range":15},{"airport_identifier":"ENMS","id":"MS","name":"MOSJOEN","freq":324,"lat":65.82767222222222,"lon":13.265497222222223,"navaid_class":"H LW ","magvar":6,"range":20},{"airport_identifier":"ENOV","id":"HN","name":"HOVDEN","freq":389,"lat":62.163111111111114,"lon":6.021713888888889,"navaid_class":"H LW ","magvar":2,"range":20},{"airport_identifier":"ENRO","id":"RS","name":"ROROS","freq":336,"lat":62.57977777777778,"lon":11.334941666666667,"navaid_class":"H LW ","magvar":4,"range":20},{"airport_identifier":"ENSD","id":"AD","name":"ANDA","freq":288,"lat":61.829566666666665,"lon":6.115938888888889,"navaid_class":"H LW ","magvar":2,"range":20},{"airport_identifier":"ENSH","id":"HL","name":"HELLE ","freq":258.5,"lat":68.23755277777778,"lon":14.66365,"navaid_class":"H MW ","magvar":7,"range":25},{"airport_identifier":"ESCF","id":"LCF","name":"MALMEN ","freq":285,"lat":58.32147222222222,"lon":15.47561111111111,"navaid_class":"H L  ","magvar":7,"range":15},{"airport_identifier":"ESCM","id":"UP","name":"UPPSALA","freq":366,"lat":59.9795,"lon":17.69611111111111,"navaid_class":"H M  ","magvar":8,"range":20},{"airport_identifier":"ESGT","id":"PG","name":"STALLBACKA ","freq":325,"lat":58.26325,"lon":12.4145,"navaid_class":"HOLW ","magvar":5,"range":15},{"airport_identifier":"ESKM","id":"NM","name":"MORA","freq":403,"lat":61.03122222222222,"lon":14.460527777777777,"navaid_class":"H M  ","magvar":6,"range":30},{"airport_identifier":"ESKM","id":"SM","name":"MORA","freq":377,"lat":60.88594444444445,"lon":14.562055555555556,"navaid_class":"H L  ","magvar":6,"range":15},{"airport_identifier":"ESKN","id":"PEO","name":"SKAVSTA ","freq":398,"lat":58.796083333333335,"lon":17.044194444444443,"navaid_class":"HOLW ","magvar":5,"range":25},{"airport_identifier":"ESMT","id":"LT","name":"HALMSTAD","freq":336,"lat":56.79702777777778,"lon":12.842277777777777,"navaid_class":"H MW ","magvar":5,"range":25},{"airport_identifier":"ESNG","id":"OG","name":"GALLIVARE","freq":325,"lat":67.10394444444445,"lon":20.951944444444443,"navaid_class":"H LW ","magvar":9,"range":15},{"airport_identifier":"ESNK","id":"KG","name":"KRAMFORS-SOLLEFTEA","freq":326,"lat":63.12288888888889,"lon":17.74213888888889,"navaid_class":"H L  ","magvar":7,"range":15},{"airport_identifier":"ESNL","id":"DD","name":"LYCKSELE","freq":333,"lat":64.59991666666667,"lon":18.625583333333335,"navaid_class":"H L  ","magvar":8,"range":25},{"airport_identifier":"ESNL","id":"OL","name":"LYCKSELE","freq":320,"lat":64.49816666666666,"lon":18.802444444444443,"navaid_class":"H L  ","magvar":8,"range":15},{"airport_identifier":"ESNO","id":"OD","name":"ORNSKOLDSVIK","freq":322,"lat":63.43702777777778,"lon":18.887194444444443,"navaid_class":"H MW ","magvar":8,"range":15},{"airport_identifier":"ESNO","id":"OO","name":"ORNSKOLDSVIK","freq":369,"lat":63.37047222222222,"lon":19.13238888888889,"navaid_class":"H MW ","magvar":8,"range":15},{"airport_identifier":"ESNQ","id":"OP","name":"KIRUNA","freq":360,"lat":67.88747222222223,"lon":20.45275,"navaid_class":"H LW ","magvar":10,"range":40},{"airport_identifier":"ESNU","id":"WU","name":"UMEA","freq":329,"lat":63.72383333333333,"lon":20.415694444444444,"navaid_class":"H L  ","magvar":8,"range":15},{"airport_identifier":"ESNV","id":"DK","name":"VILHELMINA","freq":328,"lat":64.59116666666667,"lon":16.72202777777778,"navaid_class":"H MW ","magvar":6,"range":15},{"airport_identifier":"ESNV","id":"NV","name":"VILHELMINA","freq":406,"lat":64.56013888888889,"lon":17.032305555555556,"navaid_class":"H MW ","magvar":6,"range":40},{"airport_identifier":"ESNX","id":"AN","name":"ARVIDSJAUR","freq":381,"lat":65.63391666666666,"lon":19.143027777777778,"navaid_class":"H M  ","magvar":8,"range":30},{"airport_identifier":"ESNX","id":"AS","name":"ARVIDSJAUR","freq":358,"lat":65.56216666666667,"lon":19.36761111111111,"navaid_class":"H L  ","magvar":8,"range":15},{"airport_identifier":"ESOK","id":"NKS","name":"KARLSTAD","freq":341,"lat":59.53205555555556,"lon":13.420027777777777,"navaid_class":"HOL  ","magvar":5,"range":25},{"airport_identifier":"ESOK","id":"SKS","name":"KARLSTAD","freq":330,"lat":59.37708333333333,"lon":13.273666666666667,"navaid_class":"HOL  ","magvar":5,"range":25},{"airport_identifier":"ESOW","id":"LE","name":"VAESTERAAS AB ","freq":333,"lat":59.66302777777778,"lon":16.663527777777777,"navaid_class":"H LW ","magvar":4,"range":15},{"airport_identifier":"ESOW","id":"RD","name":"VAESTERAAS AB ","freq":419,"lat":59.51755555555555,"lon":16.60452777777778,"navaid_class":"H L  ","magvar":6,"range":15},{"airport_identifier":"ESPA","id":"OL","name":"KALLAX ","freq":377,"lat":65.60230555555556,"lon":21.988694444444445,"navaid_class":"HOL  ","magvar":10,"range":25},{"airport_identifier":"ESSD","id":"BL","name":"BORLANGE","freq":421,"lat":60.47036111111111,"lon":15.408305555555556,"navaid_class":"H L  ","magvar":6,"range":15},{"airport_identifier":"ESSD","id":"LM","name":"BORLANGE","freq":397,"lat":60.389916666666664,"lon":15.58475,"navaid_class":"H L  ","magvar":6,"range":15},{"airport_identifier":"ESST","id":"TH","name":"TORSBY","freq":402,"lat":60.262972222222224,"lon":12.900416666666667,"navaid_class":"H L  ","magvar":6,"range":15},{"airport_identifier":"ESST","id":"TY","name":"TORSBY","freq":384,"lat":60.09861111111111,"lon":13.037972222222223,"navaid_class":"H L  ","magvar":6,"range":25},{"airport_identifier":"ESUP","id":"PAJ","name":"PAJALA","freq":390,"lat":67.26772222222222,"lon":22.94275,"navaid_class":"H L  ","magvar":13,"range":15},{"airport_identifier":"ESUT","id":"NUT","name":"HEMAVAN","freq":325,"lat":65.83605555555556,"lon":15.045555555555556,"navaid_class":"H M  ","magvar":8,"range":25},{"airport_identifier":"ESUT","id":"SUT","name":"HEMAVAN","freq":342,"lat":65.71097222222222,"lon":15.201444444444444,"navaid_class":"H M  ","magvar":8,"range":25},{"airport_identifier":"LDZA","id":"SK","name":"S.KRALJEVEC ","freq":350,"lat":45.805822222222226,"lon":16.164661111111112,"navaid_class":"H LW ","magvar":4,"range":25},{"airport_identifier":"LDZA","id":"VG","name":"VELIKA GORICA ","freq":325,"lat":45.72536111111111,"lon":16.042066666666667,"navaid_class":"H LW ","magvar":4,"range":25},{"airport_identifier":"LDZD","id":"BO","name":"BOKANJAC","freq":385,"lat":44.169247222222225,"lon":15.264002777777778,"navaid_class":"H LW ","magvar":4,"range":25},{"airport_identifier":"LEBB","id":"B","name":"BILBAO","freq":395,"lat":43.37283333333333,"lon":-3.0348611111111112,"navaid_class":"H LW ","magvar":1,"range":25},