[{"icao":"00CN","name":"KITCHEN CREEK HELIBASE","city":"PINE VALLEY","lat":32.727761111111114,"lon":-116.459725,"elev":3350,"type":"P","ifr":false,"mag_var":11,"pad_id":"H1","pad_dim":"110110","area":"USA","country":"UNITED STATES","continent":"NORTH AMERICA"},{"icao":"00CN","name":"KITCHEN CREEK HELIBASE","city":"PINE VALLEY","lat":32.72698611111111,"lon":-116.45975833333334,"elev":3350,"type":"P","ifr":false,"mag_var":11,"pad_id":"H2","pad_dim":"110110","area":"USA","country":"UNITED STATES","continent":"NORTH AMERICA"},{"icao":"00GE","name":"CAFFREY","city":null,"lat":33.888019444444446,"lon":-84.73694722222223,"elev":957,"type":"P","ifr":false,"mag_var":-5.3,"pad_id":"H1","pad_dim":"125095","area":"USA","country":"UNITED STATES","continent":"NORTH AMERICA"},{"icao":"00IN","name":"ST MARY MEDICAL CENTER","city":null,"lat":41.51138888888889,"lon":-87.26055555555556,"elev":634,"type":"P","ifr":false,"mag_var":-2,"pad_id":"H1","pad_dim":"040040","area":"USA","country":"UNITED STATES","continent":"NORTH AMERICA"},{"icao":"00LA","name":"SHELL CHEMICAL EAST SITE","city":null,"lat":30.191944444444445,"lon":-90.9625,"elev":15,"type":"P","ifr":false,"mag_var":-0.9,"pad_id":"H1","pad_dim":"066066","area":"USA","country":"UNITED STATES","continent":"NORTH AMERICA"},{"icao":"00MI","name":"THE WALDRON WAY","city":null,"lat":43.01583333333333,"lon":-83.51843333333333,"elev":815,"type":"P","ifr":false,"mag_var":-7.3,"pad_id":"H1","pad_dim":"020020","area":"USA","country":"UNITED STATES","continent":"NORTH AMERICA"},{"icao":"00MT","name":"LIVINGSTON HEALTHCARE","city":null,"lat":45.67500555555556,"lon":-110.52533055555556,"elev":4465,"type":"P","ifr":false,"mag_var":11,"pad_id":"H1","pad_dim":"040040","area":"USA","country":"UNITED STATES","continent":"NORTH AMERICA"},{"icao":"00NJ","name":"COLGATE-PISCATAWAY","city":null,"lat":40.52093611111111,"lon":-74.47459722222223,"elev":78,"type":"P","ifr":false,"mag_var":-12,"pad_id":"H1","pad_dim":"050050","area":"USA","country":"UNITED STATES","continent":"NORTH AMERICA"},{"icao":"00NR","name":"RODANTHE DARE CO","city":"RODANTHE","lat":35.59475,"lon":-75.47005555555556,"elev":8,"type":"P","ifr":false,"mag_var":-11,"pad_id":"H1","pad_dim":"050050","area":"USA","country":"UNITED STATES","continent":"NORTH AMERICA"},{"icao":"00OH","name":"GOOD SAMARITAN MEDICAL CENTER","city":null,"lat":39.20305555555556,"lon":-84.67055833333333,"elev":668,"type":"P","ifr":false,"mag_var":-6,"pad_id":"H1","pad_dim":"050050","area":"USA","country":"UNITED STATES","continent":"NORTH AMERICA"},{"icao":"00OI","name":"MIAMI VALLEY HOSPITAL","city":"DAYTON","lat":39.74491944444444,"lon":-84.18726111111111,"elev":847,"type":"P","ifr":true,"mag_var":-6,"pad_id":"H1","pad_dim":"042042","area":"USA","country":"UNITED STATES","continent":"NORTH AMERICA"},{"icao":"00TA","name":"SABINE PILOTS","city":"PORT ARTHUR","lat":29.935694444444444,"lon":-93.9855,"elev":17,"type":"P","ifr":false,"mag_var":1,"pad_id":"H1","pad_dim":"107107","area":"USA","country":"UNITED STATES","continent":"NORTH AMERICA"},{"icao":"00WY","name":"MOUNTAIN VIEW RGNL HOSPITAL","city":null,"lat":42.84036111111111,"lon":-106.22444444444444,"elev":5209,"type":"P","ifr":false,"mag_var":0,"pad_id":"H1","pad_dim":"040040","area":"USA","country":"UNITED STATES","continent":"NORTH AMERICA"},{"icao":"00XS","name":"SWEDEN RANCH","city":"BENAVIDES","lat":27.57575277777778,"lon":-98.60071666666667,"elev":554,"type":"P","ifr":true,"mag_var":4,"pad_id":"H1","pad_dim":"048048","area":"USA","country":"UNITED STATES","continent":"NORTH AMERICA"},{"icao":"01AK","name":"PROVIDENCE SEWARD MEDICAL CENT","city":null,"lat":60.10579444444444,"lon":-149.44625555555555,"elev":120,"type":"P","ifr":false,"mag_var":23,"pad_id":"H1","pad_dim":"040040","area":"CAN","country":"UNITED STATES / ALASKA","continent":"NORTH AMERICA"},{"icao":"01AZ","name":"YAT","city":null,"lat":34.60805555555555,"lon":-111.86472222222223,"elev":3300,"type":"P","ifr":false,"mag_var":12,"pad_id":"H1","pad_dim":"210150","area":"USA","country":"UNITED STATES","continent":"NORTH AMERICA"},{"icao":"01CA","name":"LUGO SUBSTATION","city":"HESPERIA","lat":34.36823888888889,"lon":-117.37007222222222,"elev":3733,"type":"P","ifr":false,"mag_var":14,"pad_id":"H1","pad_dim":"020020","area":"USA","country":"UNITED STATES","continent":"NORTH AMERICA"},{"icao":"01CO","name":"ST VINCENT GENERAL HOSPITAL","city":null,"lat":39.24496111111111,"lon":-106.30275833333333,"elev":10175,"type":"P","ifr":false,"mag_var":12,"pad_id":"H1","pad_dim":"125040","area":"USA","country":"UNITED STATES","continent":"NORTH AMERICA"},{"icao":"01CT","name":"BERLIN FAIRGROUNDS","city":null,"lat":41.62663055555556,"lon":-72.72716666666666,"elev":47,"type":"P","ifr":false,"mag_var":-14,"pad_id":"H1","pad_dim":"070070","area":"USA","country":"UNITED STATES","continent":"NORTH AMERICA"},{"icao":"01FD","name":"ADVENT HEALTH ALTAMONTE SPRING","city":"ALTAMONTE SPRINGS","lat":28.66663888888889,"lon":-81.3697,"elev":86,"type":"P","ifr":false,"mag_var":-3,"pad_id":"H1","pad_dim":"110110","area":"USA","country":"UNITED STATES","continent":"NORTH AMERICA"},{"icao":"01GA","name":"MEDICAL CENTER","city":null,"lat":32.481202777777774,"lon":-84.98031666666667,"elev":319,"type":"P","ifr":false,"mag_var":-1,"pad_id":"H1","pad_dim":"065065","area":"USA","country":"UNITED STATES","continent":"NORTH AMERICA"},{"icao":"01IL","name":"HOOPESTON COMMUNITY MEML HOSPI","city":null,"lat":40.45789722222222,"lon":-87.65811111111111,"elev":583,"type":"P","ifr":false,"mag_var":-1,"pad_id":"H1","pad_dim":"040040","area":"USA","country":"UNITED STATES","continent":"NORTH AMERICA"},{"icao":"01IN","name":"COMMUNITY HOSPITAL","city":null,"lat":40.13315277777778,"lon":-85.69442222222222,"elev":890,"type":"P","ifr":false,"mag_var":-3,"pad_id":"H1","pad_dim":"045045","area":"USA","country":"UNITED STATES","continent":"NORTH AMERICA"},{"icao":"01KY","name":"LOURDES HOSPITAL","city":null,"lat":37.05166666666667,"lon":-88.64694444444444,"elev":419,"type":"P","ifr":false,"mag_var":0,"pad_id":"H1","pad_dim":"040040","area":"USA","country":"UNITED STATES","continent":"NORTH AMERICA"},{"icao":"01MA","name":"COMPAQ ANDOVER","city":null,"lat":42.62509166666667,"lon":-71.18006944444444,"elev":140,"type":"P","ifr":false,"mag_var":-16,"pad_id":"H1","pad_dim":"032032","area":"USA","country":"UNITED STATES","continent":"NORTH AMERICA"},{"icao":"01MI","name":"FLOW THROUGH TRML","city":null,"lat":43.04940833333333,"lon":-83.6759611111111,"elev":736,"type":"P","ifr":false,"mag_var":-7,"pad_id":"H1","pad_dim":"050050","area":"USA","country":"UNITED STATES","continent":"NORTH AMERICA"},{"icao":"01MU","name":"NWMC/HOUGHTON","city":null,"lat":32.19674722222222,"lon":-110.77514166666667,"elev":2873,"type":"P","ifr":false,"mag_var":9.1,"pad_id":"H1","pad_dim":"054054","area":"USA","country":"UNITED STATES","continent":"NORTH AMERICA"},{"icao":"01NR","name":"MCGEE 01","city":null,"lat":34.196266666666666,"lon":-77.91989444444444,"elev":40,"type":"P","ifr":false,"mag_var":-9.6,"pad_id":"H1","pad_dim":"050050","area":"USA","country":"UNITED STATES","continent":"NORTH AMERICA"},{"icao":"01NY","name":"NUVANCE HEALTH VASSAR BROTHERS","city":"POUGHKEEPSIE","lat":41.69178055555555,"lon":-73.93589444444444,"elev":245,"type":"P","ifr":false,"mag_var":-13,"pad_id":"H1","pad_dim":"055055","area":"USA","country":"UNITED STATES","continent":"NORTH AMERICA"},{"icao":"01OH","name":"ATRIUM MEDICAL CENTER","city":"MIDDLETOWN","lat":39.49747222222222,"lon":-84.31391666666667,"elev":775,"type":"P","ifr":true,"mag_var":-6,"pad_id":"H1","pad_dim":"100100","area":"USA","country":"UNITED STATES","continent":"NORTH AMERICA"},{"icao":"01OI","name":"GALION COMMUNITY HOSPITAL","city":null,"lat":40.730269444444446,"lon":-82.80200277777777,"elev":1140,"type":"P","ifr":false,"mag_var":-6,"pad_id":"H1","pad_dim":"030030","area":"USA","country":"UNITED STATES","continent":"NORTH AMERICA"},{"icao":"01OR","name":"GRANDE RONDE HOSPITAL EMS HELI","city":"LA GRANDE","lat":45.31970555555556,"lon":-118.10541944444445,"elev":2895,"type":"P","ifr":false,"mag_var":14,"pad_id":"H1","pad_dim":"046049","area":"USA","country":"UNITED STATES","continent":"NORTH AMERICA"},{"icao":"01TT","name":"CLUTE FIRE & EMS STATION #1","city":"CLUTE","lat":29.01208611111111,"lon":-95.402125,"elev":18,"type":"P","ifr":true,"mag_var":2,"pad_id":"H1","pad_dim":"054054","area":"USA","country":"UNITED STATES","continent":"NORTH AMERICA"},{"icao":"01WA","name":"WILLAPA HARBOR","city":"SOUTH BEND","lat":46.663155555555555,"lon":-123.81210555555556,"elev":154,"type":"P","ifr":true,"mag_var":16,"pad_id":"H1","pad_dim":"040040","area":"USA","country":"UNITED STATES","continent":"NORTH AMERICA"},{"icao":"01WN","name":"WHIDBEY GENERAL HOSPITAL","city":"COUPEVILLE","lat":48.213166666666666,"lon":-122.68566666666666,"elev":151,"type":"P","ifr":true,"mag_var":15,"pad_id":"H1","pad_dim":"040040","area":"USA","country":"UNITED STATES","continent":"NORTH AMERICA"},{"icao":"01WT","name":"ODYSSEY","city":null,"lat":47.51817777777778,"lon":-122.21090833333334,"elev":20,"type":"P","ifr":false,"mag_var":15,"pad_id":"H1","pad_dim":"028028","area":"USA","country":"UNITED STATES","continent":"NORTH AMERICA"},{"icao":"01XA","name":"SETON MEDICAL CENTER HAYS","city":"KYLE","lat":30.007230555555555,"lon":-97.85325,"elev":732,"type":"P","ifr":true,"mag_var":4,"pad_id":"H1","pad_dim":"050050","area":"USA","country":"UNITED STATES","continent":"NORTH AMERICA"},{"icao":"02AZ","name":"SILVER BELL AHP","city":null,"lat":32.51986388888889,"lon":-111.33459722222223,"elev":1869,"type":"M","ifr":false,"mag_var":10,"pad_id":"H1","pad_dim":"100100","area":"USA","country":"UNITED STATES","continent":"NORTH AMERICA"},{"icao":"02AZ","name":"SILVER BELL AHP","city":null,"lat":32.51986388888889,"lon":-111.33459722222223,"elev":1869,"type":"M","ifr":false,"mag_var":10,"pad_id":"H2","pad_dim":"100100","area":"USA","country":"UNITED STATES","continent":"NORTH AMERICA"},{"icao":"02AZ","name":"SILVER BELL AHP","city":null,"lat":32.51986388888889,"lon":-111.33459722222223,"elev":1869,"type":"M","ifr":false,"mag_var":10,"pad_id":"H3","pad_dim":"100100","area":"USA","country":"UNITED STATES","continent":"NORTH AMERICA"},{"icao":"02AZ","name":"SILVER BELL AHP","city":null,"lat":32.51986388888889,"lon":-111.33459722222223,"elev":1869,"type":"M","ifr":false,"mag_var":10,"pad_id":"H4","pad_dim":"165165","area":"USA","country":"UNITED STATES","continent":"NORTH AMERICA"},{"icao":"02CA","name":"BETA PLATFORM ELLEN","city":"HUNTINGTON BEACH","lat":33.58269444444444,"lon":-118.129,"elev":122,"type":"P","ifr":false,"mag_var":14,"pad_id":"H1","pad_dim":"055055","area":"USA","country":"UNITED STATES","continent":"NORTH AMERICA"},{"icao":"02FL","name":"BAYCARE SOUTH FLORIDA BAPTIST","city":"PLANT CITY","lat":28.04583611111111,"lon":-82.10263888888889,"elev":119,"type":"P","ifr":false,"mag_var":-6,"pad_id":"H1","pad_dim":"040040","area":"USA","country":"UNITED STATES","continent":"NORTH AMERICA"},{"icao":"02HI","name":"K3 HELIPAD","city":null,"lat":21.35841388888889,"lon":-157.9479388888889,"elev":9,"type":"M","ifr":false,"mag_var":10,"pad_id":"H1","pad_dim":"100100","area":"PAC","country":"UNITED STATES / HAWAII","continent":"PACIFIC"},{"icao":"02IA","name":"BOONE COUNTY HOSPITAL","city":null,"lat":42.05628333333333,"lon":-93.876475,"elev":1160,"type":"P","ifr":false,"mag_var":3,"pad_id":"H1","pad_dim":"050050","area":"USA","country":"UNITED STATES","continent":"NORTH AMERICA"},{"icao":"02IS","name":"ADVOCATE CONDELL MEDICAL CENTE","city":null,"lat":42.27463888888889,"lon":-87.95727777777778,"elev":762,"type":"P","ifr":false,"mag_var":-1,"pad_id":"H1","pad_dim":"040040","area":"USA","country":"UNITED STATES","continent":"NORTH AMERICA"},{"icao":"02KT","name":"ST CLAIRE HEALTHCARE","city":null,"lat":38.181441666666665,"lon":-83.44331944444444,"elev":781,"type":"P","ifr":false,"mag_var":-6.7,"pad_id":"H1","pad_dim":"040040","area":"USA","country":"UNITED STATES","continent":"NORTH AMERICA"},{"icao":"02KY","name":"BOONE NTL GUARD","city":null,"lat":38.19444444444444,"lon":-84.91111111111111,"elev":760,"type":"P","ifr":false,"mag_var":-3,"pad_id":"H1","pad_dim":"100100","area":"USA","country":"UNITED STATES","continent":"NORTH AMERICA"},{"icao":"02LA","name":"LA STATE POLICE TROOP G","city":null,"lat":32.531261111111114,"lon":-93.66017777777778,"elev":168,"type":"P","ifr":false,"mag_var":5,"pad_id":"H1","pad_dim":"020020","area":"USA","country":"UNITED STATES","continent":"NORTH AMERICA"},{"icao":"02LS","name":"WINDY HILL","city":null,"lat":30.14827777777778,"lon":-91.9197138888889,"elev":31,"type":"P","ifr":false,"mag_var":2,"pad_id":"H1","pad_dim":"024024","area":"USA","country":"UNITED STATES","continent":"NORTH AMERICA"},{"icao":"02MA","name":"CUTTYHUNK","city":null,"lat":41.419575,"lon":-70.92692222222222,"elev":9,"type":"P","ifr":false,"mag_var":-15,"pad_id":"H1","pad_dim":"020020","area":"USA","country":"UNITED STATES","continent":"NORTH AMERICA"},{"icao":"02NJ","name":"MERCK KENILWORTH CAMPUS","city":null,"lat":40.674622222222226,"lon":-74.27818611111111,"elev":166,"type":"P","ifr":false,"mag_var":-12.4,"pad_id":"H1","pad_dim":"080080","area":"USA","country":"UNITED STATES","continent":"NORTH AMERICA"},{"icao":"02NR","name":"MCGEE 02","city":null,"lat":35.59201111111111,"lon":-77.37743888888889,"elev":25,"type":"P","ifr":false,"mag_var":-10,"pad_id":"H1","pad_dim":"050050","area":"USA","country":"UNITED STATES","continent":"NORTH AMERICA"},{"icao":"02NY","name":"HANSEN","city":null,"lat":43.132130555555555,"lon":-75.655225,"elev":434,"type":"P","ifr":false,"mag_var":-13,"pad_id":"H1","pad_dim":"025025","area":"USA","country":"UNITED STATES","continent":"NORTH AMERICA"},{"icao":"02OL","name":"WAR VETERANS COLONY","city":null,"lat":34.811413888888886,"lon":-95.30771111111112,"elev":807,"type":"P","ifr":false,"mag_var":1.7,"pad_id":"H1","pad_dim":"040040","area":"USA","country":"UNITED STATES","continent":"NORTH AMERICA"},{"icao":"02PN","name":"PECO BERWYN","city":null,"lat":40.059019444444445,"lon":-75.46138888888889,"elev":278,"type":"P","ifr":false,"mag_var":-11,"pad_id":"H1","pad_dim":"040040","area":"USA","country":"UNITED STATES","continent":"NORTH AMERICA"},{"icao":"02RI","name":"MIRAMAR RESIDENCE","city":null,"lat":41.457930555555556,"lon":-71.30488611111112,"elev":36,"type":"P","ifr":false,"mag_var":-13.8,"pad_id":"H1","pad_dim":"100100","area":"USA","country":"UNITED STATES","continent":"NORTH AMERICA"},{"icao":"02TX","name":"NACOGDOCHES MEML HOSPITAL","city":"NACOGDOCHES","lat":31.61272222222222,"lon":-94.64758333333333,"elev":309,"type":"P","ifr":false,"mag_var":1,"pad_id":"H1","pad_dim":"040040","area":"USA","country":"UNITED STATES","continent":"NORTH AMERICA"},{"icao":"03AL","name":"HIGHLAND MEDICAL CENTER","city":"SCOTTSBORO","lat":34.662597222222225,"lon":-86.04676666666667,"elev":618,"type":"P","ifr":false,"mag_var":-4,"pad_id":"H1","pad_dim":"050","area":"USA","country":"UNITED STATES","continent":"NORTH AMERICA"},{"icao":"03AN","name":"ALASKA GLACIER LODGE","city":null,"lat":61.434444444444445,"lon":-148.76572222222222,"elev":342,"type":"P","ifr":false,"mag_var":14.8,"pad_id":"H1","pad_dim":"014014","area":"CAN","country":"UNITED STATES / ALASKA","continent":"NORTH AMERICA"},{"icao":"03AR","name":"HSCMH","city":null,"lat":34.358,"lon":-92.78606388888889,"elev":350,"type":"P","ifr":false,"mag_var":4,"pad_id":"H1","pad_dim":"117117","area":"USA","country":"UNITED STATES","continent":"NORTH AMERICA"},{"icao":"03CA","name":"GROSSMONT HOSPITAL","city":"LA MESA","lat":32.77945277777778,"lon":-117.00694166666666,"elev":634,"type":"P","ifr":false,"mag_var":13,"pad_id":"H1","pad_dim":"040040","area":"USA","country":"UNITED STATES","continent":"NORTH AMERICA"},{"icao":"03GE","name":"NGMC LUMPKIN HOSPITAL","city":null,"lat":34.45961666666667,"lon":-83.97121944444444,"elev":1178,"type":"P","ifr":false,"mag_var":-5.9,"pad_id":"H1","pad_dim":"041041","area":"USA","country":"UNITED STATES","continent":"NORTH AMERICA"},{"icao":"03IS","name":"OSF ST ANTHONY'S HEALTH CENTER","city":null,"lat":38.907666666666664,"lon":-90.17445555555555,"elev":580,"type":"P","ifr":false,"mag_var":2,"pad_id":"H1","pad_dim":"040040","area":"USA","country":"UNITED STATES","continent":"NORTH AMERICA"},{"icao":"03LA","name":"DAMIEN","city":null,"lat":30.19964166666667,"lon":-91.12788055555555,"elev":25,"type":"P","ifr":false,"mag_var":4,"pad_id":"H1","pad_dim":"060060","area":"USA","country":"UNITED STATES","continent":"NORTH AMERICA"},{"icao":"03LS","name":"FMC NR 1","city":null,"lat":32.15903888888889,"lon":-91.70804166666667,"elev":79,"type":"P","ifr":false,"mag_var":2,"pad_id":"H1","pad_dim":"040040","area":"USA","country":"UNITED STATES","continent":"NORTH AMERICA"},{"icao":"03MD","name":"UPPER CHESAPEAKE MEDICAL CENTE","city":"BEL AIR","lat":39.51844722222222,"lon":-76.34597222222222,"elev":302,"type":"P","ifr":false,"mag_var":-11,"pad_id":"H1","pad_dim":"050050","area":"USA","country":"UNITED STATES","continent":"NORTH AMERICA"},{"icao":"03MI","name":"HAROLD MILLER","city":null,"lat":43.55885833333333,"lon":-83.86225555555555,"elev":585,"type":"P","ifr":false,"mag_var":-5,"pad_id":"H1","pad_dim":"020020","area":"USA","country":"UNITED STATES","continent":"NORTH AMERICA"},{"icao":"03MT","name":"BILLINGS FLYING SERVICE","city":null,"lat":45.80905833333333,"lon":-108.56998333333334,"elev":3671,"type":"P","ifr":false,"mag_var":10.1,"pad_id":"H1","pad_dim":"200300","area":"USA","country":"UNITED STATES","continent":"NORTH AMERICA"},{"icao":"03NH","name":"LORDEN","city":null,"lat":42.816113888888886,"lon":-71.62416666666667,"elev":420,"type":"P","ifr":false,"mag_var":-16,"pad_id":"H1","pad_dim":"012080","area":"USA","country":"UNITED STATES","continent":"NORTH AMERICA"},{"icao":"03NJ","name":"ST JOSEPH'S HOSPITAL","city":null,"lat":40.903505555555554,"lon":-74.16547222222222,"elev":206,"type":"P","ifr":false,"mag_var":-12.5,"pad_id":"H1","pad_dim":"060060","area":"USA","country":"UNITED STATES","continent":"NORTH AMERICA"},{"icao":"03NM","name":"MINER'S COLFAX MEDICAL CENTER","city":null,"lat":36.862383333333334,"lon":-104.44288333333333,"elev":6600,"type":"P","ifr":false,"mag_var":7.1,"pad_id":"H1","pad_dim":"040040","area":"USA","country":"UNITED STATES","continent":"NORTH AMERICA"},{"icao":"03NR","name":"JOHNSTON MEDICAL CENTER","city":"CLAYTON","lat":35.630269444444444,"lon":-78.50391944444445,"elev":320,"type":"P","ifr":false,"mag_var":-9,"pad_id":"H1","pad_dim":"040040","area":"USA","country":"UNITED STATES","continent":"NORTH AMERICA"},{"icao":"03OI","name":"CLEVELAND CLINIC, MARYMOUNT HO","city":null,"lat":41.42030833333333,"lon":-81.59954444444445,"elev":890,"type":"P","ifr":false,"mag_var":-7,"pad_id":"H1","pad_dim":"060060","area":"USA","country":"UNITED STATES","continent":"NORTH AMERICA"},{"icao":"03PA","name":"COLLEGEVILLE","city":null,"lat":40.16288333333333,"lon":-75.46574166666667,"elev":197,"type":"P","ifr":false,"mag_var":-12,"pad_id":"H1","pad_dim":"130080","area":"USA","country":"UNITED STATES","continent":"NORTH AMERICA"},{"icao":"03PN","name":"M P METALS","city":null,"lat":41.06686111111111,"lon":-76.18080555555555,"elev":495,"type":"P","ifr":false,"mag_var":-11.5,"pad_id":"H1","pad_dim":"100100","area":"USA","country":"UNITED STATES","continent":"NORTH AMERICA"},{"icao":"03SC","name":"SEACOAST MEDICAL CENTER","city":null,"lat":33.86655277777778,"lon":-78.66423055555556,"elev":73,"type":"P","ifr":false,"mag_var":-8,"pad_id":"H1","pad_dim":"040040","area":"USA","country":"UNITED STATES","continent":"NORTH AMERICA"},{"icao":"03TA","name":"MIDLAND MEML HOSPITAL","city":"MIDLAND","lat":31.99675,"lon":-102.10094444444445,"elev":2814,"type":"P","ifr":false,"mag_var":6,"pad_id":"H1","pad_dim":"040040","area":"USA","country":"UNITED STATES","continent":"NORTH AMERICA"},{"icao":"03TN","name":"EAGLES LANDING","city":null,"lat":35.922975,"lon":-83.57933333333334,"elev":1000,"type":"P","ifr":false,"mag_var":-5,"pad_id":"H1","pad_dim":"020020","area":"USA","country":"UNITED STATES","continent":"NORTH AMERICA"},{"icao":"03TS","name":"SHANNON MEDICAL CENTER","city":"SAN ANGELO","lat":31.465891666666668,"lon":-100.43399166666667,"elev":1825,"type":"P","ifr":false,"mag_var":8,"pad_id":"H1","pad_dim":"090090","area":"USA","country":"UNITED STATES","continent":"NORTH AMERICA"},{"icao":"03TS","name":"SHANNON MEDICAL CENTER","city":"SAN ANGELO","lat":31.465725,"lon":-100.43391666666666,"elev":1825,"type":"P","ifr":false,"mag_var":8,"pad_id":"H2","pad_dim":"040040","area":"USA","country":"UNITED STATES","continent":"NORTH AMERICA"},{"icao":"03TX","name":"M D K","city":"PEARLAND","lat":29.580897222222223,"lon":-95.30635555555556,"elev":47,"type":"P","ifr":false,"mag_var":6,"pad_id":"H1","pad_dim":"100100","area":"USA","country":"UNITED STATES","continent":"NORTH AMERICA"},{"icao":"03VA","name":"SPOTSYLVANIA RGNL MEDICAL CENT","city":null,"lat":38.21661666666667,"lon":-77.49555,"elev":237,"type":"P","ifr":false,"mag_var":-10.4,"pad_id":"H1","pad_dim":"054054","area":"USA","country":"UNITED STATES","continent":"NORTH AMERICA"},{"icao":"03WI","name":"AURORA MEDICAL CENTER GRAFTON","city":"GRAFTON","lat":43.32478888888889,"lon":-87.92828333333334,"elev":714,"type":"P","ifr":true,"mag_var":-4,"pad_id":"H1","pad_dim":"050050","area":"USA","country":"UNITED STATES","continent":"NORTH AMERICA"},{"icao":"03WT","name":"LOPEZ MEDICAL CLINIC","city":"LOPEZ ISLAND","lat":48.52493333333334,"lon":-122.91238888888888,"elev":38,"type":"P","ifr":false,"mag_var":16,"pad_id":"H1","pad_dim":"050050","area":"USA","country":"UNITED STATES","continent":"NORTH AMERICA"},{"icao":"03XA","name":"DEL SOL MEDICAL CENTER","city":"EL PASO","lat":31.757416666666668,"lon":-106.34697222222222,"elev":3881,"type":"P","ifr":false,"mag_var":7,"pad_id":"H1","pad_dim":"054054","area":"USA","country":"UNITED STATES","continent":"NORTH AMERICA"},{"icao":"04AL","name":"ANNISTON ARMY DEPOT HELIPAD","city":null,"lat":33.62638888888889,"lon":-85.96722222222222,"elev":686,"type":"M","ifr":false,"mag_var":-2,"pad_id":"H1","pad_dim":"060060","area":"USA","country":"UNITED STATES","continent":"NORTH AMERICA"},{"icao":"04AR","name":"SALINE MEML HOSPITAL","city":null,"lat":34.574244444444446,"lon":-92.58603055555555,"elev":430,"type":"P","ifr":false,"mag_var":4,"pad_id":"H1","pad_dim":"040040","area":"USA","country":"UNITED STATES","continent":"NORTH AMERICA"},{"icao":"04FD","name":"TAMPA GENERAL HOSPITAL BRANDON","city":"BRANDON","lat":27.929372222222224,"lon":-82.33698333333334,"elev":37,"type":"P","ifr":false,"mag_var":-6,"pad_id":"H1","pad_dim":"040040","area":"USA","country":"UNITED STATES","continent":"NORTH AMERICA"},{"icao":"04GA","name":"VERGE TOWERS","city":null,"lat":33.83236111111111,"lon":-83.56232777777778,"elev":753,"type":"P","ifr":false,"mag_var":-6.1,"pad_id":"H1","pad_dim":"039039","area":"USA","country":"UNITED STATES","continent":"NORTH AMERICA"},{"icao":"04LA","name":"ST JAMES","city":null,"lat":30.051019444444446,"lon":-90.70384722222222,"elev":10,"type":"P","ifr":false,"mag_var":-1.1,"pad_id":"H1","pad_dim":"040040","area":"USA","country":"UNITED STATES","continent":"NORTH AMERICA"},{"icao":"04LS","name":"LSP GOHSEP","city":null,"lat":30.446033333333332,"lon":-91.10515,"elev":48,"type":"P","ifr":false,"mag_var":-0.8,"pad_id":"H1","pad_dim":"060060","area":"USA","country":"UNITED STATES","continent":"NORTH AMERICA"},{"icao":"04MD","name":"CHESAPEAKE CITY","city":null,"lat":39.51817222222222,"lon":-75.82107777777777,"elev":40,"type":"P","ifr":false,"mag_var":-12,"pad_id":"H1","pad_dim":"050050","area":"USA","country":"UNITED STATES","continent":"NORTH AMERICA"},{"icao":"04MO","name":"KC STADIUM","city":null,"lat":39.043,"lon":-94.486,"elev":777,"type":"P","ifr":false,"mag_var":1.1,"pad_id":"H1","pad_dim":"040040","area":"USA","country":"UNITED STATES","continent":"NORTH AMERICA"},{"icao":"04NC","name":"WAKEMED CARY HOSPITAL","city":"CARY","lat":35.739263888888885,"lon":-78.78278333333333,"elev":445,"type":"P","ifr":false,"mag_var":-7,"pad_id":"H1","pad_dim":"091035","area":"USA","country":"UNITED STATES","continent":"NORTH AMERICA"},{"icao":"04NR","name":"MCGEE 04","city":null,"lat":34.77568055555555,"lon":-77.39221944444445,"elev":40,"type":"P","ifr":false,"mag_var":-9.9,"pad_id":"H1","pad_dim":"078036","area":"USA","country":"UNITED STATES","continent":"NORTH AMERICA"},{"icao":"04OG","name":"TEUFEL","city":null,"lat":45.53103055555555,"lon":-123.08599444444444,"elev":185,"type":"P","ifr":false,"mag_var":14.7,"pad_id":"H1","pad_dim":"050100","area":"USA","country":"UNITED STATES","continent":"NORTH AMERICA"},{"icao":"04OH","name":"CLEVELAND CLINIC, BRUNSWICK FA","city":null,"lat":41.23775833333333,"lon":-81.81549722222222,"elev":1110,"type":"P","ifr":false,"mag_var":-8.2,"pad_id":"H1","pad_dim":"053053","area":"USA","country":"UNITED STATES","continent":"NORTH AMERICA"},{"icao":"04OK","name":"STILLWATER MEDICAL CENTER","city":"STILLWATER","lat":36.11493333333333,"lon":-97.07592222222222,"elev":984,"type":"P","ifr":false,"mag_var":6,"pad_id":"H1","pad_dim":"040040","area":"USA","country":"UNITED STATES","continent":"NORTH AMERICA"},{"icao":"04SC","name":"EMERGENCY HELIPAD","city":null,"lat":34.84218888888889,"lon":-82.60712222222222,"elev":994,"type":"P","ifr":false,"mag_var":-5,"pad_id":"H1","pad_dim":"050050","area":"USA","country":"UNITED STATES","continent":"NORTH AMERICA"},{"icao":"04SD","name":"CHEYENNE RIVER HEALTH CENTER","city":null,"lat":44.993125,"lon":-101.24301111111112,"elev":2437,"type":"P","ifr":false,"mag_var":5.8,"pad_id":"H1","pad_dim":"046046","area":"USA","country":"UNITED STATES","continent":"NORTH AMERICA"},{"icao":"04TA","name":"CAPITOL NATL BANK BUILDING","city":"AUSTIN","lat":30.271041666666665,"lon":-97.74472777777778,"elev":540,"type":"P","ifr":false,"mag_var":7,"pad_id":"H1","pad_dim":"060040","area":"USA","country":"UNITED STATES","continent":"NORTH AMERICA"},{"icao":"04TE","name":"VETERANS AFFAIRS MEDICAL CENTE","city":"HOUSTON","lat":29.69971388888889,"lon":-95.39067777777778,"elev":49,"type":"P","ifr":false,"mag_var":6,"pad_id":"H1","pad_dim":"030030","area":"USA","country":"UNITED STATES","continent":"NORTH AMERICA"},{"icao":"04VA","name":"RUSSELL COUNTY MEDICAL CENTER","city":null,"lat":36.89825555555556,"lon":-82.07848333333334,"elev":2004,"type":"P","ifr":false,"mag_var":-7.4,"pad_id":"H1","pad_dim":"050050","area":"USA","country":"UNITED STATES","continent":"NORTH AMERICA"},{"icao":"05AL","name":"ALLEN STAGEFIELD AHP","city":null,"lat":31.231175,"lon":-85.64970277777778,"elev":365,"type":"M","ifr":false,"mag_var":-2,"pad_id":"H1","pad_dim":"999050","area":"USA","country":"UNITED STATES","continent":"NORTH AMERICA"},{"icao":"05AL","name":"ALLEN STAGEFIELD AHP","city":null,"lat":31.231175,"lon":-85.64970277777778,"elev":365,"type":"M","ifr":false,"mag_var":-2,"pad_id":"H2","pad_dim":"999050","area":"USA","country":"UNITED STATES","continent":"NORTH AMERICA"},{"icao":"05AL","name":"ALLEN STAGEFIELD AHP","city":null,"lat":31.231175,"lon":-85.64970277777778,"elev":365,"type":"M","ifr":false,"mag_var":-2,"pad_id":"H3","pad_dim":"999050","area":"USA","country":"UNITED STATES","continent":"NORTH AMERICA"},{"icao":"05AL","name":"ALLEN STAGEFIELD AHP","city":null,"lat":31.231175,"lon":-85.64970277777778,"elev":365,"type":"M","ifr":false,"mag_var":-2,"pad_id":"H4","pad_dim":"999050","area":"USA","country":"UNITED STATES","continent":"NORTH AMERICA"},{"icao":"05AL","name":"ALLEN STAGEFIELD AHP","city":null,"lat":31.231175,"lon":-85.64970277777778,"elev":365,"type":"M","ifr":false,"mag_var":-2,"pad_id":"H5","pad_dim":"999050","area":"USA","country":"UNITED STATES","continent":"NORTH AMERICA"},{"icao":"05AL","name":"ALLEN STAGEFIELD AHP","city":null,"lat":31.231175,"lon":-85.64970277777778,"elev":365,"type":"M","ifr":false,"mag_var":-2,"pad_id":"H6","pad_dim":"999050","area":"USA","country":"UNITED STATES","continent":"NORTH AMERICA"},{"icao":"05AZ","name":"YUMA REGIONAL MEDICAL CENTER H","city":"YUMA","lat":32.682825,"lon":-114.63439722222222,"elev":200,"type":"P","ifr":false,"mag_var":13,"pad_id":"H1","pad_dim":"040040","area":"USA","country":"UNITED STATES","continent":"NORTH AMERICA"},{"icao":"05CA","name":"LOST HILLS SHERIFF'S STATION","city":"CALABASAS","lat":34.13652777777778,"lon":-118.71468055555556,"elev":888,"type":"P","ifr":false,"mag_var":14,"pad_id":"H1","pad_dim":"078078","area":"USA","country":"UNITED STATES","continent":"NORTH AMERICA"},{"icao":"05FD","name":"AVENTURA","city":"NORTH MIAMI BEACH","lat":25.957372222222222,"lon":-80.13860555555556,"elev":6,"type":"P","ifr":false,"mag_var":-3,"pad_id":"H1","pad_dim":"095095","area":"USA","country":"UNITED STATES","continent":"NORTH AMERICA"},{"icao":"05LL","name":"MIDWEST MEML","city":null,"lat":41.74922222222222,"lon":-87.93590277777778,"elev":710,"type":"P","ifr":false,"mag_var":-1,"pad_id":"H1","pad_dim":"120120","area":"USA","country":"UNITED STATES","continent":"NORTH AMERICA"},{"icao":"05MA","name":"BENTLEY","city":null,"lat":42.693080555555554,"lon":-70.91229722222222,"elev":71,"type":"P","ifr":false,"mag_var":-16,"pad_id":"H1","pad_dim":"100040","area":"USA","country":"UNITED STATES","continent":"NORTH AMERICA"},{"icao":"05MI","name":"BEAUMONT HOSPITAL TAYLOR","city":null,"lat":42.23638888888889,"lon":-83.27638888888889,"elev":621,"type":"P","ifr":false,"mag_var":-7.4,"pad_id":"H1","pad_dim":"042030","area":"USA","country":"UNITED STATES","continent":"NORTH AMERICA"},{"icao":"05MN","name":"NORTHERN PINES MEDICAL CENTER","city":null,"lat":47.5175,"lon":-92.23027777777777,"elev":1446,"type":"P","ifr":false,"mag_var":-1.1,"pad_id":"H1","pad_dim":"040040","area":"USA","country":"UNITED STATES","continent":"NORTH AMERICA"},{"icao":"05NJ","name":"PAULUS HOOK PIER","city":null,"lat":40.71339722222222,"lon":-74.03202222222222,"elev":7,"type":"P","ifr":false,"mag_var":-13,"pad_id":"H1","pad_dim":"060060","area":"USA","country":"UNITED STATES","continent":"NORTH AMERICA"},{"icao":"05NY","name":"OSWEGO COUNTY AT PULASKI","city":null,"lat":43.55201388888889,"lon":-76.0902,"elev":445,"type":"P","ifr":false,"mag_var":-12,"pad_id":"H1","pad_dim":"075075","area":"USA","country":"UNITED STATES","continent":"NORTH AMERICA"},{"icao":"05OG","name":"DRILL FLD PAD","city":null,"lat":44.05953888888889,"lon":-123.11884722222223,"elev":415,"type":"P","ifr":false,"mag_var":14.4,"pad_id":"H1","pad_dim":"050050","area":"USA","country":"UNITED STATES","continent":"NORTH AMERICA"},{"icao":"05PA","name":"PECO MOB","city":null,"lat":39.95483611111111,"lon":-75.17823333333334,"elev":110,"type":"P","ifr":false,"mag_var":-11,"pad_id":"H1","pad_dim":"070070","area":"USA","country":"UNITED STATES","continent":"NORTH AMERICA"},{"icao":"05PN","name":"STATE POLICE AREA III","city":null,"lat":40.30008888888889,"lon":-76.85802777777778,"elev":485,"type":"P","ifr":false,"mag_var":-10,"pad_id":"H1","pad_dim":"120120","area":"USA","country":"UNITED STATES","continent":"NORTH AMERICA"},{"icao":"05TN","name":"REGIONAL ONE HEALTH","city":null,"lat":35.142294444444445,"lon":-90.03153611111111,"elev":364,"type":"P","ifr":false,"mag_var":-1.8,"pad_id":"H1","pad_dim":"052052","area":"USA","country":"UNITED STATES","continent":"NORTH AMERICA"},{"icao":"05VT","name":"PORT OF HIGHGATE SPRINGS","city":null,"lat":45.012366666666665,"lon":-73.08629722222223,"elev":230,"type":"P","ifr":false,"mag_var":-13.8,"pad_id":"H1","pad_dim":"080080","area":"USA","country":"UNITED STATES","continent":"NORTH AMERICA"},{"icao":"05WA","name":"SACRED HEART MEDICAL CENTER HE","city":"SPOKANE","lat":47.64912777777778,"lon":-117.41307777777777,"elev":2220,"type":"P","ifr":false,"mag_var":19,"pad_id":"H1","pad_dim":"040040","area":"USA","country":"UNITED STATES","continent":"NORTH AMERICA"},{"icao":"05XA","name":"MOORE CO HOSPITAL DISTRICT","city":"DUMAS","lat":35.86363055555555,"lon":-101.97094444444444,"elev":3664,"type":"P","ifr":false,"mag_var":6,"pad_id":"H1","pad_dim":"040040","area":"USA","country":"UNITED STATES","continent":"NORTH AMERICA"},{"icao":"06AL","name":"BROWN STAGEFIELD AHP","city":null,"lat":31.388802777777776,"lon":-85.97055833333333,"elev":415,"type":"M","ifr":false,"mag_var":-2,"pad_id":"H1","pad_dim":"999075","area":"USA","country":"UNITED STATES","continent":"NORTH AMERICA"},{"icao":"06AL","name":"BROWN STAGEFIELD AHP","city":null,"lat":31.388802777777776,"lon":-85.97055833333333,"elev":415,"type":"M","ifr":false,"mag_var":-2,"pad_id":"H2","pad_dim":"999075","area":"USA","country":"UNITED STATES","continent":"NORTH AMERICA"},{"icao":"06AL","name":"BROWN STAGEFIELD AHP","city":null,"lat":31.388802777777776,"lon":-85.97055833333333,"elev":415,"type":"M","ifr":false,"mag_var":-2,"pad_id":"H3","pad_dim":"999075","area":"USA","country":"UNITED STATES","continent":"NORTH AMERICA"},{"icao":"06AL","name":"BROWN STAGEFIELD AHP","city":null,"lat":31.388802777777776,"lon":-85.97055833333333,"elev":415,"type":"M","ifr":false,"mag_var":-2,"pad_id":"H4","pad_dim":"999075","area":"USA","country":"UNITED STATES","continent":"NORTH AMERICA"},{"icao":"06AL","name":"BROWN STAGEFIELD AHP","city":null,"lat":31.388802777777776,"lon":-85.97055833333333,"elev":415,"type":"M","ifr":false,"mag_var":-2,"pad_id":"H5","pad_dim":"999075","area":"USA","country":"UNITED STATES","continent":"NORTH AMERICA"},{"icao":"06AL","name":"BROWN STAGEFIELD AHP","city":null,"lat":31.388802777777776,"lon":-85.97055833333333,"elev":415,"type":"M","ifr":false,"mag_var":-2,"pad_id":"H6","pad_dim":"999075","area":"USA","country":"UNITED STATES","continent":"NORTH AMERICA"},{"icao":"06AL","name":"BROWN STAGEFIELD AHP","city":null,"lat":31.388802777777776,"lon":-85.97055833333333,"elev":415,"type":"M","ifr":false,"mag_var":-2,"pad_id":"H7","pad_dim":"999075","area":"USA","country":"UNITED STATES","continent":"NORTH AMERICA"},{"icao":"06AZ","name":"MERCY GILBERT MEDICAL CENTER","city":null,"lat":33.28799166666667,"lon":-111.75211944444445,"elev":1280,"type":"P","ifr":false,"mag_var":9.6,"pad_id":"H1","pad_dim":"080080","area":"USA","country":"UNITED STATES","continent":"NORTH AMERICA"},{"icao":"06CA","name":"S C E SOLAR I","city":"YERMO","lat":34.86898055555555,"lon":-116.83203611111111,"elev":1942,"type":"P","ifr":false,"mag_var":14,"pad_id":"H1","pad_dim":"020020","area":"USA","country":"UNITED STATES","continent":"NORTH AMERICA"},{"icao":"06CL","name":"A B C 7 - TV","city":"GLENDALE","lat":34.157294444444446,"lon":-118.28871666666667,"elev":520,"type":"Y","ifr":false,"mag_var":14,"pad_id":"H1","pad_dim":"046046","area":"USA","country":"UNITED STATES","continent":"NORTH AMERICA"},{"icao":"06FL","name":"MORTON PLANT HOSPITAL","city":"CLEARWATER","lat":27.953544444444443,"lon":-82.80624444444445,"elev":3,"type":"P","ifr":false,"mag_var":-2,"pad_id":"H1","pad_dim":"200100","area":"USA","country":"UNITED STATES","continent":"NORTH AMERICA"},{"icao":"06GA","name":"SMITH","city":null,"lat":33.75343888888889,"lon":-84.16214166666667,"elev":1065,"type":"P","ifr":false,"mag_var":-2,"pad_id":"H1","pad_dim":"300300","area":"USA","country":"UNITED STATES","continent":"NORTH AMERICA"},{"icao":"06IN","name":"IU HEALTH BLOOMINGTON","city":"BLOOMINGTON","lat":39.17833888888889,"lon":-86.50150555555555,"elev":823,"type":"P","ifr":true,"mag_var":-5,"pad_id":"H1","pad_dim":"054054","area":"USA","country":"UNITED STATES","continent":"NORTH AMERICA"},{"icao":"06KY","name":"AIR EVAC 133","city":null,"lat":38.64555555555555,"lon":-84.58230555555555,"elev":941,"type":"P","ifr":false,"mag_var":-6,"pad_id":"H1","pad_dim":"040040","area":"USA","country":"UNITED STATES","continent":"NORTH AMERICA"},{"icao":"06LA","name":"PANTHER HELICOPTERS INC","city":null,"lat":29.846038888888888,"lon":-90.02785,"elev":0,"type":"P","ifr":false,"mag_var":3,"pad_id":"H1","pad_dim":"039039","area":"USA","country":"UNITED STATES","continent":"NORTH AMERICA"},{"icao":"06LS","name":"TEMBEC","city":null,"lat":30.70786111111111,"lon":-91.32016666666667,"elev":85,"type":"P","ifr":false,"mag_var":-0.7,"pad_id":"H1","pad_dim":"040040","area":"USA","country":"UNITED STATES","continent":"NORTH AMERICA"},{"icao":"06MA","name":"THE BARN","city":null,"lat":42.690644444444445,"lon":-71.60895833333333,"elev":210,"type":"P","ifr":false,"mag_var":-16,"pad_id":"H1","pad_dim":"015015","area":"USA","country":"UNITED STATES","continent":"NORTH AMERICA"},{"icao":"06MD","name":"JOHNS HOPKINS BAYVIEW MEDICAL","city":"BALTIMORE","lat":39.29136111111111,"lon":-76.54626388888889,"elev":132,"type":"P","ifr":false,"mag_var":-11,"pad_id":"H1","pad_dim":"060060","area":"USA","country":"UNITED STATES","continent":"NORTH AMERICA"},{"icao":"06ME","name":"BARKER","city":null,"lat":44.41524722222222,"lon":-70.844275,"elev":649,"type":"P","ifr":false,"mag_var":-14.5,"pad_id":"H1","pad_dim":"037037","area":"USA","country":"UNITED STATES","continent":"NORTH AMERICA"},{"icao":"06MI","name":"HENRY FORD JACKSON HOSPITAL","city":null,"lat":42.25111111111111,"lon":-84.39138888888888,"elev":978,"type":"P","ifr":false,"mag_var":-4,"pad_id":"H1","pad_dim":"045045","area":"USA","country":"UNITED STATES","continent":"NORTH AMERICA"},{"icao":"06NJ","name":"J&J-NEW BRUNSWICK HELISTOP","city":"NEW BRUNSWICK","lat":40.50183611111111,"lon":-74.44573611111112,"elev":23,"type":"P","ifr":true,"mag_var":-13,"pad_id":"H1","pad_dim":"044044","area":"USA","country":"UNITED STATES","continent":"NORTH AMERICA"},{"icao":"06O1","name":"ST ELIZABETH MEDICAL CENTER","city":null,"lat":41.1147,"lon":-80.65906111111111,"elev":1020,"type":"P","ifr":false,"mag_var":-8,"pad_id":"H1","pad_dim":"040040","area":"USA","country":"UNITED STATES","continent":"NORTH AMERICA"},{"icao":"06O1","name":"ST ELIZABETH MEDICAL CENTER","city":null,"lat":41.1147,"lon":-80.65906111111111,"elev":1020,"type":"P","ifr":false,"mag_var":-8,"pad_id":"H2","pad_dim":"040040","area":"USA","country":"UNITED STATES","continent":"NORTH AMERICA"},{"icao":"06WA","name":"N A DEGERSTROM YARD","city":null,"lat":47.68628611111111,"lon":-117.19798333333334,"elev":2013,"type":"P","ifr":false,"mag_var":19,"pad_id":"H1","pad_dim":"060040","area":"USA","country":"UNITED STATES","continent":"NORTH AMERICA"},{"icao":"07AL","name":"TAC X STAGEFIELD AHP","city":null,"lat":31.12101388888889,"lon":-85.97724166666667,"elev":132,"type":"M","ifr":false,"mag_var":-2,"pad_id":"H1","pad_dim":"999999","area":"USA","country":"UNITED STATES","continent":"NORTH AMERICA"},{"icao":"07AZ","name":"PEOPLES HANGAR","city":null,"lat":33.630113888888886,"lon":-111.90900833333333,"elev":1498,"type":"P","ifr":false,"mag_var":9.7,"pad_id":"H1","pad_dim":"035035","area":"USA","country":"UNITED STATES","continent":"NORTH AMERICA"},{"icao":"07FD","name":"UNIVERSITY OF MIAMI HOSPITAL","city":"MIAMI","lat":25.787777777777777,"lon":-80.21555555555555,"elev":90,"type":"P","ifr":false,"mag_var":-7,"pad_id":"H1","pad_dim":"050050","area":"USA","country":"UNITED STATES","continent":"NORTH AMERICA"},{"icao":"07FL","name":"CITRUS CO MOSQUITO CONTROL HOM","city":"LECANTO","lat":28.87688888888889,"lon":-82.48969444444444,"elev":86,"type":"P","ifr":false,"mag_var":-6,"pad_id":"H1","pad_dim":"022022","area":"USA","country":"UNITED STATES","continent":"NORTH AMERICA"},{"icao":"07II","name":"ST VINCENT JENNINGS HOSPITAL","city":null,"lat":39.01060833333333,"lon":-85.64080277777778,"elev":740,"type":"P","ifr":false,"mag_var":-2,"pad_id":"H1","pad_dim":"060060","area":"USA","country":"UNITED STATES","continent":"NORTH AMERICA"},{"icao":"07LS","name":"LA STATE POLICE TROOP F","city":null,"lat":32.51825,"lon":-91.9891,"elev":80,"type":"P","ifr":false,"mag_var":-0.4,"pad_id":"H1","pad_dim":"050050","area":"USA","country":"UNITED STATES","continent":"NORTH AMERICA"},{"icao":"07MA","name":"WEST POND","city":null,"lat":41.91704722222222,"lon":-70.70948055555556,"elev":149,"type":"P","ifr":false,"mag_var":-16,"pad_id":"H1","pad_dim":"120060","area":"USA","country":"UNITED STATES","continent":"NORTH AMERICA"},{"icao":"07MN","name":"SLEEPY EYE MEDICAL CENTER","city":null,"lat":44.29938888888889,"lon":-94.72950833333333,"elev":1028,"type":"P","ifr":false,"mag_var":1.1,"pad_id":"H1","pad_dim":"050050","area":"USA","country":"UNITED STATES","continent":"NORTH AMERICA"},{"icao":"07NJ","name":"HACKENSACK UMC PALISADES","city":null,"lat":40.79375833333334,"lon":-73.99479722222222,"elev":5,"type":"P","ifr":false,"mag_var":-13,"pad_id":"H1","pad_dim":"046046","area":"USA","country":"UNITED STATES","continent":"NORTH AMERICA"},{"icao":"07PR","name":"ADVANCED PUBLIC HEALTH OF ISAB","city":null,"lat":18.489416666666667,"lon":-67.0263138888889,"elev":289,"type":"P","ifr":false,"mag_var":-13.3,"pad_id":"H1","pad_dim":"045045","area":"LAM","country":"UNITED STATES / PUERTO RICO","continent":"SOUTH AMERICA"},{"icao":"07TN","name":"LAUDERDALE COMMUNITY HOSPITAL","city":null,"lat":35.74458055555556,"lon":-89.55367777777778,"elev":336,"type":"P","ifr":false,"mag_var":-2.2,"pad_id":"H1","pad_dim":"040040","area":"USA","country":"UNITED STATES","continent":"NORTH AMERICA"},{"icao":"07WA","name":"MULTICARE DEACONESS HOSPITAL","city":"SPOKANE","lat":47.65163888888889,"lon":-117.42432222222222,"elev":2110,"type":"P","ifr":false,"mag_var":19,"pad_id":"H1","pad_dim":"053053","area":"USA","country":"UNITED STATES","continent":"NORTH AMERICA"},{"icao":"07WI","name":"MERCYHEALTH WALWORTH","city":"LAKE GENEVA","lat":42.599133333333334,"lon":-88.54002222222222,"elev":1017,"type":"P","ifr":true,"mag_var":-4,"pad_id":"H1","pad_dim":"050050","area":"USA","country":"UNITED STATES","continent":"NORTH AMERICA"},{"icao":"07XA","name":"FRED LUECKE","city":"SMITHVILLE","lat":29.906491666666668,"lon":-97.214375,"elev":451,"type":"P","ifr":false,"mag_var":3,"pad_id":"H1","pad_dim":"037037","area":"USA","country":"UNITED STATES","continent":"NORTH AMERICA"},{"icao":"07XS","name":"ALLEN PONDEROSA","city":"CROWLEY","lat":32.542183333333334,"lon":-97.39168333333333,"elev":840,"type":"P","ifr":false,"mag_var":3,"pad_id":"H1","pad_dim":"030030","area":"USA","country":"UNITED STATES","continent":"NORTH AMERICA"},{"icao":"08AZ","name":"MESA POLICE","city":null,"lat":33.417680555555556,"lon":-111.83882777777778,"elev":1254,"type":"P","ifr":false,"mag_var":9.7,"pad_id":"H1","pad_dim":"042042","area":"USA","country":"UNITED STATES","continent":"NORTH AMERICA"},{"icao":"08CA","name":"P G & E PLACERVILLE SERVICE CE","city":"DIAMOND SPRINGS","lat":38.69522222222222,"lon":-120.82605555555556,"elev":1810,"type":"P","ifr":false,"mag_var":16,"pad_id":"H1","pad_dim":"060060","area":"USA","country":"UNITED STATES","continent":"NORTH AMERICA"},{"icao":"08GE","name":"HYUNDAI MOTOR GROUP METAPLANT","city":null,"lat":32.16993611111111,"lon":-81.45383611111112,"elev":76,"type":"P","ifr":false,"mag_var":-7.2,"pad_id":"H1","pad_dim":"050050","area":"USA","country":"UNITED STATES","continent":"NORTH AMERICA"},{"icao":"08GE","name":"HYUNDAI MOTOR GROUP METAPLANT","city":null,"lat":32.16993611111111,"lon":-81.45383611111112,"elev":76,"type":"P","ifr":false,"mag_var":-7.2,"pad_id":"H2","pad_dim":"050050","area":"USA","country":"UNITED STATES","continent":"NORTH AMERICA"},{"icao":"08II","name":"PARKVIEW LAGRANGE HOSPITAL","city":"LAGRANGE","lat":41.645075,"lon":-85.42640555555556,"elev":970,"type":"P","ifr":true,"mag_var":-6,"pad_id":"H1","pad_dim":"040040","area":"USA","country":"UNITED STATES","continent":"NORTH AMERICA"},{"icao":"08IN","name":"MARION HEALTH","city":null,"lat":40.48350833333333,"lon":-85.5423888888889,"elev":903,"type":"P","ifr":false,"mag_var":-5.5,"pad_id":"H1","pad_dim":"040040","area":"USA","country":"UNITED STATES","continent":"NORTH AMERICA"},{"icao":"08KT","name":"DEACONESS UNION COUNTY HOSPITA","city":null,"lat":37.62833333333333,"lon":-87.947,"elev":435,"type":"P","ifr":false,"mag_var":-3.5,"pad_id":"H1","pad_dim":"040040","area":"USA","country":"UNITED STATES","continent":"NORTH AMERICA"},{"icao":"08MD","name":"ST JOSEPH MEDICAL CENTER","city":"TOWSON","lat":39.388419444444445,"lon":-76.61081388888888,"elev":515,"type":"P","ifr":true,"mag_var":-11,"pad_id":"H1","pad_dim":"045045","area":"USA","country":"UNITED STATES","continent":"NORTH AMERICA"},{"icao":"08MI","name":"SPARROW HOSPITAL","city":null,"lat":42.73444444444444,"lon":-84.53583333333333,"elev":1019,"type":"P","ifr":false,"mag_var":-7,"pad_id":"H1","pad_dim":"060060","area":"USA","country":"UNITED STATES","continent":"NORTH AMERICA"},{"icao":"08NH","name":"MEML HOSPITAL","city":"NORTH CONWAY","lat":44.06248611111111,"lon":-71.13717222222222,"elev":574,"type":"P","ifr":true,"mag_var":-16,"pad_id":"H1","pad_dim":"080080","area":"USA","country":"UNITED STATES","continent":"NORTH AMERICA"},{"icao":"08NJ","name":"ST BARNABAS MEDICAL CENTER","city":null,"lat":40.7626,"lon":-74.30403611111112,"elev":429,"type":"P","ifr":false,"mag_var":-12,"pad_id":"H1","pad_dim":"090090","area":"USA","country":"UNITED STATES","continent":"NORTH AMERICA"},{"icao":"08PA","name":"POCONO RACEWAY CORPORATE","city":null,"lat":41.061638888888886,"lon":-75.50920833333333,"elev":1848,"type":"P","ifr":false,"mag_var":-12,"pad_id":"H1","pad_dim":"080080","area":"USA","country":"UNITED STATES","continent":"NORTH AMERICA"},{"icao":"08SC","name":"ANMED DOWNTOWN","city":null,"lat":34.509972222222224,"lon":-82.64665833333333,"elev":814,"type":"P","ifr":false,"mag_var":-6.8,"pad_id":"H1","pad_dim":"040040","area":"USA","country":"UNITED STATES","continent":"NORTH AMERICA"},{"icao":"08SD","name":"DOUGLAS COUNTY MEML HOSPITAL","city":null,"lat":43.32593055555556,"lon":-98.34513888888888,"elev":1523,"type":"P","ifr":false,"mag_var":3.8,"pad_id":"H1","pad_dim":"042042","area":"USA","country":"UNITED STATES","continent":"NORTH AMERICA"},{"icao":"08TA","name":"RANCHO DEL LAGO","city":"FISCHER","lat":29.951880555555555,"lon":-98.22445555555555,"elev":1208,"type":"P","ifr":false,"mag_var":7,"pad_id":"H1","pad_dim":"200100","area":"USA","country":"UNITED STATES","continent":"NORTH AMERICA"},{"icao":"08TE","name":"EGM","city":"MOUNTAIN HOME","lat":30.197777777777777,"lon":-99.3175,"elev":2073,"type":"P","ifr":false,"mag_var":4,"pad_id":"H1","pad_dim":"017017","area":"USA","country":"UNITED STATES","continent":"NORTH AMERICA"},{"icao":"09AA","name":"SHELDON CHALET","city":null,"lat":62.96988888888889,"lon":-150.75375,"elev":5742,"type":"P","ifr":false,"mag_var":14.1,"pad_id":"H1","pad_dim":"022024","area":"CAN","country":"UNITED STATES / ALASKA","continent":"NORTH AMERICA"},{"icao":"09AL","name":"GREENE COUNTY HOSPITAL & NURSI","city":null,"lat":32.84241111111111,"lon":-87.890525,"elev":218,"type":"P","ifr":false,"mag_var":-3.1,"pad_id":"H1","pad_dim":"050050","area":"USA","country":"UNITED STATES","continent":"NORTH AMERICA"},{"icao":"09AR","name":"MAGNOLIA RGNL MEDICAL CENTER","city":null,"lat":33.273944444444446,"lon":-93.23976388888889,"elev":310,"type":"P","ifr":false,"mag_var":4,"pad_id":"H1","pad_dim":"050050","area":"USA","country":"UNITED STATES","continent":"NORTH AMERICA"},{"icao":"09CA","name":"MEE MEML HOSPITAL","city":"KING CITY","lat":36.205525,"lon":-121.13255,"elev":334,"type":"P","ifr":true,"mag_var":13,"pad_id":"H1","pad_dim":"050","area":"USA","country":"UNITED STATES","continent":"NORTH AMERICA"},{"icao":"09FL","name":"HARD ROCK STADIUM WEST","city":"MIAMI GARDENS","lat":25.960055555555556,"lon":-80.24180555555556,"elev":7,"type":"P","ifr":false,"mag_var":-7,"pad_id":"H1","pad_dim":"046046","area":"USA","country":"UNITED STATES","continent":"NORTH AMERICA"},{"icao":"09IL","name":"ST ELIZABETH'S HOSPITAL","city":null,"lat":38.58327777777778,"lon":-89.93419444444444,"elev":546,"type":"P","ifr":false,"mag_var":-2.1,"pad_id":"H1","pad_dim":"040040","area":"USA","country":"UNITED STATES","continent":"NORTH AMERICA"},{"icao":"09IS","name":"SWEDISH AMERICAN","city":"ROCKFORD","lat":42.26588888888889,"lon":-89.07357222222223,"elev":828,"type":"P","ifr":true,"mag_var":-3,"pad_id":"H1","pad_dim":"039031","area":"USA","country":"UNITED STATES","continent":"NORTH AMERICA"},{"icao":"09KY","name":"BAPTIST HOSPITAL EAST","city":null,"lat":38.23898888888889,"lon":-85.63883055555556,"elev":531,"type":"P","ifr":false,"mag_var":-2,"pad_id":"H1","pad_dim":"050050","area":"USA","country":"UNITED STATES","continent":"NORTH AMERICA"},{"icao":"09LA","name":"ERA HELICOPTERS FOURCHON","city":"GRAND ISLE","lat":29.12453888888889,"lon":-90.20535833333334,"elev":7,"type":"P","ifr":true,"mag_var":2,"pad_id":"H1","pad_dim":"030030","area":"USA","country":"UNITED STATES","continent":"NORTH AMERICA"},{"icao":"09LS","name":"WEST FELICIANA SHERIFF'S OFFIC","city":null,"lat":30.825116666666666,"lon":-91.38467777777778,"elev":181,"type":"P","ifr":false,"mag_var":-0.7,"pad_id":"H1","pad_dim":"040040","area":"USA","country":"UNITED STATES","continent":"NORTH AMERICA"},{"icao":"09MD","name":"FLY DEEP CREEK","city":null,"lat":39.57641111111111,"lon":-79.37204722222222,"elev":2627,"type":"P","ifr":false,"mag_var":-9.5,"pad_id":"H1","pad_dim":"040040","area":"USA","country":"UNITED STATES","continent":"NORTH AMERICA"},{"icao":"09MI","name":"MICHIGAN NTL GUARD HEADQUARTER","city":null,"lat":42.70809166666667,"lon":-84.56081111111111,"elev":842,"type":"P","ifr":false,"mag_var":-4,"pad_id":"H1","pad_dim":"040040","area":"USA","country":"UNITED STATES","continent":"NORTH AMERICA"},{"icao":"09NJ","name":"STONEBRIDGE FARM HELISTOP","city":null,"lat":40.65371388888889,"lon":-74.68655,"elev":100,"type":"P","ifr":false,"mag_var":-12,"pad_id":"H1","pad_dim":"100100","area":"USA","country":"UNITED STATES","continent":"NORTH AMERICA"},{"icao":"09NV","name":"WEST HENDERSON HOSPITAL","city":null,"lat":35.97968888888889,"lon":-115.15018333333333,"elev":2374,"type":"P","ifr":false,"mag_var":11.1,"pad_id":"H1","pad_dim":"040040","area":"USA","country":"UNITED STATES","continent":"NORTH AMERICA"},{"icao":"09NY","name":"D STORM MEML","city":null,"lat":41.92381666666667,"lon":-74.04275,"elev":254,"type":"P","ifr":false,"mag_var":-14,"pad_id":"H1","pad_dim":"100100","area":"USA","country":"UNITED STATES","continent":"NORTH AMERICA"},{"icao":"09OH","name":"MARYMOUNT HOSPITAL","city":"GARFIELD HEIGHTS","lat":41.42033611111111,"lon":-81.59949444444445,"elev":905,"type":"Y","ifr":false,"mag_var":-8,"pad_id":"H","pad_dim":"045045","area":"USA","country":"UNITED STATES","continent":"NORTH AMERICA"},{"icao":"09OR","name":"MID-COLUMBIA MEDICAL CENTER","city":"THE DALLES","lat":45.58723888888889,"lon":-121.16382222222222,"elev":300,"type":"P","ifr":false,"mag_var":19,"pad_id":"H1","pad_dim":"050","area":"USA","country":"UNITED STATES","continent":"NORTH AMERICA"},{"icao":"09TN","name":"UNIVERSITY OF TENNESSEE MEDICA","city":"KNOXVILLE","lat":35.94164166666667,"lon":-83.943825,"elev":920,"type":"P","ifr":true,"mag_var":-6,"pad_id":"H1","pad_dim":"080080","area":"USA","country":"UNITED STATES","continent":"NORTH AMERICA"},{"icao":"09VG","name":"AUGUSTA MEDICAL CENTER","city":"FISHERSVILLE","lat":38.09558333333333,"lon":-78.98673333333333,"elev":1362,"type":"P","ifr":true,"mag_var":-10,"pad_id":"H1","pad_dim":"060060","area":"USA","country":"UNITED STATES","continent":"NORTH AMERICA"},{"icao":"09WA","name":"HOLY FAMILY HOSPITAL","city":"SPOKANE","lat":47.70945833333333,"lon":-117.40664166666667,"elev":2081,"type":"P","ifr":false,"mag_var":19,"pad_id":"H1","pad_dim":"060060","area":"USA","country":"UNITED STATES","continent":"NORTH AMERICA"},{"icao":"09XA","name":"BRAUNIG EHLF","city":"ELMENDORF","lat":29.255780555555557,"lon":-98.38324722222222,"elev":517,"type":"P","ifr":false,"mag_var":3,"pad_id":"H1","pad_dim":"050050","area":"USA","country":"UNITED STATES","continent":"NORTH AMERICA"},{"icao":"09XS","name":"BAPTIST MEDICAL CENTER","city":"SAN ANTONIO","lat":29.43301111111111,"lon":-98.49223888888889,"elev":710,"type":"P","ifr":false,"mag_var":4,"pad_id":"H1","pad_dim":"090090","area":"USA","country":"UNITED STATES","continent":"NORTH AMERICA"},{"icao":"0AL2","name":"CLAY COUNTY HOSPITAL","city":null,"lat":33.27721666666667,"lon":-85.82481944444444,"elev":1040,"type":"P","ifr":false,"mag_var":-1,"pad_id":"H1","pad_dim":"024021","area":"USA","country":"UNITED STATES","continent":"NORTH AMERICA"},{"icao":"0AL3","name":"HOSPITAL PAD","city":null,"lat":31.4301,"lon":-86.94021666666667,"elev":295,"type":"P","ifr":false,"mag_var":0,"pad_id":"H1","pad_dim":"024024","area":"USA","country":"UNITED STATES","continent":"NORTH AMERICA"},{"icao":"0AL4","name":"DEKALB REGL MED CNTR","city":"FORT PAYNE","lat":34.442083333333336,"lon":-85.75579166666667,"elev":810,"type":"P","ifr":true,"mag_var":-3,"pad_id":"H1","pad_dim":"030030","area":"USA","country":"UNITED STATES","continent":"NORTH AMERICA"},{"icao":"0AL6","name":"D W MCMILLIAN MEML HOSPITAL","city":null,"lat":31.125669444444444,"lon":-87.07346944444444,"elev":155,"type":"P","ifr":false,"mag_var":0,"pad_id":"H1","pad_dim":"050050","area":"USA","country":"UNITED STATES","continent":"NORTH AMERICA"},{"icao":"0AL7","name":"GADSDEN REGL MEDICAL CENTER","city":null,"lat":34.00833333333333,"lon":-85.96527777777777,"elev":621,"type":"P","ifr":false,"mag_var":-1,"pad_id":"H1","pad_dim":"030030","area":"USA","country":"UNITED STATES","continent":"NORTH AMERICA"},{"icao":"0AL8","name":"BROOKWOOD MEDICAL CENTER","city":null,"lat":33.46407222222222,"lon":-86.77286944444444,"elev":763,"type":"P","ifr":false,"mag_var":0,"pad_id":"H1","pad_dim":"050050","area":"USA","country":"UNITED STATES","continent":"NORTH AMERICA"},{"icao":"0AR0","name":"SMH","city":null,"lat":36.181466666666665,"lon":-94.13714722222223,"elev":1352,"type":"P","ifr":false,"mag_var":5,"pad_id":"H1","pad_dim":"060060","area":"USA","country":"UNITED STATES","continent":"NORTH AMERICA"},{"icao":"0AR4","name":"OZARKS COMMUNITY HOSPITAL","city":null,"lat":36.40927777777778,"lon":-94.46005555555556,"elev":1204,"type":"P","ifr":false,"mag_var":5,"pad_id":"H1","pad_dim":"016012","area":"USA","country":"UNITED STATES","continent":"NORTH AMERICA"},{"icao":"0AR5","name":"RGNL MEDICAL CENTER","city":null,"lat":35.83594444444444,"lon":-90.70173055555556,"elev":382,"type":"P","ifr":false,"mag_var":2,"pad_id":"H1","pad_dim":"042042","area":"USA","country":"UNITED STATES","continent":"NORTH AMERICA"},{"icao":"0AR6","name":"AMI NTL PARK MEDICAL CENTER","city":null,"lat":34.48614444444444,"lon":-93.036575,"elev":547,"type":"P","ifr":false,"mag_var":4,"pad_id":"H1","pad_dim":"030030","area":"USA","country":"UNITED STATES","continent":"NORTH AMERICA"},{"icao":"0AR8","name":"HOWARD MEML HOSPITAL","city":null,"lat":33.94884166666667,"lon":-93.880225,"elev":549,"type":"P","ifr":false,"mag_var":4,"pad_id":"H1","pad_dim":"030030","area":"USA","country":"UNITED STATES","continent":"NORTH AMERICA"},{"icao":"0AR9","name":"EUREKA SPRINGS HOSPITAL","city":null,"lat":36.40013611111111,"lon":-93.74367777777778,"elev":1540,"type":"P","ifr":false,"mag_var":4,"pad_id":"H1","pad_dim":"025025","area":"USA","country":"UNITED STATES","continent":"NORTH AMERICA"},{"icao":"0AZ0","name":"ARIZONA HEART HOSPITAL","city":null,"lat":33.48127222222222,"lon":-112.03977222222223,"elev":1161,"type":"P","ifr":false,"mag_var":12,"pad_id":"H1","pad_dim":"040040","area":"USA","country":"UNITED STATES","continent":"NORTH AMERICA"},{"icao":"0AZ6","name":"ST JOSEPH'S HOSPITAL","city":null,"lat":33.48267222222222,"lon":-112.07950277777778,"elev":1213,"type":"P","ifr":false,"mag_var":9.8,"pad_id":"H1","pad_dim":"040045","area":"USA","country":"UNITED STATES","continent":"NORTH AMERICA"},{"icao":"0B1","name":"BETHEL REGL","city":"BETHEL","lat":44.42516666666667,"lon":-70.80991666666667,"elev":674,"type":"Y","ifr":true,"mag_var":-16,"pad_id":"H1","pad_dim":"220220","area":"USA","country":"UNITED STATES","continent":"NORTH AMERICA"},{"icao":"0CA1","name":"SUTTER MEDICAL CENTER CASTRO V","city":"CASTRO VALLEY","lat":37.69888888888889,"lon":-122.08916666666667,"elev":224,"type":"P","ifr":false,"mag_var":13,"pad_id":"H1","pad_dim":"054054","area":"USA","country":"UNITED STATES","continent":"NORTH AMERICA"},{"icao":"0CA2","name":"VA GREATER LOS ANGELES HEALTH","city":"WEST LOS ANGELES","lat":34.04972222222222,"lon":-118.45611111111111,"elev":290,"type":"P","ifr":false,"mag_var":14,"pad_id":"H1","pad_dim":"045045","area":"USA","country":"UNITED STATES","continent":"NORTH AMERICA"},{"icao":"0CD0","name":"DELTA COUNTY MEML HOSPITAL","city":null,"lat":38.74510277777778,"lon":-108.04812777777778,"elev":5000,"type":"P","ifr":false,"mag_var":9,"pad_id":"H1","pad_dim":"050050","area":"USA","country":"UNITED STATES","continent":"NORTH AMERICA"},{"icao":"0CD1","name":"COLORADO PLAINS MEDICAL CENTER","city":null,"lat":40.260616666666664,"lon":-103.79555,"elev":4356,"type":"P","ifr":false,"mag_var":7,"pad_id":"H1","pad_dim":"045045","area":"USA","country":"UNITED STATES","continent":"NORTH AMERICA"},{"icao":"0CD4","name":"KAUFFMAN","city":null,"lat":40.14633333333333,"lon":-104.8875,"elev":5120,"type":"P","ifr":false,"mag_var":7.6,"pad_id":"H1","pad_dim":"025025","area":"USA","country":"UNITED STATES","continent":"NORTH AMERICA"},{"icao":"0CD6","name":"EXEMPLA GOOD SAMARITAN","city":null,"lat":39.970844444444445,"lon":-105.08740277777778,"elev":5204,"type":"P","ifr":false,"mag_var":7.7,"pad_id":"H1","pad_dim":"040040","area":"USA","country":"UNITED STATES","continent":"NORTH AMERICA"},{"icao":"0CD8","name":"PROWERS MEDICAL CENTER","city":null,"lat":38.071275,"lon":-102.60963055555555,"elev":3575,"type":"P","ifr":false,"mag_var":6.2,"pad_id":"H1","pad_dim":"050050","area":"USA","country":"UNITED STATES","continent":"NORTH AMERICA"},{"icao":"0CD9","name":"SWEDISH S W MEDICAL","city":null,"lat":39.60294722222222,"lon":-105.09078055555555,"elev":5563,"type":"P","ifr":false,"mag_var":7.7,"pad_id":"H1","pad_dim":"100050","area":"USA","country":"UNITED STATES","continent":"NORTH AMERICA"},{"icao":"0CL4","name":"700 NORTH BRAND","city":"GLENDALE","lat":34.15719166666667,"lon":-118.25461111111112,"elev":770,"type":"P","ifr":false,"mag_var":14,"pad_id":"H1","pad_dim":"050050","area":"USA","country":"UNITED STATES","continent":"NORTH AMERICA"},{"icao":"0CL5","name":"THE ATRIUM","city":"IRVINE","lat":33.670427777777775,"lon":-117.85773333333333,"elev":46,"type":"P","ifr":false,"mag_var":14,"pad_id":"H1","pad_dim":"058058","area":"USA","country":"UNITED STATES","continent":"NORTH AMERICA"},{"icao":"0CL7","name":"GOOD SAMARITAN HOSPITAL","city":"LOS ANGELES","lat":34.05484722222222,"lon":-118.26497222222223,"elev":473,"type":"P","ifr":false,"mag_var":14,"pad_id":"H1","pad_dim":"065065","area":"USA","country":"UNITED STATES","continent":"NORTH AMERICA"},{"icao":"0CL9","name":"S C E SAN JACINTO VALLEY SERVI","city":"ROMOLAND","lat":33.74104444444444,"lon":-117.15085555555555,"elev":1482,"type":"P","ifr":false,"mag_var":14,"pad_id":"H1","pad_dim":"020020","area":"USA","country":"UNITED STATES","continent":"NORTH AMERICA"},{"icao":"0CO0","name":"LONGMONT UNITED HOSPITAL","city":null,"lat":40.18161666666666,"lon":-105.12474444444445,"elev":5047,"type":"P","ifr":false,"mag_var":12,"pad_id":"H1","pad_dim":"042042","area":"USA","country":"UNITED STATES","continent":"NORTH AMERICA"},{"icao":"0CO7","name":"CENTURY HELICOPTERS","city":null,"lat":40.585030555555555,"lon":-105.04004166666667,"elev":4935,"type":"P","ifr":false,"mag_var":12,"pad_id":"H1","pad_dim":"152064","area":"USA","country":"UNITED STATES","continent":"NORTH AMERICA"},{"icao":"0CT0","name":"SHARON HOSPITAL","city":null,"lat":41.88121944444445,"lon":-73.4807,"elev":640,"type":"P","ifr":false,"mag_var":-14,"pad_id":"H1","pad_dim":"040040","area":"USA","country":"UNITED STATES","continent":"NORTH AMERICA"},{"icao":"0CT2","name":"WINDHAM HOSPITAL","city":null,"lat":41.71681111111111,"lon":-72.2255611111111,"elev":330,"type":"P","ifr":false,"mag_var":-15,"pad_id":"H1","pad_dim":"065065","area":"USA","country":"UNITED STATES","continent":"NORTH AMERICA"},{"icao":"0CT3","name":"N B G H","city":null,"lat":41.66155,"lon":-72.78784166666667,"elev":431,"type":"P","ifr":false,"mag_var":-14,"pad_id":"H1","pad_dim":"060060","area":"USA","country":"UNITED STATES","continent":"NORTH AMERICA"},{"icao":"0CT5","name":"ST FRANCIS HOSPITAL","city":null,"lat":41.774927777777776,"lon":-72.69778611111111,"elev":184,"type":"P","ifr":false,"mag_var":-14,"pad_id":"H1","pad_dim":"046046","area":"USA","country":"UNITED STATES","continent":"NORTH AMERICA"},{"icao":"0CT7","name":"BRIDGEPORT HOSPITAL","city":null,"lat":41.188380555555554,"lon":-73.16674722222223,"elev":80,"type":"P","ifr":false,"mag_var":-14,"pad_id":"H1","pad_dim":"066048","area":"USA","country":"UNITED STATES","continent":"NORTH AMERICA"},{"icao":"0CT8","name":"DANBURY HOSPITAL","city":null,"lat":41.40530833333333,"lon":-73.44528888888888,"elev":510,"type":"P","ifr":false,"mag_var":-13,"pad_id":"H1","pad_dim":"060060","area":"USA","country":"UNITED STATES","continent":"NORTH AMERICA"},{"icao":"0CT9","name":"HARTFORD HOSPITAL","city":null,"lat":41.75459722222222,"lon":-72.67863888888888,"elev":211,"type":"P","ifr":false,"mag_var":-14,"pad_id":"H1","pad_dim":"060075","area":"USA","country":"UNITED STATES","continent":"NORTH AMERICA"},{"icao":"0FA0","name":"DORAL RESORT & COUNTRY CLUB","city":"MIAMI","lat":25.81736111111111,"lon":-80.3403888888889,"elev":23,"type":"P","ifr":false,"mag_var":-3,"pad_id":"H1","pad_dim":"048048","area":"USA","country":"UNITED STATES","continent":"NORTH AMERICA"},{"icao":"0FA2","name":"DOCTORS MEML HOSPITAL #2","city":"PERRY","lat":30.119433333333333,"lon":-83.59274166666667,"elev":57,"type":"P","ifr":false,"mag_var":-6,"pad_id":"H2","pad_dim":"050050","area":"USA","country":"UNITED STATES","continent":"NORTH AMERICA"},{"icao":"0FA6","name":"IMMOKALEE HELIPAD","city":"IMMOKALEE","lat":26.398333333333333,"lon":-81.41466666666666,"elev":72,"type":"P","ifr":false,"mag_var":-7,"pad_id":"H1","pad_dim":"045045","area":"USA","country":"UNITED STATES","continent":"NORTH AMERICA"},{"icao":"0FD1","name":"PANHANDLE HELICOPTER LLC","city":"PANAMA CITY BEACH","lat":30.21409166666667,"lon":-85.87215555555555,"elev":20,"type":"P","ifr":false,"mag_var":0,"pad_id":"H1","pad_dim":"050040","area":"USA","country":"UNITED STATES","continent":"NORTH AMERICA"},{"icao":"0FD2","name":"HARD ROCK STADIUM","city":"MIAMI","lat":25.95981388888889,"lon":-80.23699166666667,"elev":8,"type":"P","ifr":false,"mag_var":-3,"pad_id":"H1","pad_dim":"048048","area":"USA","country":"UNITED STATES","continent":"NORTH AMERICA"},{"icao":"0FD2","name":"HARD ROCK STADIUM","city":"MIAMI","lat":25.959991666666667,"lon":-80.23585277777778,"elev":8,"type":"P","ifr":false,"mag_var":-3,"pad_id":"H2","pad_dim":"060060","area":"USA","country":"UNITED STATES","continent":"NORTH AMERICA"},{"icao":"0FD2","name":"HARD ROCK STADIUM","city":"MIAMI","lat":25.95894722222222,"lon":-80.24422777777778,"elev":8,"type":"P","ifr":false,"mag_var":-3,"pad_id":"H3","pad_dim":"060060","area":"USA","country":"UNITED STATES","continent":"NORTH AMERICA"},{"icao":"0FD2","name":"HARD ROCK STADIUM","city":"MIAMI","lat":25.959944444444446,"lon":-80.23638888888888,"elev":8,"type":"P","ifr":false,"mag_var":-3,"pad_id":"H4","pad_dim":"046046","area":"USA","country":"UNITED STATES","continent":"NORTH AMERICA"},{"icao":"0FL1","name":"TAMPA GENERAL HOSPITAL SOUTH","city":null,"lat":27.93805,"lon":-82.46036666666667,"elev":97,"type":"P","ifr":false,"mag_var":-6.1,"pad_id":"H1","pad_dim":"065065","area":"USA","country":"UNITED STATES","continent":"NORTH AMERICA"},{"icao":"0FL3","name":"OLD TOWN EMS","city":"OLD TOWN","lat":29.603277777777777,"lon":-82.98016111111112,"elev":25,"type":"P","ifr":false,"mag_var":-3,"pad_id":"H1","pad_dim":"060060","area":"USA","country":"UNITED STATES","continent":"NORTH AMERICA"},{"icao":"0FL6","name":"BEACH MOSQUITO CONTROL DISTRIC","city":"PANAMA CITY BEACH","lat":30.251066666666667,"lon":-85.90157222222223,"elev":37,"type":"P","ifr":false,"mag_var":-4,"pad_id":"H1","pad_dim":"063063","area":"USA","country":"UNITED STATES","continent":"NORTH AMERICA"},{"icao":"0FL7","name":"WKMG-TV","city":"ORLANDO","lat":28.594083333333334,"lon":-81.41988888888889,"elev":99,"type":"P","ifr":false,"mag_var":-4,"pad_id":"H1","pad_dim":"035035","area":"USA","country":"UNITED STATES","continent":"NORTH AMERICA"},{"icao":"0IA0","name":"KNOXVILLE AREA COMMUNITY HOSPI","city":null,"lat":41.311547222222224,"lon":-93.1117388888889,"elev":927,"type":"P","ifr":false,"mag_var":4,"pad_id":"H1","pad_dim":"065065","area":"USA","country":"UNITED STATES","continent":"NORTH AMERICA"},{"icao":"0IA1","name":"ST ANTHONY RGNL HOSPITAL","city":null,"lat":42.05593888888889,"lon":-94.86725833333334,"elev":1300,"type":"P","ifr":false,"mag_var":5,"pad_id":"H1","pad_dim":"042042","area":"USA","country":"UNITED STATES","continent":"NORTH AMERICA"},{"icao":"0IA2","name":"AUDUBON COUNTY MEML HOSPITAL","city":null,"lat":41.71483611111111,"lon":-94.9377,"elev":1320,"type":"P","ifr":false,"mag_var":5,"pad_id":"H1","pad_dim":"060050","area":"USA","country":"UNITED STATES","continent":"NORTH AMERICA"},{"icao":"0IA6","name":"REGL HEALTH SERVICES OF HOWARD","city":"CRESCO","lat":43.380697222222224,"lon":-92.11778333333334,"elev":1326,"type":"P","ifr":true,"mag_var":-1,"pad_id":"H1","pad_dim":"044044","area":"USA","country":"UNITED STATES","continent":"NORTH AMERICA"},{"icao":"0IA9","name":"ARMY RESERVE","city":null,"lat":40.83336944444444,"lon":-91.30015,"elev":725,"type":"M","ifr":false,"mag_var":2,"pad_id":"H1","pad_dim":"050050","area":"USA","country":"UNITED STATES","continent":"NORTH AMERICA"},{"icao":"0IL0","name":"HAMILTON MEML HOSPITAL","city":null,"lat":38.0863,"lon":-88.53996944444444,"elev":440,"type":"P","ifr":false,"mag_var":0,"pad_id":"H1","pad_dim":"030030","area":"USA","country":"UNITED STATES","continent":"NORTH AMERICA"},{"icao":"0IL1","name":"LOYOLA UNIVERSITY MEDICAL CENT","city":"MAYWOOD","lat":41.86107777777778,"lon":-87.83650555555556,"elev":632,"type":"P","ifr":true,"mag_var":-4,"pad_id":"H1","pad_dim":"050050","area":"USA","country":"UNITED STATES","continent":"NORTH AMERICA"},{"icao":"0IL3","name":"OSF HEALTHCARE","city":"URBANA","lat":40.11774722222222,"lon":-88.22542777777778,"elev":736,"type":"P","ifr":true,"mag_var":-4,"pad_id":"H1","pad_dim":"045045","area":"USA","country":"UNITED STATES","continent":"NORTH AMERICA"},{"icao":"0IL4","name":"ADVOCATE GOOD SAMARITAN HOSPIT","city":null,"lat":41.818888888888885,"lon":-88.00777777777778,"elev":772,"type":"P","ifr":false,"mag_var":-2,"pad_id":"H1","pad_dim":"040040","area":"USA","country":"UNITED STATES","continent":"NORTH AMERICA"},{"icao":"0IL5","name":"OSF ST LUKE MEDICAL CENTER","city":null,"lat":41.221666666666664,"lon":-89.94777777777777,"elev":849,"type":"P","ifr":false,"mag_var":1,"pad_id":"H1","pad_dim":"040040","area":"USA","country":"UNITED STATES","continent":"NORTH AMERICA"},{"icao":"0IL6","name":"NORTHWESTERN MEML HEALTHCARE","city":"DE KALB","lat":41.960655555555554,"lon":-88.72177222222223,"elev":860,"type":"Y","ifr":true,"mag_var":-3,"pad_id":"H1","pad_dim":"040040","area":"USA","country":"UNITED STATES","continent":"NORTH AMERICA"},{"icao":"0IS0","name":"TRINITY MEDICAL CENTER - ROCK","city":null,"lat":41.4819,"lon":-90.57116111111111,"elev":664,"type":"P","ifr":false,"mag_var":2,"pad_id":"H1","pad_dim":"040040","area":"USA","country":"UNITED STATES","continent":"NORTH AMERICA"},{"icao":"0IS2","name":"ENDEAVOR HEALTH CLINICAL OPERA","city":null,"lat":42.093525,"lon":-87.8527888888889,"elev":675,"type":"P","ifr":false,"mag_var":-4,"pad_id":"H1","pad_dim":"060060","area":"USA","country":"UNITED STATES","continent":"NORTH AMERICA"},{"icao":"0IS6","name":"DONGOLA","city":null,"lat":37.36555555555555,"lon":-89.16361111111111,"elev":383,"type":"P","ifr":false,"mag_var":0,"pad_id":"H1","pad_dim":"100100","area":"USA","country":"UNITED STATES","continent":"NORTH AMERICA"},{"icao":"0IS8","name":"BLESSING HOSPITAL","city":null,"lat":39.936025,"lon":-91.39863333333334,"elev":625,"type":"P","ifr":false,"mag_var":2,"pad_id":"H2","pad_dim":"040040","area":"USA","country":"UNITED STATES","continent":"NORTH AMERICA"},{"icao":"0JY9","name":"FLEMING COUNTY HOSPITAL","city":null,"lat":38.42235,"lon":-83.752575,"elev":943,"type":"P","ifr":false,"mag_var":-6,"pad_id":"H1","pad_dim":"040050","area":"USA","country":"UNITED STATES","continent":"NORTH AMERICA"},{"icao":"0KS3","name":"SOUTH CENTRAL KS MED CNTR","city":null,"lat":37.133783333333334,"lon":-97.03849444444444,"elev":1202,"type":"P","ifr":false,"mag_var":2.8,"pad_id":"H1","pad_dim":"060040","area":"USA","country":"UNITED STATES","continent":"NORTH AMERICA"},{"icao":"0KY2","name":"CONLEY BOTTOM RESORT","city":null,"lat":36.95491388888889,"lon":-84.82557222222222,"elev":723,"type":"P","ifr":false,"mag_var":-5.6,"pad_id":"H1","pad_dim":"040010","area":"USA","country":"UNITED STATES","continent":"NORTH AMERICA"},{"icao":"0KY3","name":"SHARMARK AVIATION","city":null,"lat":38.67944444444444,"lon":-84.66472222222222,"elev":951,"type":"P","ifr":false,"mag_var":-5.9,"pad_id":"H1","pad_dim":"048048","area":"USA","country":"UNITED STATES","continent":"NORTH AMERICA"},{"icao":"0KY4","name":"RUSSELL COUNTY AMBULANCE SERVI","city":null,"lat":37.0044,"lon":-85.0763,"elev":693,"type":"P","ifr":false,"mag_var":-5.4,"pad_id":"H1","pad_dim":"040040","area":"USA","country":"UNITED STATES","continent":"NORTH AMERICA"},{"icao":"0KY6","name":"THE MEDICAL CENTER AT CAVERNA","city":null,"lat":37.16155555555556,"lon":-85.92325,"elev":630,"type":"P","ifr":false,"mag_var":-4.9,"pad_id":"H1","pad_dim":"040040","area":"USA","country":"UNITED STATES","continent":"NORTH AMERICA"},{"icao":"0KY9","name":"BOURBON COMMUNITY HOSPITAL","city":null,"lat":38.220555555555556,"lon":-84.23931944444445,"elev":860,"type":"P","ifr":false,"mag_var":-6.1,"pad_id":"H1","pad_dim":"050050","area":"USA","country":"UNITED STATES","continent":"NORTH AMERICA"},{"icao":"0LA0","name":"WEST HACKBERRY","city":null,"lat":30.008547222222223,"lon":-93.40015555555556,"elev":10,"type":"P","ifr":false,"mag_var":5,"pad_id":"H1","pad_dim":"032032","area":"USA","country":"UNITED STATES","continent":"NORTH AMERICA"},{"icao":"0LA4","name":"NORTH CADDO MEDICAL CENTER","city":null,"lat":32.86474166666667,"lon":-93.98926944444445,"elev":252,"type":"P","ifr":false,"mag_var":4,"pad_id":"H1","pad_dim":"044044","area":"USA","country":"UNITED STATES","continent":"NORTH AMERICA"},{"icao":"0LA5","name":"CONOCO INC","city":null,"lat":29.258005555555556,"lon":-89.96368333333334,"elev":3,"type":"P","ifr":false,"mag_var":3,"pad_id":"H1","pad_dim":"200200","area":"USA","country":"UNITED STATES","continent":"NORTH AMERICA"},{"icao":"0LA7","name":"EXXON HELIPORT","city":"GRAND ISLE","lat":29.25409722222222,"lon":-89.96641111111111,"elev":4,"type":"P","ifr":false,"mag_var":3,"pad_id":"H1","pad_dim":"150150","area":"USA","country":"UNITED STATES","continent":"NORTH AMERICA"},{"icao":"0LA8","name":"JACKSON PARISH HOSPITAL","city":null,"lat":32.25297222222222,"lon":-92.71880277777778,"elev":183,"type":"P","ifr":false,"mag_var":4,"pad_id":"H1","pad_dim":"050050","area":"USA","country":"UNITED STATES","continent":"NORTH AMERICA"},{"icao":"0LL7","name":"VALLEY WEST HOSPITAL","city":null,"lat":41.65799444444445,"lon":-88.62129722222222,"elev":670,"type":"P","ifr":false,"mag_var":0,"pad_id":"H1","pad_dim":"040040","area":"USA","country":"UNITED STATES","continent":"NORTH AMERICA"},{"icao":"0MA1","name":"MASSACHUSETTS GENERAL HOSPITAL","city":"BOSTON","lat":42.363683333333334,"lon":-71.06922777777778,"elev":195,"type":"P","ifr":false,"mag_var":-15,"pad_id":"H1","pad_dim":"060060","area":"USA","country":"UNITED STATES","continent":"NORTH AMERICA"},{"icao":"0MA2","name":"HEALTHALLIANCE HOSPITAL-LEOMIN","city":null,"lat":42.54058055555556,"lon":-71.760625,"elev":450,"type":"P","ifr":false,"mag_var":-15,"pad_id":"H1","pad_dim":"040040","area":"USA","country":"UNITED STATES","continent":"NORTH AMERICA"},{"icao":"0MA3","name":"REH","city":null,"lat":41.786227777777775,"lon":-71.23142222222222,"elev":100,"type":"P","ifr":false,"mag_var":-15,"pad_id":"H1","pad_dim":"040040","area":"USA","country":"UNITED STATES","continent":"NORTH AMERICA"},{"icao":"0MA4","name":"BOSTON MEDICAL CENTER HOSPITAL","city":"BOSTON","lat":42.333822222222224,"lon":-71.07136666666666,"elev":15,"type":"P","ifr":false,"mag_var":-15,"pad_id":"H1","pad_dim":"045045","area":"USA","country":"UNITED STATES","continent":"NORTH AMERICA"},{"icao":"0MA5","name":"BROCKTON USAR CENTER","city":null,"lat":42.055933333333336,"lon":-71.05588055555556,"elev":85,"type":"P","ifr":false,"mag_var":-16,"pad_id":"H1","pad_dim":"100100","area":"USA","country":"UNITED STATES","continent":"NORTH AMERICA"},{"icao":"0MA6","name":"WBZ","city":null,"lat":42.365097222222225,"lon":-71.13255277777778,"elev":9,"type":"P","ifr":false,"mag_var":-16,"pad_id":"H1","pad_dim":"050050","area":"USA","country":"UNITED STATES","continent":"NORTH AMERICA"},{"icao":"0MA9","name":"LLEIA KYLE O'MEARA","city":null,"lat":42.50485277777778,"lon":-71.90839166666666,"elev":1230,"type":"P","ifr":false,"mag_var":-15,"pad_id":"H1","pad_dim":"025025","area":"USA","country":"UNITED STATES","continent":"NORTH AMERICA"},{"icao":"0MD0","name":"BALTIMORE WASHINGTON MEDICAL C","city":"GLEN BURNIE","lat":39.136583333333334,"lon":-76.6198,"elev":77,"type":"P","ifr":false,"mag_var":-10,"pad_id":"H1","pad_dim":"079064","area":"USA","country":"UNITED STATES","continent":"NORTH AMERICA"},{"icao":"0MD3","name":"JOHNS HOPKINS","city":"BALTIMORE","lat":39.297330555555554,"lon":-76.5933,"elev":260,"type":"P","ifr":true,"mag_var":-10,"pad_id":"H1","pad_dim":"090090","area":"USA","country":"UNITED STATES","continent":"NORTH AMERICA"},{"icao":"0MD7","name":"THE HOLE IN THE WALL GANG CAMP","city":null,"lat":38.909280555555554,"lon":-76.11966666666666,"elev":20,"type":"P","ifr":false,"mag_var":-10,"pad_id":"H1","pad_dim":"100100","area":"USA","country":"UNITED STATES","continent":"NORTH AMERICA"},{"icao":"0MD9","name":"CALVERT HEALTH MEDICAL CENTER","city":"PRINCE FREDERICK","lat":38.560827777777774,"lon":-76.596025,"elev":153,"type":"P","ifr":true,"mag_var":-11,"pad_id":"H1","pad_dim":"055055","area":"USA","country":"UNITED STATES","continent":"NORTH AMERICA"},{"icao":"0MI0","name":"2110 SOUTH M-76","city":null,"lat":44.273208333333336,"lon":-84.22273055555556,"elev":943,"type":"P","ifr":false,"mag_var":-7,"pad_id":"H1","pad_dim":"045045","area":"USA","country":"UNITED STATES","continent":"NORTH AMERICA"},{"icao":"0MI1","name":"LAWLER","city":null,"lat":42.74905555555556,"lon":-83.12025277777778,"elev":912,"type":"P","ifr":false,"mag_var":-7.5,"pad_id":"H1","pad_dim":"040024","area":"USA","country":"UNITED STATES","continent":"NORTH AMERICA"},{"icao":"0MI5","name":"MUNSON HEALTHCARE MANISTEE HOS","city":null,"lat":44.27076666666667,"lon":-86.27518333333333,"elev":607,"type":"P","ifr":false,"mag_var":-5.5,"pad_id":"H1","pad_dim":"025025","area":"USA","country":"UNITED STATES","continent":"NORTH AMERICA"},{"icao":"0MI7","name":"FOUR STAR","city":null,"lat":42.043055555555554,"lon":-83.35944444444445,"elev":603,"type":"P","ifr":false,"mag_var":-7.3,"pad_id":"H1","pad_dim":"035035","area":"USA","country":"UNITED STATES","continent":"NORTH AMERICA"},{"icao":"0MI8","name":"OAKWOOD SOUTHSHORE MEDICAL CEN","city":"TRENTON","lat":42.115975,"lon":-83.21466944444444,"elev":589,"type":"P","ifr":false,"mag_var":-7,"pad_id":"H1","pad_dim":"048048","area":"USA","country":"UNITED STATES","continent":"NORTH AMERICA"},{"icao":"0MI9","name":"HENRY FORD HOSPITAL","city":null,"lat":42.36870833333333,"lon":-83.08537777777778,"elev":633,"type":"P","ifr":false,"mag_var":-6,"pad_id":"H1","pad_dim":"045045","area":"USA","country":"UNITED STATES","continent":"NORTH AMERICA"},{"icao":"0MN1","name":"MAYO CLINIC HEALTH SYSTEM - NE","city":null,"lat":44.54618333333333,"lon":-93.57485277777778,"elev":1015,"type":"P","ifr":false,"mag_var":0.2,"pad_id":"H1","pad_dim":"044044","area":"USA","country":"UNITED STATES","continent":"NORTH AMERICA"},{"icao":"0MN5","name":"SANFORD TRACY","city":null,"lat":44.23166666666667,"lon":-95.60694444444445,"elev":1385,"type":"P","ifr":false,"mag_var":1.8,"pad_id":"H1","pad_dim":"040040","area":"USA","country":"UNITED STATES","continent":"NORTH AMERICA"},{"icao":"0MN7","name":"ELY BLOOMENSON COMMUNITY HOSPI","city":null,"lat":47.89911388888889,"lon":-91.872975,"elev":1450,"type":"P","ifr":false,"mag_var":1,"pad_id":"H1","pad_dim":"120100","area":"USA","country":"UNITED STATES","continent":"NORTH AMERICA"},{"icao":"0MO4","name":"BERT WALTER BERKOWITZ","city":null,"lat":39.08365555555555,"lon":-94.57691944444444,"elev":890,"type":"P","ifr":false,"mag_var":5,"pad_id":"H1","pad_dim":"018018","area":"USA","country":"UNITED STATES","continent":"NORTH AMERICA"},{"icao":"0MO7","name":"SSM HEALTH ST JOSEPH HOSPITAL-","city":null,"lat":38.80328055555555,"lon":-90.77625833333333,"elev":531,"type":"P","ifr":false,"mag_var":2,"pad_id":"H1","pad_dim":"065065","area":"USA","country":"UNITED STATES","continent":"NORTH AMERICA"},{"icao":"0MS3","name":"BAPTIST MEML HOSPITAL-NORTH MS","city":null,"lat":34.347833333333334,"lon":-89.519,"elev":430,"type":"P","ifr":false,"mag_var":1,"pad_id":"H1","pad_dim":"030030","area":"USA","country":"UNITED STATES","continent":"NORTH AMERICA"},{"icao":"0MT2","name":"BIG SANDY MEDICAL CENTER","city":null,"lat":48.179525,"lon":-110.10855,"elev":2750,"type":"P","ifr":false,"mag_var":15,"pad_id":"H1","pad_dim":"030030","area":"USA","country":"UNITED STATES","continent":"NORTH AMERICA"},{"icao":"0MT3","name":"STOCK FARM","city":null,"lat":46.250416666666666,"lon":-114.0697111111111,"elev":3920,"type":"P","ifr":false,"mag_var":17,"pad_id":"H1","pad_dim":"040040","area":"USA","country":"UNITED STATES","continent":"NORTH AMERICA"},{"icao":"0MU2","name":"CHRISTIAN HOSPITAL NORTHEAST","city":null,"lat":38.776697222222225,"lon":-90.2394,"elev":554,"type":"P","ifr":false,"mag_var":1,"pad_id":"H1","pad_dim":"020020","area":"USA","country":"UNITED STATES","continent":"NORTH AMERICA"},{"icao":"0MU2","name":"CHRISTIAN HOSPITAL NORTHEAST","city":null,"lat":38.776697222222225,"lon":-90.2394,"elev":554,"type":"P","ifr":false,"mag_var":1,"pad_id":"H2","pad_dim":"055055","area":"USA","country":"UNITED STATES","continent":"NORTH AMERICA"},{"icao":"0MU3","name":"HANNIBAL RGNL HOSPITAL","city":null,"lat":39.711083333333335,"lon":-91.45194444444445,"elev":744,"type":"P","ifr":false,"mag_var":2,"pad_id":"H1","pad_dim":"060060","area":"USA","country":"UNITED STATES","continent":"NORTH AMERICA"},{"icao":"0MU5","name":"HOLDEN","city":null,"lat":38.72045,"lon":-93.99410277777778,"elev":865,"type":"P","ifr":false,"mag_var":4,"pad_id":"H1","pad_dim":"030030","area":"USA","country":"UNITED STATES","continent":"NORTH AMERICA"},{"icao":"0MU6","name":"BRADBURY-ROLF MEML","city":null,"lat":39.07373333333334,"lon":-93.73589444444444,"elev":815,"type":"P","ifr":false,"mag_var":4,"pad_id":"H1","pad_dim":"060060","area":"USA","country":"UNITED STATES","continent":"NORTH AMERICA"},{"icao":"0MY1","name":"BOZEMAN DEACONESS HOSPITAL","city":null,"lat":45.66915,"lon":-111.018525,"elev":4914,"type":"P","ifr":false,"mag_var":16,"pad_id":"H1","pad_dim":"040040","area":"USA","country":"UNITED STATES","continent":"NORTH AMERICA"},{"icao":"0NC0","name":"WAYNE MEML HOSPITAL INC","city":"GOLDSBORO","lat":35.398925,"lon":-77.95448055555556,"elev":110,"type":"P","ifr":true,"mag_var":-10,"pad_id":"H1","pad_dim":"044044","area":"USA","country":"UNITED STATES","continent":"NORTH AMERICA"},{"icao":"0NC0","name":"WAYNE MEML HOSPITAL INC","city":"GOLDSBORO","lat":35.399972222222225,"lon":-77.95385277777778,"elev":106,"type":"P","ifr":true,"mag_var":-10,"pad_id":"H2","pad_dim":"075075","area":"USA","country":"UNITED STATES","continent":"NORTH AMERICA"},{"icao":"0NC2","name":"MOORE REGL HOSPITAL","city":"PINEHURST","lat":35.20498611111111,"lon":-79.45818611111112,"elev":460,"type":"P","ifr":false,"mag_var":-6,"pad_id":"H1","pad_dim":"045050","area":"USA","country":"UNITED STATES","continent":"NORTH AMERICA"},{"icao":"0NC3","name":"WASHINGTON CO HOSPITAL","city":"PLYMOUTH","lat":35.86199722222222,"lon":-76.72974444444445,"elev":19,"type":"P","ifr":false,"mag_var":-9,"pad_id":"H1","pad_dim":"070","area":"USA","country":"UNITED STATES","continent":"NORTH AMERICA"},{"icao":"0NC4","name":"WAKE MEDICAL CENTER","city":"RALEIGH","lat":35.78601111111111,"lon":-78.588725,"elev":274,"type":"P","ifr":true,"mag_var":-9,"pad_id":"H1","pad_dim":"070070","area":"USA","country":"UNITED STATES","continent":"NORTH AMERICA"},{"icao":"0NC5","name":"NASH GENERAL HOSPITAL","city":"ROCKY MOUNT","lat":35.975458333333336,"lon":-77.850675,"elev":160,"type":"P","ifr":true,"mag_var":-10,"pad_id":"H1","pad_dim":"100100","area":"USA","country":"UNITED STATES","continent":"NORTH AMERICA"},{"icao":"0NC5","name":"NASH GENERAL HOSPITAL","city":"ROCKY MOUNT","lat":35.97541388888889,"lon":-77.850675,"elev":148,"type":"P","ifr":true,"mag_var":-10,"pad_id":"H2","pad_dim":"050050","area":"USA","country":"UNITED STATES","continent":"NORTH AMERICA"},{"icao":"0NC6","name":"OUR COMMUNITY HOSPITAL","city":"SCOTLAND NECK","lat":36.12821111111111,"lon":-77.42916944444444,"elev":113,"type":"P","ifr":false,"mag_var":-8,"pad_id":"H1","pad_dim":"200150","area":"USA","country":"UNITED STATES","continent":"NORTH AMERICA"},{"icao":"0NC9","name":"MARIA PARHAM HEALTH HOSPITAL","city":"HENDERSON","lat":36.33058055555556,"lon":-78.45024722222222,"elev":475,"type":"P","ifr":true,"mag_var":-10,"pad_id":"H1","pad_dim":"060","area":"USA","country":"UNITED STATES","continent":"NORTH AMERICA"},{"icao":"0NE3","name":"SYRACUSE HOSPITAL","city":null,"lat":40.676069444444444,"lon":-96.18146944444445,"elev":1154,"type":"P","ifr":false,"mag_var":6,"pad_id":"H1","pad_dim":"040040","area":"USA","country":"UNITED STATES","continent":"NORTH AMERICA"},{"icao":"0NE4","name":"FRANKLIN COUNTY MEML HOSPITAL","city":null,"lat":40.102575,"lon":-98.95431388888889,"elev":1950,"type":"P","ifr":false,"mag_var":8,"pad_id":"H1","pad_dim":"030030","area":"USA","country":"UNITED STATES","continent":"NORTH AMERICA"},{"icao":"0NH7","name":"LEINSING","city":null,"lat":43.151830555555556,"lon":-70.8469,"elev":10,"type":"P","ifr":false,"mag_var":-14.3,"pad_id":"H1","pad_dim":"100100","area":"USA","country":"UNITED STATES","continent":"NORTH AMERICA"},{"icao":"0NJ0","name":"ATLANTIC CITY MEDICAL CENTER","city":null,"lat":39.35896944444445,"lon":-74.43466944444444,"elev":133,"type":"P","ifr":false,"mag_var":-12,"pad_id":"H1","pad_dim":"058058","area":"USA","country":"UNITED STATES","continent":"NORTH AMERICA"},{"icao":"0NJ0","name":"ATLANTIC CITY MEDICAL CENTER","city":null,"lat":39.35896944444445,"lon":-74.43466944444444,"elev":133,"type":"P","ifr":false,"mag_var":-12,"pad_id":"H2","pad_dim":"050040","area":"USA","country":"UNITED STATES","continent":"NORTH AMERICA"},{"icao":"0NJ1","name":"BERKELEY TOWNSHIP POLICE","city":null,"lat":39.90474444444445,"lon":-74.2339638888889,"elev":54,"type":"P","ifr":false,"mag_var":-12,"pad_id":"H1","pad_dim":"200200","area":"USA","country":"UNITED STATES","continent":"NORTH AMERICA"},{"icao":"0NJ2","name":"BALLYMERE","city":null,"lat":40.752877777777776,"lon":-74.439875,"elev":280,"type":"P","ifr":false,"mag_var":-12,"pad_id":"H1","pad_dim":"200100","area":"USA","country":"UNITED STATES","continent":"NORTH AMERICA"},{"icao":"0NJ3","name":"MOUNT HOLLY","city":null,"lat":39.978122222222225,"lon":-74.78395277777778,"elev":45,"type":"P","ifr":false,"mag_var":-12,"pad_id":"H1","pad_dim":"305140","area":"USA","country":"UNITED STATES","continent":"NORTH AMERICA"},{"icao":"0NJ4","name":"WEICHERT HEADQUARTERS","city":null,"lat":40.840472222222225,"lon":-74.46180555555556,"elev":338,"type":"P","ifr":false,"mag_var":-13,"pad_id":"H1","pad_dim":"040035","area":"USA","country":"UNITED STATES","continent":"NORTH AMERICA"},{"icao":"0NJ5","name":"MEADOWLANDS #2 NJ SPORTS COMPL","city":null,"lat":40.81572222222222,"lon":-74.07016666666667,"elev":9,"type":"P","ifr":false,"mag_var":-12.5,"pad_id":"H1","pad_dim":"056056","area":"USA","country":"UNITED STATES","continent":"NORTH AMERICA"},{"icao":"0NJ9","name":"JERSEY TPKE NEW BRUNSWICK HELI","city":null,"lat":40.47732777777778,"lon":-74.40792777777777,"elev":70,"type":"P","ifr":false,"mag_var":-12,"pad_id":"H1","pad_dim":"085085","area":"USA","country":"UNITED STATES","continent":"NORTH AMERICA"},{"icao":"0NK4","name":"MEDICAL CENTER","city":null,"lat":40.72647222222222,"lon":-73.55276666666667,"elev":80,"type":"P","ifr":false,"mag_var":-13,"pad_id":"H1","pad_dim":"040040","area":"USA","country":"UNITED STATES","continent":"NORTH AMERICA"},{"icao":"0NK7","name":"KING STREET","city":null,"lat":41.102691666666665,"lon":-73.72553888888889,"elev":470,"type":"P","ifr":false,"mag_var":-14,"pad_id":"H1","pad_dim":"050050","area":"USA","country":"UNITED STATES","continent":"NORTH AMERICA"},{"icao":"0NV1","name":"SUMMERLIN MEDICAL CENTER","city":null,"lat":36.18193333333333,"lon":-115.31645833333333,"elev":2745,"type":"P","ifr":false,"mag_var":14,"pad_id":"H1","pad_dim":"040040","area":"USA","country":"UNITED STATES","continent":"NORTH AMERICA"},{"icao":"0NY2","name":"AMAR","city":null,"lat":41.231027777777776,"lon":-74.04733333333333,"elev":507,"type":"P","ifr":false,"mag_var":-12.6,"pad_id":"H1","pad_dim":"060060","area":"USA","country":"UNITED STATES","continent":"NORTH AMERICA"},{"icao":"0NY4","name":"BRIDGEVIEW","city":null,"lat":41.98272222222222,"lon":-73.96322222222223,"elev":133,"type":"P","ifr":false,"mag_var":-12.8,"pad_id":"H1","pad_dim":"035035","area":"USA","country":"UNITED STATES","continent":"NORTH AMERICA"},{"icao":"0NY6","name":"NEW YORK STATE POLICE","city":null,"lat":42.928844444444444,"lon":-76.61572222222222,"elev":600,"type":"P","ifr":false,"mag_var":-12,"pad_id":"H1","pad_dim":"025025","area":"USA","country":"UNITED STATES","continent":"NORTH AMERICA"},{"icao":"0OA2","name":"CLEVELAND CLINIC, MEDINA HOSPI","city":"MEDINA","lat":41.13701388888889,"lon":-81.83671944444444,"elev":983,"type":"P","ifr":false,"mag_var":-8,"pad_id":"H1","pad_dim":"065065","area":"USA","country":"UNITED STATES","continent":"NORTH AMERICA"},{"icao":"0OH1","name":"BINDER","city":null,"lat":41.44453333333333,"lon":-81.32410555555556,"elev":1152,"type":"P","ifr":false,"mag_var":-7,"pad_id":"H1","pad_dim":"040040","area":"USA","country":"UNITED STATES","continent":"NORTH AMERICA"},{"icao":"0OH2","name":"ROTARY RUN","city":null,"lat":40.606,"lon":-81.41432777777777,"elev":1029,"type":"P","ifr":false,"mag_var":-8.4,"pad_id":"H1","pad_dim":"130130","area":"USA","country":"UNITED STATES","continent":"NORTH AMERICA"},{"icao":"0OH4","name":"UPPER VALLEY MEDICAL CENTER","city":"TROY","lat":40.085816666666666,"lon":-84.22887222222222,"elev":867,"type":"P","ifr":true,"mag_var":-6,"pad_id":"H1","pad_dim":"040040","area":"USA","country":"UNITED STATES","continent":"NORTH AMERICA"},{"icao":"0OH7","name":"WINDSONG FARMS","city":null,"lat":39.91234722222222,"lon":-83.0578388888889,"elev":743,"type":"P","ifr":false,"mag_var":-7.2,"pad_id":"H1","pad_dim":"012010","area":"USA","country":"UNITED STATES","continent":"NORTH AMERICA"},{"icao":"0OI0","name":"FOLTZ","city":null,"lat":40.735952777777776,"lon":-81.24724722222223,"elev":1012,"type":"P","ifr":false,"mag_var":-7,"pad_id":"H1","pad_dim":"012012","area":"USA","country":"UNITED STATES","continent":"NORTH AMERICA"},{"icao":"0OK7","name":"SHATTUCK HOSPITAL","city":null,"lat":36.26739444444444,"lon":-99.88340555555556,"elev":2200,"type":"P","ifr":false,"mag_var":8,"pad_id":"H1","pad_dim":"050050","area":"USA","country":"UNITED STATES","continent":"NORTH AMERICA"},{"icao":"0OR0","name":"PROVIDENCE HOSPITAL","city":null,"lat":42.33883333333333,"lon":-122.86276388888889,"elev":1350,"type":"P","ifr":false,"mag_var":18,"pad_id":"H1","pad_dim":"040040","area":"USA","country":"UNITED STATES","continent":"NORTH AMERICA"},{"icao":"0OR4","name":"ROUND BUTTE","city":null,"lat":44.623975,"lon":-121.27838888888888,"elev":2125,"type":"P","ifr":false,"mag_var":19,"pad_id":"H1","pad_dim":"060060","area":"USA","country":"UNITED STATES","continent":"NORTH AMERICA"},{"icao":"0PA0","name":"RICHFIELD STATION","city":null,"lat":40.68430277777778,"lon":-77.12643055555556,"elev":674,"type":"P","ifr":false,"mag_var":-10.9,"pad_id":"H1","pad_dim":"044044","area":"USA","country":"UNITED STATES","continent":"NORTH AMERICA"},{"icao":"0PA1","name":"PHOENIX TECHNOLOGIES","city":null,"lat":40.11816388888889,"lon":-75.40129722222223,"elev":252,"type":"P","ifr":false,"mag_var":-11,"pad_id":"H1","pad_dim":"080080","area":"USA","country":"UNITED STATES","continent":"NORTH AMERICA"},{"icao":"0PA8","name":"GEISINGER COMMUNITY MEDICAL CE","city":"SCRANTON","lat":41.40006388888889,"lon":-75.646475,"elev":1220,"type":"P","ifr":true,"mag_var":-13,"pad_id":"H1","pad_dim":"080080","area":"USA","country":"UNITED STATES","continent":"NORTH AMERICA"},{"icao":"0PA9","name":"CARSON","city":null,"lat":40.346666666666664,"lon":-75.23067777777777,"elev":628,"type":"P","ifr":false,"mag_var":-12,"pad_id":"H1","pad_dim":"200200","area":"USA","country":"UNITED STATES","continent":"NORTH AMERICA"},{"icao":"0PN3","name":"PFIZER-COLLEGEVILLE","city":"COLLEGEVILLE","lat":40.158675,"lon":-75.46343055555556,"elev":175,"type":"P","ifr":true,"mag_var":-12,"pad_id":"H1","pad_dim":"044044","area":"USA","country":"UNITED STATES","continent":"NORTH AMERICA"},{"icao":"0PS5","name":"VALLEY INDUSTRIAL PROPERTIES L","city":null,"lat":40.879263888888886,"lon":-75.19267777777777,"elev":660,"type":"P","ifr":false,"mag_var":-12,"pad_id":"H1","pad_dim":"030030","area":"USA","country":"UNITED STATES","continent":"NORTH AMERICA"},{"icao":"0PS6","name":"HERBST","city":null,"lat":39.94954444444444,"lon":-76.5533,"elev":485,"type":"P","ifr":false,"mag_var":-10,"pad_id":"H1","pad_dim":"060060","area":"USA","country":"UNITED STATES","continent":"NORTH AMERICA"},{"icao":"0PS8","name":"UPMC HAMOT BAYFRONT GARAGE","city":"ERIE","lat":42.132955555555554,"lon":-80.08623055555556,"elev":900,"type":"P","ifr":true,"mag_var":-10,"pad_id":"H1","pad_dim":"060065","area":"USA","country":"UNITED STATES","continent":"NORTH AMERICA"},{"icao":"0PS9","name":"JEFFERSON HEALTH BUCKS COUNTY","city":null,"lat":40.182716666666664,"lon":-74.86800833333334,"elev":141,"type":"P","ifr":false,"mag_var":-12,"pad_id":"H1","pad_dim":"065065","area":"USA","country":"UNITED STATES","continent":"NORTH AMERICA"},{"icao":"0SD2","name":"PRAIRIE LAKES WEST","city":null,"lat":44.91065555555556,"lon":-97.12001944444444,"elev":1799,"type":"P","ifr":false,"mag_var":5,"pad_id":"H1","pad_dim":"040040","area":"USA","country":"UNITED STATES","continent":"NORTH AMERICA"},{"icao":"0SD4","name":"BROOKINGS HEALTH SYSTEM","city":null,"lat":44.30705555555556,"lon":-96.76543611111111,"elev":1670,"type":"P","ifr":false,"mag_var":6,"pad_id":"H1","pad_dim":"060060","area":"USA","country":"UNITED STATES","continent":"NORTH AMERICA"},{"icao":"0SD9","name":"CRAZY HORSE","city":null,"lat":43.84442222222222,"lon":-103.63592222222222,"elev":5900,"type":"P","ifr":false,"mag_var":11,"pad_id":"H1","pad_dim":"020020","area":"USA","country":"UNITED STATES","continent":"NORTH AMERICA"},{"icao":"0TA0","name":"HCA HOUSTON HEALTHCARE MAINLAN","city":"LAMARQUE/TEXAS CITY","lat":29.395008333333333,"lon":-94.98634166666666,"elev":29,"type":"P","ifr":true,"mag_var":2,"pad_id":"H1","pad_dim":"045045","area":"USA","country":"UNITED STATES","continent":"NORTH AMERICA"},{"icao":"0TA1","name":"TEXAS CHILDRENS HOSPITAL WEST","city":"HOUSTON","lat":29.788677777777778,"lon":-95.69150833333333,"elev":119,"type":"P","ifr":true,"mag_var":2,"pad_id":"H1","pad_dim":"045045","area":"USA","country":"UNITED STATES","continent":"NORTH AMERICA"},{"icao":"0TA3","name":"TEXAS HEALTH METHODIST ALLIANC","city":"FORT WORTH","lat":32.93012777777778,"lon":-97.30893888888889,"elev":782,"type":"P","ifr":false,"mag_var":3,"pad_id":"H1","pad_dim":"040040","area":"USA","country":"UNITED STATES","continent":"NORTH AMERICA"},{"icao":"0TA5","name":"METRO HELI-PAD","city":"HOUSTON","lat":29.61467777777778,"lon":-95.3549388888889,"elev":57,"type":"P","ifr":false,"mag_var":6,"pad_id":"H1","pad_dim":"200150","area":"USA","country":"UNITED STATES","continent":"NORTH AMERICA"},{"icao":"0TE1","name":"CHRISTUS SPOHN HOSPITAL MEML","city":"CORPUS CHRISTI","lat":27.780058333333333,"lon":-97.41480277777778,"elev":38,"type":"P","ifr":false,"mag_var":7,"pad_id":"H1","pad_dim":"100100","area":"USA","country":"UNITED STATES","continent":"NORTH AMERICA"},{"icao":"0TE2","name":"BELL HELICOPTER HURST","city":"HURST","lat":32.806425,"lon":-97.16406388888889,"elev":516,"type":"P","ifr":false,"mag_var":7,"pad_id":"H1","pad_dim":"070070","area":"USA","country":"UNITED STATES","continent":"NORTH AMERICA"},{"icao":"0TE3","name":"NORTH POST OAK","city":"HOUSTON","lat":29.795925,"lon":-95.45893055555555,"elev":68,"type":"P","ifr":false,"mag_var":2,"pad_id":"H1","pad_dim":"050050","area":"USA","country":"UNITED STATES","continent":"NORTH AMERICA"},{"icao":"0TN3","name":"PARK WEST","city":null,"lat":35.91625277777778,"lon":-84.10276944444445,"elev":984,"type":"P","ifr":false,"mag_var":-3,"pad_id":"H1","pad_dim":"062062","area":"USA","country":"UNITED STATES","continent":"NORTH AMERICA"},{"icao":"0TN4","name":"PHYSICIANS MEDICAL RGNL CENTER","city":null,"lat":35.99120277777778,"lon":-83.92727222222223,"elev":790,"type":"P","ifr":false,"mag_var":-3,"pad_id":"H1","pad_dim":"050050","area":"USA","country":"UNITED STATES","continent":"NORTH AMERICA"},{"icao":"0TN7","name":"HORNE PROPERTIES","city":null,"lat":35.92341388888889,"lon":-84.09056666666666,"elev":975,"type":"P","ifr":false,"mag_var":-4,"pad_id":"H1","pad_dim":"045045","area":"USA","country":"UNITED STATES","continent":"NORTH AMERICA"},{"icao":"0TN8","name":"ERLANGER MEDICAL CENTER","city":"ERLANGER","lat":35.04906666666667,"lon":-85.28921666666666,"elev":748,"type":"Y","ifr":true,"mag_var":-5,"pad_id":"H1","pad_dim":"025025","area":"USA","country":"UNITED STATES","continent":"NORTH AMERICA"},{"icao":"0TN9","name":"EAST TENNESSEE CHILDREN'S HOSP","city":null,"lat":35.95619444444444,"lon":-83.93823888888889,"elev":1003,"type":"P","ifr":false,"mag_var":-3,"pad_id":"H1","pad_dim":"046046","area":"USA","country":"UNITED STATES","continent":"NORTH AMERICA"},{"icao":"0TX2","name":"HELIPORT - FACILITY 5A","city":"GRAND PRAIRIE","lat":32.77605277777778,"lon":-97.06094166666666,"elev":546,"type":"P","ifr":false,"mag_var":7,"pad_id":"H1","pad_dim":"100100","area":"USA","country":"UNITED STATES","continent":"NORTH AMERICA"},{"icao":"0TX3","name":"UT HEALTH EAST TEXAS CARTHAGE","city":"CARTHAGE","lat":32.16643611111111,"lon":-94.3461,"elev":296,"type":"P","ifr":false,"mag_var":5,"pad_id":"H1","pad_dim":"020020","area":"USA","country":"UNITED STATES","continent":"NORTH AMERICA"},{"icao":"0VA6","name":"MC GUIRE VA MEDICAL CENTER PAD","city":null,"lat":37.496091666666665,"lon":-77.46231388888889,"elev":178,"type":"P","ifr":false,"mag_var":-9,"pad_id":"H1","pad_dim":"100100","area":"USA","country":"UNITED STATES","continent":"NORTH AMERICA"},{"icao":"0WA0","name":"STREAMLINE","city":null,"lat":47.982475,"lon":-122.03789444444445,"elev":116,"type":"P","ifr":false,"mag_var":15.1,"pad_id":"H1","pad_dim":"048016","area":"USA","country":"UNITED STATES","continent":"NORTH AMERICA"},{"icao":"0WA3","name":"SKAGIT VALLEY HOSPITAL","city":null,"lat":48.41805277777778,"lon":-122.32441944444444,"elev":202,"type":"P","ifr":false,"mag_var":15.2,"pad_id":"H1","pad_dim":"040040","area":"USA","country":"UNITED STATES","continent":"NORTH AMERICA"},{"icao":"0WA5","name":"WARE MOUNTAIN","city":null,"lat":48.37912222222222,"lon":-122.29081111111111,"elev":770,"type":"P","ifr":false,"mag_var":15.2,"pad_id":"H1","pad_dim":"024012","area":"USA","country":"UNITED STATES","continent":"NORTH AMERICA"},{"icao":"0WA5","name":"WARE MOUNTAIN","city":null,"lat":48.37912222222222,"lon":-122.29081111111111,"elev":770,"type":"P","ifr":false,"mag_var":15.2,"pad_id":"H2","pad_dim":"024012","area":"USA","country":"UNITED STATES","continent":"NORTH AMERICA"},{"icao":"0WA6","name":"SWEDISH EDMONDS","city":null,"lat":47.80370833333333,"lon":-122.33429722222222,"elev":370,"type":"P","ifr":false,"mag_var":20,"pad_id":"H1","pad_dim":"070070","area":"USA","country":"UNITED STATES","continent":"NORTH AMERICA"},{"icao":"0WA7","name":"SHAMROCK PORT","city":null,"lat":47.776944444444446,"lon":-117.0838888888889,"elev":2172,"type":"P","ifr":false,"mag_var":13.9,"pad_id":"H1","pad_dim":"020020","area":"USA","country":"UNITED STATES","continent":"NORTH AMERICA"},{"icao":"0WA9","name":"NAVAL STATION EVERETT","city":null,"lat":47.998333333333335,"lon":-122.24666666666667,"elev":21,"type":"M","ifr":false,"mag_var":20,"pad_id":"H1","pad_dim":"100100","area":"USA","country":"UNITED STATES","continent":"NORTH AMERICA"},{"icao":"0WI0","name":"AURORA ST LUKE'S MEDICAL CENTE","city":null,"lat":42.98890277777778,"lon":-87.951475,"elev":761,"type":"P","ifr":false,"mag_var":-1,"pad_id":"H1","pad_dim":"043044","area":"USA","country":"UNITED STATES","continent":"NORTH AMERICA"},{"icao":"0WI3","name":"AURORA LAKELAND MEDICAL CENTER","city":"ELKHORN","lat":42.66128333333333,"lon":-88.49804444444445,"elev":1038,"type":"P","ifr":true,"mag_var":-4,"pad_id":"H1","pad_dim":"060060","area":"USA","country":"UNITED STATES","continent":"NORTH AMERICA"},{"icao":"0WN4","name":"OLYMPIA","city":null,"lat":46.96526388888889,"lon":-122.89150277777777,"elev":200,"type":"P","ifr":false,"mag_var":15,"pad_id":"H1","pad_dim":"100100","area":"USA","country":"UNITED STATES","continent":"NORTH AMERICA"},{"icao":"0WN8","name":"SHELDON","city":null,"lat":47.25111111111111,"lon":-116.85194444444444,"elev":2129,"type":"P","ifr":false,"mag_var":13.7,"pad_id":"H1","pad_dim":"038010","area":"USA","country":"UNITED STATES","continent":"NORTH AMERICA"},{"icao":"0XA1","name":"KOTHMANN RANCH","city":"FORT MCKAVETT","lat":30.67888888888889,"lon":-100.13027777777778,"elev":2347,"type":"P","ifr":false,"mag_var":4,"pad_id":"H1","pad_dim":"030030","area":"USA","country":"UNITED STATES","continent":"NORTH AMERICA"},{"icao":"0XA2","name":"FT DUNCAN MEDICAL CENTER","city":"EAGLE PASS","lat":28.71388888888889,"lon":-100.45472222222222,"elev":884,"type":"P","ifr":false,"mag_var":5,"pad_id":"H1","pad_dim":"040040","area":"USA","country":"UNITED STATES","continent":"NORTH AMERICA"},{"icao":"0XA3","name":"MIDSTREAM FREEPORT","city":"FREEPORT","lat":28.96936388888889,"lon":-95.28510833333333,"elev":6,"type":"P","ifr":false,"mag_var":2,"pad_id":"H1","pad_dim":"027027","area":"USA","country":"UNITED STATES","continent":"NORTH AMERICA"},{"icao":"0XA3","name":"MIDSTREAM FREEPORT","city":"FREEPORT","lat":28.969191666666667,"lon":-95.28531666666666,"elev":6,"type":"P","ifr":false,"mag_var":2,"pad_id":"H2","pad_dim":"030027","area":"USA","country":"UNITED STATES","continent":"NORTH AMERICA"},{"icao":"0XA6","name":"FIBERTEX LLC","city":"LUBBOCK","lat":33.45,"lon":-101.939,"elev":3270,"type":"P","ifr":false,"mag_var":6,"pad_id":"H1","pad_dim":"050050","area":"USA","country":"UNITED STATES","continent":"NORTH AMERICA"},{"icao":"0XA9","name":"METHODIST MANSFIELD MEDICAL CE","city":"MANSFIELD","lat":32.567225,"lon":-97.09558888888888,"elev":633,"type":"P","ifr":false,"mag_var":3,"pad_id":"H1","pad_dim":"046046","area":"USA","country":"UNITED STATES","continent":"NORTH AMERICA"},{"icao":"0XS3","name":"SOUTH TEXAS PROJECT","city":"PALACIOS","lat":28.79222222222222,"lon":-96.04194444444444,"elev":32,"type":"P","ifr":false,"mag_var":6,"pad_id":"H1","pad_dim":"030030","area":"USA","country":"UNITED STATES","continent":"NORTH AMERICA"},{"icao":"10CL","name":"CENTERPORT","city":"COSTA MESA","lat":33.67169166666667,"lon":-117.87476111111111,"elev":83,"type":"P","ifr":false,"mag_var":11,"pad_id":"H1","pad_dim":"065120","area":"USA","country":"UNITED STATES","continent":"NORTH AMERICA"},{"icao":"10CN","name":"ADVENTIST HEALTH ST HELENA","city":"ST HELENA","lat":38.54333333333334,"lon":-122.475,"elev":581,"type":"P","ifr":false,"mag_var":13,"pad_id":"H1","pad_dim":"060060","area":"USA","country":"UNITED STATES","continent":"NORTH AMERICA"},