[{"ident":"6G","name":"RED DEER","type":"D","lat":null,"lon":null,"freq":113.8,"range":125,"mag_var":13.5,"dme_lat":52.18118611111111,"dme_lon":-113.88265833333334,"icao":"CY","area":"CAN","cat":"vhf"},{"ident":"AA","name":"AUCKLAND","type":"VD","lat":-37.00463888888889,"lon":174.8136388888889,"freq":114.8,"range":125,"mag_var":20.4,"dme_lat":-37.00452777777778,"dme_lon":174.81372222222222,"icao":"NZ","area":"SPA","cat":"vhf"},{"ident":"AAE","name":"AHMEDABAD","type":"VD","lat":23.068694444444443,"lon":72.62875,"freq":113.1,"range":130,"mag_var":0.6,"dme_lat":23.068694444444443,"dme_lon":72.62875,"icao":"VA","area":"MES","cat":"vhf"},{"ident":"AAL","name":"AALBORG","type":"VT","lat":57.103741666666664,"lon":9.995580555555556,"freq":116.7,"range":200,"mag_var":4.4,"dme_lat":57.10393333333333,"dme_lon":9.992808333333333,"icao":"EK","area":"EUR","cat":"vhf"},{"ident":"AAR","name":"AARHUS","type":"I","lat":null,"lon":null,"freq":111.9,"range":25,"mag_var":4.6,"dme_lat":56.30383055555556,"dme_lon":10.601102777777777,"icao":"EK","area":"EUR","cat":"vhf"},{"ident":"AAR","name":"ARAR","type":"VD","lat":30.90802777777778,"lon":41.14216666666667,"freq":113.3,"range":130,"mag_var":4.6,"dme_lat":30.90802777777778,"dme_lon":41.14216666666667,"icao":"OE","area":"MES","cat":"vhf"},{"ident":"AAR","name":"AMRITSAR","type":"VD","lat":31.72802777777778,"lon":74.78591666666667,"freq":115.5,"range":130,"mag_var":2.2,"dme_lat":31.72802777777778,"dme_lon":74.78591666666667,"icao":"VI","area":"MES","cat":"vhf"},{"ident":"AAT","name":"AGARTALA","type":"VD","lat":23.890416666666667,"lon":91.23863888888889,"freq":116.1,"range":130,"mag_var":-0.4,"dme_lat":23.890416666666667,"dme_lon":91.23863888888889,"icao":"VE","area":"MES","cat":"vhf"},{"ident":"AAT","name":"AGATTI","type":"D","lat":null,"lon":null,"freq":115.9,"range":125,"mag_var":-1.3,"dme_lat":10.82825,"dme_lon":72.1793888888889,"icao":"VO","area":"MES","cat":"vhf"},{"ident":"AAT","name":"ALTURAS","type":"D","lat":null,"lon":null,"freq":116.65,"range":125,"mag_var":13.3,"dme_lat":41.483352777777775,"dme_lon":-120.56154166666667,"icao":"K2","area":"USA","cat":"vhf"},{"ident":"AAU","name":"AURANGABAD","type":"VD","lat":19.86088888888889,"lon":75.40605555555555,"freq":116.3,"range":130,"mag_var":0,"dme_lat":19.86088888888889,"dme_lon":75.40605555555555,"icao":"VA","area":"MES","cat":"vhf"},{"ident":"ABA","name":"SCHIPHOL","type":"I","lat":null,"lon":null,"freq":111.95,"range":25,"mag_var":2.6,"dme_lat":52.29372222222222,"dme_lon":4.775027777777778,"icao":"EH","area":"EUR","cat":"vhf"},{"ident":"ABA","name":"ARUBA","type":"VD","lat":12.505666666666666,"lon":-69.94311111111111,"freq":112.5,"range":125,"mag_var":-11.7,"dme_lat":12.505666666666666,"dme_lon":-69.94311111111111,"icao":"TN","area":"LAM","cat":"vhf"},{"ident":"ABA","name":"ALBANY","type":"D","lat":null,"lon":null,"freq":109.7,"range":125,"mag_var":-1.7,"dme_lat":-34.949955555555555,"dme_lon":117.80986666666666,"icao":"YM","area":"SPA","cat":"vhf"},{"ident":"ABB","name":"ABBEVILLE","type":"D","lat":null,"lon":null,"freq":108.45,"range":125,"mag_var":1.8,"dme_lat":50.13513888888889,"dme_lon":1.8546944444444444,"icao":"LF","area":"EUR","cat":"vhf"},{"ident":"ABC","name":"ABUJA","type":"VD","lat":9.037805555555556,"lon":7.285111111111111,"freq":116.3,"range":130,"mag_var":0,"dme_lat":9.037805555555556,"dme_lon":7.285111111111111,"icao":"DN","area":"AFR","cat":"vhf"},{"ident":"ABD","name":"ABADAN","type":"VD","lat":30.375305555555556,"lon":48.22061111111111,"freq":115.1,"range":130,"mag_var":3.9,"dme_lat":30.375305555555556,"dme_lon":48.22061111111111,"icao":"OI","area":"MES","cat":"vhf"},{"ident":"ABD","name":"MALANG","type":"VD","lat":-7.932763888888889,"lon":112.71311111111112,"freq":116.1,"range":125,"mag_var":0.8,"dme_lat":-7.932763888888889,"dme_lon":112.71311111111112,"icao":"WA","area":"SPA","cat":"vhf"},{"ident":"ABH","name":"ABHA","type":"VT","lat":18.24191666666667,"lon":42.65694444444444,"freq":112.9,"range":130,"mag_var":2.8,"dme_lat":18.24191666666667,"dme_lon":42.65694444444444,"icao":"OE","area":"MES","cat":"vhf"},{"ident":"ABI","name":"DJIBOUTI","type":"T","lat":null,"lon":null,"freq":114.6,"range":125,"mag_var":1.8,"dme_lat":11.549222222222221,"dme_lon":43.15486111111111,"icao":"HD","area":"AFR","cat":"vhf"},{"ident":"ABI","name":"ABILENE","type":"VT","lat":32.48133055555556,"lon":-99.86345277777778,"freq":113.7,"range":125,"mag_var":4.3,"dme_lat":32.48133055555556,"dme_lon":-99.86345277777778,"icao":"K4","area":"USA","cat":"vhf"},{"ident":"ABK","name":"ABAKAN","type":"D","lat":null,"lon":null,"freq":113.3,"range":125,"mag_var":3.1,"dme_lat":53.744638888888886,"dme_lon":91.38552777777778,"icao":"UN","area":"EEU","cat":"vhf"},{"ident":"ABL","name":"AMBALEMA","type":"VD","lat":4.783888888888889,"lon":-74.7675,"freq":112.7,"range":125,"mag_var":-8.2,"dme_lat":4.783888888888889,"dme_lon":-74.7675,"icao":"SK","area":"SAM","cat":"vhf"},{"ident":"ABM","name":"ABUMUSA ISLAND","type":"D","lat":null,"lon":null,"freq":115.4,"range":125,"mag_var":2.4,"dme_lat":25.877916666666668,"dme_lon":55.02305555555556,"icao":"OI","area":"MES","cat":"vhf"},{"ident":"ABQ","name":"ALBUQUERQUE","type":"VT","lat":35.043794444444444,"lon":-106.8163111111111,"freq":113.2,"range":125,"mag_var":7.9,"dme_lat":35.043794444444444,"dme_lon":-106.8163111111111,"icao":"K2","area":"USA","cat":"vhf"},{"ident":"ABR","name":"ABERDEEN","type":"VD","lat":45.41735555555555,"lon":-98.36871944444445,"freq":113,"range":125,"mag_var":3.8,"dme_lat":45.41735555555555,"dme_lon":-98.36871944444445,"icao":"K3","area":"USA","cat":"vhf"},{"ident":"ABU","name":"ABU ARGUB","type":"VD","lat":32.462833333333336,"lon":13.169508333333333,"freq":115.1,"range":130,"mag_var":3.4,"dme_lat":32.462833333333336,"dme_lon":13.169508333333333,"icao":"HL","area":"AFR","cat":"vhf"},{"ident":"ABV","name":"ALEXANDER BAY","type":"VD","lat":-28.570652777777777,"lon":16.533833333333334,"freq":112.1,"range":125,"mag_var":-20,"dme_lat":-28.570652777777777,"dme_lon":16.533833333333334,"icao":"FA","area":"AFR","cat":"vhf"},{"ident":"ABW","name":"ASHGABAT","type":"I","lat":null,"lon":null,"freq":108.5,"range":25,"mag_var":5.3,"dme_lat":37.99986111111111,"dme_lon":58.347,"icao":"UT","area":"EEU","cat":"vhf"},{"ident":"AC","name":"NAPOLEON BONAPARTE","type":"I","lat":null,"lon":null,"freq":110.3,"range":25,"mag_var":3.4,"dme_lat":41.91488888888889,"dme_lon":8.79861111111111,"icao":"LF","area":"EUR","cat":"vhf"},{"ident":"ACA","name":"ACAPULCO","type":"VD","lat":16.758472222222224,"lon":-99.75396388888889,"freq":115.9,"range":125,"mag_var":4.3,"dme_lat":16.758472222222224,"dme_lon":-99.75396388888889,"icao":"MM","area":"LAM","cat":"vhf"},{"ident":"ACC","name":"ACCRA","type":"VD","lat":5.634069444444444,"lon":-0.1553638888888889,"freq":113.1,"range":125,"mag_var":-2.4,"dme_lat":5.634069444444444,"dme_lon":-0.1553638888888889,"icao":"DG","area":"AFR","cat":"vhf"},{"ident":"ACH","name":"ANTON CHICO","type":"VT","lat":35.11170555555555,"lon":-105.03992777777778,"freq":117.8,"range":125,"mag_var":7.1,"dme_lat":35.11170555555555,"dme_lon":-105.03992777777778,"icao":"K2","area":"USA","cat":"vhf"},{"ident":"ACK","name":"NANTUCKET","type":"VD","lat":41.281875,"lon":-70.02670277777777,"freq":116.2,"range":125,"mag_var":-14.1,"dme_lat":41.28188611111111,"dme_lon":-70.02671111111111,"icao":"K6","area":"USA","cat":"vhf"},{"ident":"ACO","name":"AKRON","type":"VD","lat":41.10790277777778,"lon":-81.20151944444444,"freq":114.4,"range":125,"mag_var":-8.6,"dme_lat":41.10790277777778,"dme_lon":-81.20151944444444,"icao":"K5","area":"USA","cat":"vhf"},{"ident":"ACT","name":"WACO","type":"VT","lat":31.662230555555556,"lon":-97.26901388888889,"freq":115.3,"range":125,"mag_var":2.9,"dme_lat":31.662230555555556,"dme_lon":-97.26901388888889,"icao":"K4","area":"USA","cat":"vhf"},{"ident":"ACV","name":"ARCATA","type":"VD","lat":40.98144166666667,"lon":-124.10831666666667,"freq":115.05,"range":125,"mag_var":13.8,"dme_lat":40.98144166666667,"dme_lon":-124.10831666666667,"icao":"K2","area":"USA","cat":"vhf"},{"ident":"ACY","name":"ATLANTIC CITY","type":"VT","lat":39.455875,"lon":-74.57631388888889,"freq":117.15,"range":125,"mag_var":-12,"dme_lat":39.455875,"dme_lon":-74.57631388888889,"icao":"K6","area":"USA","cat":"vhf"},{"ident":"AD","name":"TOUAT CHEIKH SIDI MOHAMED BELK","type":"I","lat":null,"lon":null,"freq":109.7,"range":25,"mag_var":0.9,"dme_lat":27.830058333333334,"dme_lon":-0.19519166666666665,"icao":"DA","area":"AFR","cat":"vhf"},{"ident":"AD","name":"ABIDJAN","type":"VD","lat":5.282816666666666,"lon":-3.916977777777778,"freq":114.3,"range":125,"mag_var":-3.5,"dme_lat":5.282816666666666,"dme_lon":-3.916977777777778,"icao":"DI","area":"AFR","cat":"vhf"},{"ident":"AD","name":"ANDA","type":"I","lat":null,"lon":null,"freq":108.3,"range":25,"mag_var":3.1,"dme_lat":61.82944722222222,"dme_lon":6.1116472222222225,"icao":"EN","area":"EUR","cat":"vhf"},{"ident":"AD","name":"ADELAIDE","type":"VD","lat":-34.94697222222222,"lon":138.5245277777778,"freq":116.4,"range":125,"mag_var":8.1,"dme_lat":-34.94708333333333,"dme_lon":138.52441666666667,"icao":"YM","area":"SPA","cat":"vhf"},{"ident":"ADA","name":"AL-MASSIRA","type":"I","lat":null,"lon":null,"freq":110.3,"range":25,"mag_var":-1.2,"dme_lat":30.320944444444443,"dme_lon":-9.398361111111111,"icao":"GM","area":"AFR","cat":"vhf"},{"ident":"ADA","name":"ADANA","type":"VD","lat":36.940583333333336,"lon":35.210388888888886,"freq":112.7,"range":130,"mag_var":5.7,"dme_lat":36.940583333333336,"dme_lon":35.210388888888886,"icao":"LT","area":"MES","cat":"vhf"},{"ident":"ADA","name":"ALDEIA ","type":"VD","lat":-22.812775,"lon":-42.09533888888889,"freq":112.1,"range":125,"mag_var":-23.3,"dme_lat":-22.812775,"dme_lon":-42.09533888888889,"icao":"SB","area":"SAM","cat":"vhf"},{"ident":"ADK","name":"MOUNT MOFFETT","type":"D","lat":null,"lon":null,"freq":114,"range":125,"mag_var":3.3,"dme_lat":51.871075,"dme_lon":-176.674275,"icao":"PA","area":"CAN","cat":"vhf"},{"ident":"ADL","name":"SOCHI","type":"VD","lat":43.45447222222222,"lon":39.96211111111111,"freq":112.7,"range":130,"mag_var":7.4,"dme_lat":43.45447222222222,"dme_lon":39.96211111111111,"icao":"UR","area":"EEU","cat":"vhf"},{"ident":"ADM","name":"AL-MASSIRA ","type":"VD","lat":30.321916666666667,"lon":-9.383472222222222,"freq":117.2,"range":125,"mag_var":-1.2,"dme_lat":30.321916666666667,"dme_lon":-9.383472222222222,"icao":"GM","area":"AFR","cat":"vhf"},{"ident":"ADM","name":"ADAMCLISI","type":"D","lat":null,"lon":null,"freq":111.6,"range":125,"mag_var":6.5,"dme_lat":44.09027777777778,"dme_lon":27.960833333333333,"icao":"LR","area":"EEU","cat":"vhf"},{"ident":"ADM","name":"ARDMORE","type":"VT","lat":34.21158611111111,"lon":-97.16822777777777,"freq":116.7,"range":125,"mag_var":2.8,"dme_lat":34.21158611111111,"dme_lon":-97.16822777777777,"icao":"K4","area":"USA","cat":"vhf"},{"ident":"ADN","name":"ABERDEEN","type":"VD","lat":57.31045,"lon":-2.267247222222222,"freq":114.3,"range":125,"mag_var":-0.3,"dme_lat":57.31045,"dme_lon":-2.267247222222222,"icao":"EG","area":"EUR","cat":"vhf"},{"ident":"ADN","name":"ROBERTO ","type":"VD","lat":25.865441666666666,"lon":-100.23879444444445,"freq":115.4,"range":125,"mag_var":4.4,"dme_lat":25.865441666666666,"dme_lon":-100.23879444444445,"icao":"MM","area":"LAM","cat":"vhf"},{"ident":"ADR","name":"ADRAR","type":"VD","lat":27.820333333333334,"lon":-0.20275833333333332,"freq":112.6,"range":125,"mag_var":0.9,"dme_lat":27.820333333333334,"dme_lon":-0.20275833333333332,"icao":"DA","area":"AFR","cat":"vhf"},{"ident":"ADS","name":"ADDIS ABABA","type":"VD","lat":8.975041666666666,"lon":38.7994,"freq":112.9,"range":130,"mag_var":2.2,"dme_lat":8.975041666666666,"dme_lon":38.7994,"icao":"HA","area":"AFR","cat":"vhf"},{"ident":"ADV","name":"ABU DHABI","type":"VD","lat":24.41896388888889,"lon":54.67324444444444,"freq":114.25,"range":100,"mag_var":2.1,"dme_lat":24.41896388888889,"dme_lon":54.67324444444444,"icao":"OM","area":"MES","cat":"vhf"},{"ident":"ADW","name":"ANDREWS ","type":"VT","lat":38.80721944444444,"lon":-76.86625555555555,"freq":113.1,"range":125,"mag_var":-10.8,"dme_lat":38.80721944444444,"dme_lon":-76.86625555555555,"icao":"K6","area":"USA","cat":"vhf"},{"ident":"AE","name":"ABECHE","type":"V","lat":13.846633333333333,"lon":20.86305,"freq":114.5,"range":130,"mag_var":2.9,"dme_lat":null,"dme_lon":null,"icao":"FT","area":"AFR","cat":"vhf"},{"ident":"AE","name":"AALBORG","type":"I","lat":null,"lon":null,"freq":109.9,"range":25,"mag_var":4.4,"dme_lat":57.095197222222225,"dme_lon":9.838177777777778,"icao":"EK","area":"EUR","cat":"vhf"},{"ident":"AE","name":"JORGE NEWBERY AEROPARQUE","type":"I","lat":null,"lon":null,"freq":109.5,"range":25,"mag_var":-10.1,"dme_lat":-34.556197222222224,"dme_lon":-58.42319166666667,"icao":"SA","area":"SAM","cat":"vhf"},{"ident":"AEA","name":"ALGHERO","type":"VD","lat":40.63816666666666,"lon":8.291777777777778,"freq":111.65,"range":40,"mag_var":3.2,"dme_lat":40.638194444444444,"dme_lon":8.291638888888889,"icao":"LI","area":"EUR","cat":"vhf"},{"ident":"AEL","name":"ALBERT LEA","type":"VD","lat":43.681736111111114,"lon":-93.37075555555556,"freq":109.8,"range":125,"mag_var":0.1,"dme_lat":43.681736111111114,"dme_lon":-93.37075555555556,"icao":"K3","area":"USA","cat":"vhf"},{"ident":"AEX","name":"ALEXANDRIA","type":"VT","lat":31.256730555555556,"lon":-92.50097222222222,"freq":116.1,"range":125,"mag_var":0,"dme_lat":31.256730555555556,"dme_lon":-92.50097222222222,"icao":"K4","area":"USA","cat":"vhf"},{"ident":"AFI","name":"AFFLIGEM","type":"VD","lat":50.907666666666664,"lon":4.138972222222222,"freq":114.9,"range":90,"mag_var":2.4,"dme_lat":50.907666666666664,"dme_lon":4.138972222222222,"icao":"EB","area":"EUR","cat":"vhf"},{"ident":"AG","name":"HOUARI BOUMEDIENE","type":"I","lat":null,"lon":null,"freq":110.3,"range":25,"mag_var":2.1,"dme_lat":36.71015,"dme_lon":3.2491666666666665,"icao":"DA","area":"AFR","cat":"vhf"},{"ident":"AGC","name":"ALLEGHENY ","type":"VD","lat":40.278644444444446,"lon":-80.04085555555555,"freq":110,"range":125,"mag_var":-9.2,"dme_lat":40.278644444444446,"dme_lon":-80.04085555555555,"icao":"K6","area":"USA","cat":"vhf"},{"ident":"AGD","name":"ALTENBURG","type":"D","lat":null,"lon":null,"freq":115.3,"range":125,"mag_var":4.7,"dme_lat":50.98268888888889,"dme_lon":12.512283333333333,"icao":"ED","area":"EUR","cat":"vhf"},{"ident":"AGG","name":"AGRA","type":"VD","lat":27.15727777777778,"lon":77.95655555555555,"freq":112,"range":150,"mag_var":1,"dme_lat":27.15727777777778,"dme_lon":77.95655555555555,"icao":"VI","area":"MES","cat":"vhf"},{"ident":"AGH","name":"ANCHIALOS","type":"VD","lat":39.21648888888889,"lon":22.794922222222223,"freq":110.4,"range":40,"mag_var":5.1,"dme_lat":39.21648888888889,"dme_lon":22.794922222222223,"icao":"LG","area":"EUR","cat":"vhf"},{"ident":"AGJ","name":"GOOCH SPRINGS","type":"VT","lat":31.185505555555554,"lon":-98.14185833333333,"freq":112.5,"range":125,"mag_var":3.4,"dme_lat":31.185505555555554,"dme_lon":-98.14185833333333,"icao":"K4","area":"USA","cat":"vhf"},{"ident":"AGN","name":"AGEN","type":"D","lat":null,"lon":null,"freq":114.8,"range":125,"mag_var":1.7,"dme_lat":43.88802777777778,"dme_lon":0.8728611111111112,"icao":"LF","area":"EUR","cat":"vhf"},{"ident":"AGO","name":"AGOY","type":"D","lat":null,"lon":null,"freq":116.8,"range":125,"mag_var":7.5,"dme_lat":44.138888888888886,"dme_lon":39.025,"icao":"UR","area":"EEU","cat":"vhf"},{"ident":"AGP","name":"MALAGA","type":"VD","lat":36.684333333333335,"lon":-4.487333333333333,"freq":117.15,"range":125,"mag_var":0.3,"dme_lat":36.684444444444445,"dme_lon":-4.48725,"icao":"LE","area":"EUR","cat":"vhf"},{"ident":"AGU","name":"AGUASCALIENTES","type":"VD","lat":21.7114,"lon":-102.31904722222222,"freq":113.6,"range":125,"mag_var":5.2,"dme_lat":21.7114,"dme_lon":-102.31904722222222,"icao":"MM","area":"LAM","cat":"vhf"},{"ident":"AGV","name":"AGGENEYS","type":"VD","lat":-29.481019444444446,"lon":18.562491666666666,"freq":116.7,"range":125,"mag_var":-21.7,"dme_lat":-29.481019444444446,"dme_lon":18.562491666666666,"icao":"FA","area":"AFR","cat":"vhf"},{"ident":"AGV","name":"ACARIGUA","type":"VD","lat":9.552083333333334,"lon":-69.23791666666666,"freq":113.4,"range":125,"mag_var":-12,"dme_lat":9.552083333333334,"dme_lon":-69.23791666666666,"icao":"SV","area":"SAM","cat":"vhf"},{"ident":"AGZ","name":"AYAGUZ","type":"VD","lat":47.931111111111115,"lon":80.44972222222222,"freq":113.6,"range":130,"mag_var":6,"dme_lat":47.931111111111115,"dme_lon":80.44972222222222,"icao":"UA","area":"EEU","cat":"vhf"},{"ident":"AHC","name":"AMEDEE ","type":"VD","lat":40.26786388888889,"lon":-120.15196666666667,"freq":109,"range":125,"mag_var":13,"dme_lat":40.26786388888889,"dme_lon":-120.15196666666667,"icao":"K2","area":"USA","cat":"vhf"},{"ident":"AHD","name":"ASHGABAT","type":"I","lat":null,"lon":null,"freq":108.7,"range":25,"mag_var":5.3,"dme_lat":37.98569444444445,"dme_lon":58.37844444444445,"icao":"UT","area":"EEU","cat":"vhf"},{"ident":"AHN","name":"ATHENS","type":"VD","lat":33.94759444444445,"lon":-83.32475833333334,"freq":116.95,"range":125,"mag_var":-6.3,"dme_lat":33.94759444444445,"dme_lon":-83.32475833333334,"icao":"K7","area":"USA","cat":"vhf"},{"ident":"AHO","name":"ALGHERO","type":"T","lat":null,"lon":null,"freq":109.3,"range":125,"mag_var":3.2,"dme_lat":40.63605555555556,"dme_lon":8.289555555555555,"icao":"LI","area":"EUR","cat":"vhf"},{"ident":"AHR","name":"ARVAIKHEER","type":"D","lat":null,"lon":null,"freq":115.6,"range":125,"mag_var":-3.4,"dme_lat":46.257777777777775,"dme_lon":102.79055555555556,"icao":"ZM","area":"EEU","cat":"vhf"},{"ident":"AHR","name":"HERAT","type":"VD","lat":34.206944444444446,"lon":62.23277777777778,"freq":116.2,"range":40,"mag_var":3.8,"dme_lat":34.206944444444446,"dme_lon":62.23277777777778,"icao":"OA","area":"MES","cat":"vhf"},{"ident":"AHT","name":"ASHIYA","type":"T","lat":null,"lon":null,"freq":108.6,"range":125,"mag_var":-8.1,"dme_lat":33.88742777777778,"dme_lon":130.64986666666667,"icao":"RJ","area":"PAC","cat":"vhf"},{"ident":"AIA","name":"ALLIANCE","type":"VD","lat":42.05563055555555,"lon":-102.80444444444444,"freq":111.8,"range":125,"mag_var":6.5,"dme_lat":42.05563055555555,"dme_lon":-102.80444444444444,"icao":"K3","area":"USA","cat":"vhf"},{"ident":"AIR","name":"BELLAIRE","type":"VD","lat":40.017025,"lon":-80.81722777777777,"freq":117.1,"range":125,"mag_var":-8.7,"dme_lat":40.01660555555556,"dme_lon":-80.81720555555556,"icao":"K5","area":"USA","cat":"vhf"},{"ident":"AJD","name":"AWAJI","type":"D","lat":null,"lon":null,"freq":115.6,"range":125,"mag_var":-8.1,"dme_lat":34.270377777777774,"dme_lon":134.7130138888889,"icao":"RJ","area":"PAC","cat":"vhf"},{"ident":"AJF","name":"AL JOUF","type":"VT","lat":29.789527777777778,"lon":40.07169444444445,"freq":117.8,"range":130,"mag_var":4.5,"dme_lat":29.789527777777778,"dme_lon":40.07169444444445,"icao":"OE","area":"MES","cat":"vhf"},{"ident":"AJO","name":"AJACCIO","type":"VD","lat":41.77052777777778,"lon":8.774666666666667,"freq":114.8,"range":200,"mag_var":3.3,"dme_lat":41.77008333333333,"dme_lon":8.774472222222222,"icao":"LF","area":"EUR","cat":"vhf"},{"ident":"AJR","name":"AGHAJARI","type":"VD","lat":30.74475,"lon":49.68036111111111,"freq":114.9,"range":130,"mag_var":3.9,"dme_lat":30.74475,"dme_lon":49.68036111111111,"icao":"OI","area":"MES","cat":"vhf"},{"ident":"AKB","name":"AKTOBE","type":"VD","lat":50.263416666666664,"lon":57.18188888888889,"freq":113.4,"range":130,"mag_var":11.1,"dme_lat":50.263416666666664,"dme_lon":57.18188888888889,"icao":"UA","area":"EEU","cat":"vhf"},{"ident":"AKD","name":"ANKANGFUQIANGDONG","type":"VD","lat":32.75333333333333,"lon":108.93,"freq":113.8,"range":130,"mag_var":-3.9,"dme_lat":32.75333333333333,"dme_lon":108.93,"icao":"ZL","area":"EEU","cat":"vhf"},{"ident":"AKE","name":"AMAKUSA","type":"VD","lat":32.48023611111111,"lon":130.16096666666667,"freq":113.45,"range":130,"mag_var":-7.7,"dme_lat":32.48023611111111,"dme_lon":130.16096666666667,"icao":"RJ","area":"PAC","cat":"vhf"},{"ident":"AKI","name":"AKUREYRI","type":"VD","lat":65.75980555555556,"lon":-18.00411111111111,"freq":113.6,"range":125,"mag_var":-9.8,"dme_lat":65.75980555555556,"dme_lon":-18.00411111111111,"icao":"BI","area":"EUR","cat":"vhf"},{"ident":"AKI","name":"AKHISAR","type":"T","lat":null,"lon":null,"freq":110.2,"range":125,"mag_var":5.6,"dme_lat":38.8195,"dme_lon":27.827222222222222,"icao":"LT","area":"MES","cat":"vhf"},{"ident":"AKJ","name":"AL KHARJ","type":"VT","lat":24.068194444444444,"lon":47.407444444444444,"freq":117.3,"range":130,"mag_var":2.9,"dme_lat":24.068194444444444,"dme_lon":47.407444444444444,"icao":"OE","area":"MES","cat":"vhf"},{"ident":"AKN","name":"KING SALMON","type":"VT","lat":58.724713888888886,"lon":-156.75234722222223,"freq":112.8,"range":125,"mag_var":11.5,"dme_lat":58.724713888888886,"dme_lon":-156.75234722222223,"icao":"PA","area":"CAN","cat":"vhf"},{"ident":"AKO","name":"AKRON","type":"VD","lat":40.15555555555556,"lon":-103.17971388888888,"freq":114.4,"range":125,"mag_var":6.6,"dme_lat":40.15555555555556,"dme_lon":-103.17971388888888,"icao":"K2","area":"USA","cat":"vhf"},{"ident":"AKR","name":"AKROTIRI","type":"T","lat":null,"lon":null,"freq":116,"range":125,"mag_var":5.3,"dme_lat":34.583958333333335,"dme_lon":33.01253611111111,"icao":"LC","area":"MES","cat":"vhf"},{"ident":"AKS","name":"AKSU","type":"VD","lat":41.26166666666666,"lon":80.285,"freq":115.1,"range":130,"mag_var":3.8,"dme_lat":41.26166666666666,"dme_lon":80.285,"icao":"ZW","area":"EEU","cat":"vhf"},{"ident":"AKT","name":"AKTAU","type":"VD","lat":43.872305555555556,"lon":51.064416666666666,"freq":113.3,"range":130,"mag_var":7.8,"dme_lat":43.872305555555556,"dme_lon":51.064416666666666,"icao":"UA","area":"EEU","cat":"vhf"},{"ident":"AKT","name":"PREVEZA","type":"VD","lat":38.925913888888886,"lon":20.76217777777778,"freq":110,"range":40,"mag_var":4.9,"dme_lat":38.925913888888886,"dme_lon":20.76217777777778,"icao":"LG","area":"EUR","cat":"vhf"},{"ident":"AKT","name":"AKENO","type":"T","lat":null,"lon":null,"freq":112.05,"range":125,"mag_var":-7.9,"dme_lat":34.528527777777775,"dme_lon":136.67516666666666,"icao":"RJ","area":"PAC","cat":"vhf"},{"ident":"AKW","name":"UYO","type":"VD","lat":4.895277777777778,"lon":8.104944444444444,"freq":113.8,"range":130,"mag_var":-0.5,"dme_lat":4.895277777777778,"dme_lon":8.104944444444444,"icao":"DN","area":"AFR","cat":"vhf"},{"ident":"AKW","name":"KLAWOCK","type":"D","lat":null,"lon":null,"freq":115.8,"range":125,"mag_var":17.4,"dme_lat":55.568416666666664,"dme_lon":-133.08094722222222,"icao":"PA","area":"CAN","cat":"vhf"},{"ident":"AL","name":"HOUARI BOUMEDIENE","type":"I","lat":null,"lon":null,"freq":109.5,"range":25,"mag_var":2.1,"dme_lat":36.690133333333335,"dme_lon":3.2065472222222224,"icao":"DA","area":"AFR","cat":"vhf"},{"ident":"ALA","name":"AL AIN","type":"VD","lat":24.282,"lon":55.614805555555556,"freq":115.9,"range":40,"mag_var":2,"dme_lat":24.282,"dme_lon":55.614805555555556,"icao":"OM","area":"MES","cat":"vhf"},{"ident":"ALB","name":"ALBENGA","type":"VD","lat":44.04816666666667,"lon":8.127611111111111,"freq":116.95,"range":40,"mag_var":3.3,"dme_lat":44.04827777777778,"dme_lon":8.127611111111111,"icao":"LI","area":"EUR","cat":"vhf"},{"ident":"ALB","name":"AL BATEEN ","type":"VD","lat":24.438669444444443,"lon":54.44634166666667,"freq":114,"range":40,"mag_var":2.2,"dme_lat":24.438669444444443,"dme_lon":54.44634166666667,"icao":"OM","area":"MES","cat":"vhf"},{"ident":"ALB","name":"ALBANY","type":"VT","lat":42.747280555555555,"lon":-73.80318333333334,"freq":115.3,"range":125,"mag_var":-13,"dme_lat":42.747280555555555,"dme_lon":-73.80318333333334,"icao":"K6","area":"USA","cat":"vhf"},{"ident":"ALC","name":"ALCANTARI","type":"VD","lat":-19.267777777777777,"lon":-65.14305555555555,"freq":113.4,"range":125,"mag_var":-11.5,"dme_lat":-19.267777777777777,"dme_lon":-65.14305555555555,"icao":"SL","area":"SAM","cat":"vhf"},{"ident":"ALD","name":"ALLGAU ","type":"D","lat":null,"lon":null,"freq":117.2,"range":125,"mag_var":4,"dme_lat":47.9887,"dme_lon":10.231230555555555,"icao":"ED","area":"EUR","cat":"vhf"},{"ident":"ALD","name":"AL UDEID","type":"VT","lat":25.092761111111113,"lon":51.32586666666667,"freq":115.2,"range":130,"mag_var":2.6,"dme_lat":25.092761111111113,"dme_lon":51.32586666666667,"icao":"OT","area":"MES","cat":"vhf"},{"ident":"ALD","name":"ALLENDALE","type":"V","lat":33.01249444444444,"lon":-81.29223333333333,"freq":116.7,"range":125,"mag_var":-7.5,"dme_lat":null,"dme_lon":null,"icao":"K7","area":"USA","cat":"vhf"},{"ident":"ALE","name":"ALEPPO","type":"VD","lat":36.17968333333334,"lon":37.209377777777775,"freq":114.5,"range":130,"mag_var":5.6,"dme_lat":36.17968333333334,"dme_lon":37.209377777777775,"icao":"OS","area":"MES","cat":"vhf"},{"ident":"ALF","name":"ALSTER","type":"D","lat":null,"lon":null,"freq":115.8,"range":125,"mag_var":4.2,"dme_lat":53.63536111111111,"dme_lon":9.99408888888889,"icao":"ED","area":"EUR","cat":"vhf"},{"ident":"ALG","name":"ALGHERO","type":"VT","lat":40.62813888888889,"lon":8.24388888888889,"freq":113.8,"range":200,"mag_var":3.2,"dme_lat":40.62822222222222,"dme_lon":8.243833333333333,"icao":"LI","area":"EUR","cat":"vhf"},{"ident":"ALH","name":"CHERIF EL IDRISSI INTL","type":"I","lat":null,"lon":null,"freq":110.3,"range":25,"mag_var":0.5,"dme_lat":35.18556944444445,"dme_lon":-3.8422388888888888,"icao":"GM","area":"AFR","cat":"vhf"},{"ident":"ALH","name":"PRAYAGRAJ","type":"VD","lat":25.443805555555556,"lon":81.72339722222222,"freq":113.3,"range":40,"mag_var":0.4,"dme_lat":25.443805555555556,"dme_lon":81.72339722222222,"icao":"VE","area":"MES","cat":"vhf"},{"ident":"ALI","name":"AL-ASHRAF ","type":"VD","lat":31.986083333333333,"lon":44.409055555555554,"freq":114.7,"range":40,"mag_var":4.5,"dme_lat":31.986083333333333,"dme_lon":44.409055555555554,"icao":"OR","area":"MES","cat":"vhf"},{"ident":"ALI","name":"ALIGARH","type":"VD","lat":27.829233333333335,"lon":78.17845277777778,"freq":117.9,"range":130,"mag_var":1.1,"dme_lat":27.829233333333335,"dme_lon":78.17845277777778,"icao":"VI","area":"MES","cat":"vhf"},{"ident":"ALI","name":"ALICE","type":"V","lat":27.7398,"lon":-98.02134166666667,"freq":114.5,"range":125,"mag_var":3.3,"dme_lat":null,"dme_lon":null,"icao":"K4","area":"USA","cat":"vhf"},{"ident":"ALM","name":"AL HOCEIMA","type":"VD","lat":35.18810833333333,"lon":-3.837938888888889,"freq":115,"range":125,"mag_var":0.5,"dme_lat":35.18810833333333,"dme_lon":-3.837938888888889,"icao":"GM","area":"AFR","cat":"vhf"},{"ident":"ALO","name":"WATERLOO","type":"VD","lat":42.55649722222222,"lon":-92.398925,"freq":112.2,"range":125,"mag_var":-0.6,"dme_lat":42.55649722222222,"dme_lon":-92.398925,"icao":"K3","area":"USA","cat":"vhf"},{"ident":"ALR","name":"DAR EL BEIDA","type":"VD","lat":36.69099722222222,"lon":3.2154805555555557,"freq":112.5,"range":130,"mag_var":2.1,"dme_lat":36.69099722222222,"dme_lon":3.2154805555555557,"icao":"DA","area":"AFR","cat":"vhf"},{"ident":"ALR","name":"ALCANTARA","type":"VD","lat":-2.371486111111111,"lon":-44.39709722222222,"freq":116.7,"range":125,"mag_var":-20.6,"dme_lat":-2.371486111111111,"dme_lon":-44.39709722222222,"icao":"SB","area":"SAM","cat":"vhf"},{"ident":"ALS","name":"ALSIE","type":"V","lat":54.90541388888889,"lon":9.993377777777777,"freq":114.7,"range":80,"mag_var":4.3,"dme_lat":null,"dme_lon":null,"icao":"EK","area":"EUR","cat":"vhf"},{"ident":"ALS","name":"ALAMOSA","type":"VT","lat":37.349158333333335,"lon":-105.81553333333333,"freq":113.9,"range":125,"mag_var":7.7,"dme_lat":37.349158333333335,"dme_lon":-105.81553333333333,"icao":"K2","area":"USA","cat":"vhf"},{"ident":"ALT","name":"ALTET","type":"VD","lat":38.268277777777776,"lon":-0.570111111111111,"freq":113.8,"range":125,"mag_var":1.3,"dme_lat":38.26833333333333,"dme_lon":-0.5700555555555555,"icao":"LE","area":"EUR","cat":"vhf"},{"ident":"ALT","name":"AMAMI","type":"T","lat":null,"lon":null,"freq":115.5,"range":125,"mag_var":-6.5,"dme_lat":28.443472222222223,"dme_lon":129.5834,"icao":"RO","area":"PAC","cat":"vhf"},{"ident":"ALW","name":"WALLA WALLA","type":"VD","lat":46.086977777777776,"lon":-118.2925361111111,"freq":116.4,"range":125,"mag_var":13.8,"dme_lat":46.086977777777776,"dme_lon":-118.2925361111111,"icao":"K1","area":"USA","cat":"vhf"},{"ident":"ALX","name":"ALEXANDROUPOLIS","type":"VD","lat":40.85393611111111,"lon":25.956733333333332,"freq":113.8,"range":150,"mag_var":5.7,"dme_lat":40.85393611111111,"dme_lon":25.956733333333332,"icao":"LG","area":"EUR","cat":"vhf"},{"ident":"AM","name":"BRIE CHAMPNIERS","type":"I","lat":null,"lon":null,"freq":109.35,"range":25,"mag_var":1.5,"dme_lat":45.72986111111111,"dme_lon":0.22630555555555557,"icao":"LF","area":"EUR","cat":"vhf"},{"ident":"AMB","name":"AMBOISE","type":"D","lat":null,"lon":null,"freq":113.7,"range":125,"mag_var":1.6,"dme_lat":47.428916666666666,"dme_lon":1.0644444444444445,"icao":"LF","area":"EUR","cat":"vhf"},{"ident":"AMB","name":"SANTIAGO","type":"VD","lat":-33.41972222222222,"lon":-70.78444444444445,"freq":116.1,"range":125,"mag_var":0.4,"dme_lat":-33.41972222222222,"dme_lon":-70.78444444444445,"icao":"SC","area":"SAM","cat":"vhf"},{"ident":"AMB","name":"AMBERLEY","type":"T","lat":null,"lon":null,"freq":112.5,"range":125,"mag_var":11,"dme_lat":-27.641527777777778,"dme_lon":152.7161111111111,"icao":"YB","area":"SPA","cat":"vhf"},{"ident":"AMD","name":"DOHA INTL","type":"I","lat":null,"lon":null,"freq":108.5,"range":25,"mag_var":2.6,"dme_lat":25.271652777777778,"dme_lon":51.56171388888889,"icao":"OT","area":"MES","cat":"vhf"},{"ident":"AME","name":"KASARI ","type":"VD","lat":28.434716666666667,"lon":129.71140833333334,"freq":113.95,"range":130,"mag_var":-6.5,"dme_lat":28.434716666666667,"dme_lon":129.71140833333334,"icao":"RO","area":"PAC","cat":"vhf"},{"ident":"AMG","name":"ALMA","type":"T","lat":null,"lon":null,"freq":115.1,"range":125,"mag_var":-6.6,"dme_lat":31.536555555555555,"dme_lon":-82.50808888888889,"icao":"K7","area":"USA","cat":"vhf"},{"ident":"AMI","name":"AMARI","type":"VT","lat":59.26716666666667,"lon":24.246805555555557,"freq":115.3,"range":150,"mag_var":9.8,"dme_lat":59.26716666666667,"dme_lon":24.246805555555557,"icao":"EE","area":"EEU","cat":"vhf"},{"ident":"AML","name":"ANDRAVIDA","type":"M","lat":null,"lon":null,"freq":133.4,"range":125,"mag_var":4.8,"dme_lat":37.93,"dme_lon":21.284666666666666,"icao":"LG","area":"EUR","cat":"vhf"},{"ident":"AML","name":"ARMEL ","type":"VD","lat":38.93459166666667,"lon":-77.46670277777778,"freq":113.5,"range":125,"mag_var":-10.5,"dme_lat":38.93459166666667,"dme_lon":-77.46670277777778,"icao":"K6","area":"USA","cat":"vhf"},{"ident":"AMN","name":"AMMAN","type":"VD","lat":32.00407222222222,"lon":36.06598611111111,"freq":116.3,"range":130,"mag_var":4.9,"dme_lat":32.00407222222222,"dme_lon":36.06598611111111,"icao":"OJ","area":"MES","cat":"vhf"},{"ident":"AMN","name":"AMBON","type":"VD","lat":-3.6149194444444444,"lon":128.18606111111112,"freq":115.5,"range":125,"mag_var":0.6,"dme_lat":-3.6149194444444444,"dme_lon":128.18606111111112,"icao":"WA","area":"SPA","cat":"vhf"},{"ident":"AMR","name":"ALMERIA","type":"VD","lat":36.83316666666666,"lon":-2.2594166666666666,"freq":114.1,"range":125,"mag_var":0.9,"dme_lat":36.83316666666666,"dme_lon":-2.2594166666666666,"icao":"LE","area":"EUR","cat":"vhf"},{"ident":"AMS","name":"AMSTERDAM","type":"D","lat":null,"lon":null,"freq":113.95,"range":125,"mag_var":2.6,"dme_lat":52.33263888888889,"dme_lon":4.705694444444444,"icao":"EH","area":"EUR","cat":"vhf"},{"ident":"AMS","name":"MAZAR","type":"VD","lat":36.70211111111111,"lon":67.21125,"freq":116.8,"range":130,"mag_var":4.2,"dme_lat":36.70211111111111,"dme_lon":67.21125,"icao":"OA","area":"MES","cat":"vhf"},{"ident":"AN","name":"RABAH BITAT","type":"I","lat":null,"lon":null,"freq":109.7,"range":25,"mag_var":2.9,"dme_lat":36.84247222222222,"dme_lon":7.811219444444444,"icao":"DA","area":"AFR","cat":"vhf"},{"ident":"AN","name":"FELIX HOUPHOUET-BOIGNY","type":"I","lat":null,"lon":null,"freq":110.3,"range":25,"mag_var":-3.5,"dme_lat":5.270666666666667,"dme_lon":-3.9207222222222224,"icao":"DI","area":"AFR","cat":"vhf"},{"ident":"AN","name":"ANDOYA","type":"I","lat":null,"lon":null,"freq":109.35,"range":25,"mag_var":9.4,"dme_lat":69.28357222222222,"dme_lon":16.159269444444444,"icao":"EN","area":"EUR","cat":"vhf"},{"ident":"ANB","name":"ANNABA","type":"VD","lat":36.83244444444444,"lon":7.814583333333333,"freq":113.5,"range":130,"mag_var":2.9,"dme_lat":36.83244444444444,"dme_lon":7.814583333333333,"icao":"DA","area":"AFR","cat":"vhf"},{"ident":"ANC","name":"ANCONA","type":"VD","lat":43.586444444444446,"lon":13.471111111111112,"freq":110.65,"range":100,"mag_var":4.3,"dme_lat":43.58647222222222,"dme_lon":13.47125,"icao":"LI","area":"EUR","cat":"vhf"},{"ident":"AND","name":"TEPLYY KLYUCH","type":"VD","lat":62.791111111111114,"lon":136.85361111111112,"freq":113.8,"range":125,"mag_var":-16.2,"dme_lat":62.791111111111114,"dme_lon":136.85361111111112,"icao":"UE","area":"EEU","cat":"vhf"},{"ident":"AND","name":"ANDONG","type":"VD","lat":30.256666666666668,"lon":121.22166666666666,"freq":114.8,"range":130,"mag_var":-6.2,"dme_lat":30.256666666666668,"dme_lon":121.22166666666666,"icao":"ZS","area":"EEU","cat":"vhf"},{"ident":"AND","name":"ANDOYA","type":"VD","lat":69.28782777777778,"lon":16.141377777777777,"freq":112.2,"range":130,"mag_var":9.4,"dme_lat":69.28782777777778,"dme_lon":16.141377777777777,"icao":"EN","area":"EUR","cat":"vhf"},{"ident":"AND","name":"ANDAHUAYLAS","type":"VD","lat":-13.714225,"lon":-73.37783333333333,"freq":114.3,"range":125,"mag_var":-6.1,"dme_lat":-13.714225,"dme_lon":-73.37783333333333,"icao":"SP","area":"SAM","cat":"vhf"},{"ident":"ANE","name":"ARLANDA ","type":"D","lat":null,"lon":null,"freq":113.3,"range":125,"mag_var":7.7,"dme_lat":59.69397222222222,"dme_lon":18.05986111111111,"icao":"ES","area":"EUR","cat":"vhf"},{"ident":"ANG","name":"ANGADS","type":"I","lat":null,"lon":null,"freq":108.1,"range":25,"mag_var":0.9,"dme_lat":34.80927777777778,"dme_lon":-1.948861111111111,"icao":"GM","area":"AFR","cat":"vhf"},{"ident":"ANG","name":"NIZHNEANGARSK","type":"D","lat":null,"lon":null,"freq":113.8,"range":125,"mag_var":-8.3,"dme_lat":55.799166666666665,"dme_lon":109.59666666666666,"icao":"UI","area":"EEU","cat":"vhf"},{"ident":"ANG","name":"ANGERS","type":"D","lat":null,"lon":null,"freq":111.05,"range":125,"mag_var":1.1,"dme_lat":47.53686111111111,"dme_lon":-0.8518333333333333,"icao":"LF","area":"EUR","cat":"vhf"},{"ident":"ANK","name":"ANKARA","type":"D","lat":null,"lon":null,"freq":114.9,"range":125,"mag_var":6.1,"dme_lat":39.95327777777778,"dme_lon":32.82833333333333,"icao":"LT","area":"MES","cat":"vhf"},{"ident":"ANK","name":"ANARAK","type":"VD","lat":33.537527777777775,"lon":53.72966666666667,"freq":112.7,"range":130,"mag_var":4.2,"dme_lat":33.537527777777775,"dme_lon":53.72966666666667,"icao":"OI","area":"MES","cat":"vhf"},{"ident":"ANL","name":"NEA ANCHIALOS","type":"T","lat":null,"lon":null,"freq":115.6,"range":125,"mag_var":5.1,"dme_lat":39.21366666666667,"dme_lon":22.744166666666665,"icao":"LG","area":"EUR","cat":"vhf"},{"ident":"ANN","name":"ANNETTE ISLAND","type":"VD","lat":55.060408333333335,"lon":-131.5784,"freq":117.1,"range":125,"mag_var":17.3,"dme_lat":55.060408333333335,"dme_lon":-131.5784,"icao":"PA","area":"CAN","cat":"vhf"},{"ident":"ANT","name":"ANTWERP ","type":"VD","lat":51.19047222222222,"lon":4.472583333333334,"freq":113.5,"range":40,"mag_var":2.5,"dme_lat":51.19047222222222,"dme_lon":4.472583333333334,"icao":"EB","area":"EUR","cat":"vhf"},{"ident":"ANT","name":"ANTONI","type":"D","lat":null,"lon":null,"freq":113.7,"range":125,"mag_var":10.7,"dme_lat":60.86300833333333,"dme_lon":25.126819444444443,"icao":"EF","area":"EUR","cat":"vhf"},{"ident":"ANT","name":"ANTALYA","type":"D","lat":null,"lon":null,"freq":109.1,"range":125,"mag_var":5.5,"dme_lat":36.87572222222222,"dme_lon":30.789305555555554,"icao":"LT","area":"MES","cat":"vhf"},{"ident":"ANU","name":"ANAMBRA","type":"VD","lat":6.279722222222222,"lon":6.895138888888889,"freq":113.8,"range":125,"mag_var":-0.5,"dme_lat":6.279722222222222,"dme_lon":6.895138888888889,"icao":"DN","area":"AFR","cat":"vhf"},{"ident":"ANU","name":"V C BIRD ","type":"VD","lat":17.125880555555554,"lon":-61.80016666666667,"freq":114.5,"range":125,"mag_var":-15.1,"dme_lat":17.125880555555554,"dme_lon":-61.80016666666667,"icao":"TA","area":"LAM","cat":"vhf"},{"ident":"ANW","name":"ARLANDA ","type":"D","lat":null,"lon":null,"freq":112.05,"range":125,"mag_var":7.7,"dme_lat":59.713277777777776,"dme_lon":17.85258333333333,"icao":"ES","area":"EUR","cat":"vhf"},{"ident":"ANW","name":"AINSWORTH","type":"VD","lat":42.569113888888886,"lon":-99.9896611111111,"freq":112.7,"range":125,"mag_var":4.8,"dme_lat":42.569113888888886,"dme_lon":-99.9896611111111,"icao":"K3","area":"USA","cat":"vhf"},{"ident":"ANX","name":"NAPOLEON","type":"VT","lat":39.095425,"lon":-94.12883611111111,"freq":115.15,"range":125,"mag_var":0.8,"dme_lat":39.095425,"dme_lon":-94.12883611111111,"icao":"K3","area":"USA","cat":"vhf"},{"ident":"ANY","name":"SEMARANG","type":"VD","lat":-6.974694444444444,"lon":110.3801111111111,"freq":115.2,"range":125,"mag_var":0.8,"dme_lat":-6.974694444444444,"dme_lon":110.3801111111111,"icao":"WI","area":"SPA","cat":"vhf"},{"ident":"ANY","name":"ANTHONY","type":"T","lat":null,"lon":null,"freq":112.9,"range":125,"mag_var":3.5,"dme_lat":37.15898333333333,"dme_lon":-98.170775,"icao":"K3","area":"USA","cat":"vhf"},{"ident":"AO","name":"ALGASOVO","type":"D","lat":null,"lon":null,"freq":115.3,"range":125,"mag_var":11.7,"dme_lat":53.68,"dme_lon":41.68,"icao":"UU","area":"EEU","cat":"vhf"},{"ident":"AOG","name":"ROTA","type":"T","lat":null,"lon":null,"freq":108.6,"range":125,"mag_var":-0.2,"dme_lat":36.64786111111111,"dme_lon":-6.349055555555555,"icao":"LE","area":"EUR","cat":"vhf"},{"ident":"AP","name":"TAUPO","type":"D","lat":null,"lon":null,"freq":116.7,"range":125,"mag_var":21.6,"dme_lat":-38.74321388888889,"dme_lon":176.07428611111112,"icao":"NZ","area":"SPA","cat":"vhf"},{"ident":"APE","name":"APPLETON","type":"VT","lat":40.15106388888889,"lon":-82.5883,"freq":116.7,"range":125,"mag_var":-7.5,"dme_lat":40.15106388888889,"dme_lon":-82.5883,"icao":"K5","area":"USA","cat":"vhf"},{"ident":"APN","name":"ALPENA","type":"VT","lat":45.08277777777778,"lon":-83.55700277777778,"freq":116.5,"range":125,"mag_var":-7.6,"dme_lat":45.08278888888889,"dme_lon":-83.55623055555556,"icao":"K5","area":"USA","cat":"vhf"},{"ident":"APO","name":"ANAPOLIS","type":"VD","lat":-16.245366666666666,"lon":-48.97908888888889,"freq":116.8,"range":125,"mag_var":-21.7,"dme_lat":-16.245366666666666,"dme_lon":-48.97908888888889,"icao":"SB","area":"SAM","cat":"vhf"},{"ident":"APU","name":"ANBU ","type":"VD","lat":25.176861111111112,"lon":121.52225,"freq":112.5,"range":130,"mag_var":-5,"dme_lat":25.176861111111112,"dme_lon":121.52225,"icao":"RC","area":"PAC","cat":"vhf"},{"ident":"AQB","name":"KING HUSSEIN ","type":"VD","lat":29.582927777777776,"lon":35.00802777777778,"freq":113.1,"range":130,"mag_var":4.7,"dme_lat":29.582927777777776,"dme_lon":35.00802777777778,"icao":"OJ","area":"MES","cat":"vhf"},{"ident":"ARA","name":"ARAXOS","type":"VD","lat":38.15898333333333,"lon":21.42941111111111,"freq":112.7,"range":150,"mag_var":4.9,"dme_lat":38.15898333333333,"dme_lon":21.42941111111111,"icao":"LG","area":"EUR","cat":"vhf"},{"ident":"ARB","name":"ARDABIL","type":"VD","lat":38.315694444444446,"lon":48.43475,"freq":115.7,"range":130,"mag_var":5.9,"dme_lat":38.315694444444446,"dme_lon":48.43475,"icao":"OI","area":"MES","cat":"vhf"},{"ident":"ARD","name":"ARAD","type":"VD","lat":46.184083333333334,"lon":21.14361111111111,"freq":109,"range":175,"mag_var":5.9,"dme_lat":46.184083333333334,"dme_lon":21.14361111111111,"icao":"LR","area":"EEU","cat":"vhf"},{"ident":"ARD","name":"ARADAH","type":"VD","lat":21.227694444444445,"lon":55.265027777777775,"freq":116.9,"range":130,"mag_var":1.5,"dme_lat":21.227694444444445,"dme_lon":55.265027777777775,"icao":"OE","area":"MES","cat":"vhf"},{"ident":"ARD","name":"YARDLEY","type":"VD","lat":40.253341666666664,"lon":-74.90761111111111,"freq":108.2,"range":125,"mag_var":-12,"dme_lat":40.253341666666664,"dme_lon":-74.90761111111111,"icao":"K6","area":"USA","cat":"vhf"},{"ident":"ARF","name":"CENGIZ TOPEL","type":"T","lat":null,"lon":null,"freq":113.9,"range":125,"mag_var":6.1,"dme_lat":40.73777777777778,"dme_lon":30.065361111111113,"icao":"LT","area":"MES","cat":"vhf"},{"ident":"ARG","name":"ARGYLE","type":"VD","lat":-16.631694444444445,"lon":128.44875,"freq":113.9,"range":125,"mag_var":2.3,"dme_lat":-16.63463888888889,"dme_lon":128.44752777777776,"icao":"YB","area":"SPA","cat":"vhf"},{"ident":"ARG","name":"WALNUT RIDGE","type":"VT","lat":36.11001944444445,"lon":-90.95369444444444,"freq":114.5,"range":125,"mag_var":-1.3,"dme_lat":36.11001944444445,"dme_lon":-90.95369444444444,"icao":"K4","area":"USA","cat":"vhf"},{"ident":"ARH","name":"EL ARISH","type":"VD","lat":31.073,"lon":33.83186111111111,"freq":113.6,"range":150,"mag_var":4.9,"dme_lat":31.073,"dme_lon":33.83186111111111,"icao":"HE","area":"AFR","cat":"vhf"},{"ident":"ARH","name":"FORT HUACHUCA","type":"T","lat":null,"lon":null,"freq":111.6,"range":125,"mag_var":8.8,"dme_lat":31.585580555555556,"dme_lon":-110.33898333333333,"icao":"K2","area":"USA","cat":"vhf"},{"ident":"ARI","name":"NADOR","type":"VD","lat":34.986777777777775,"lon":-3.02925,"freq":116,"range":125,"mag_var":0.7,"dme_lat":34.986777777777775,"dme_lon":-3.02925,"icao":"GM","area":"AFR","cat":"vhf"},{"ident":"ARI","name":"AGRI","type":"VD","lat":39.646055555555556,"lon":43.027,"freq":116.7,"range":130,"mag_var":6.4,"dme_lat":39.646055555555556,"dme_lon":43.027,"icao":"LT","area":"MES","cat":"vhf"},{"ident":"ARI","name":"ARICA","type":"VD","lat":-18.369444444444444,"lon":-70.3463888888889,"freq":116.5,"range":125,"mag_var":-7.3,"dme_lat":-18.369444444444444,"dme_lon":-70.3463888888889,"icao":"SC","area":"SAM","cat":"vhf"},{"ident":"ARK","name":"ARKALYK","type":"VD","lat":50.31777777777778,"lon":67.02166666666666,"freq":113,"range":130,"mag_var":10.3,"dme_lat":50.31777777777778,"dme_lon":67.02166666666666,"icao":"UA","area":"EEU","cat":"vhf"},{"ident":"ARK","name":"ARAK","type":"VD","lat":34.13719444444445,"lon":49.853833333333334,"freq":114.8,"range":130,"mag_var":4.6,"dme_lat":34.13719444444445,"dme_lon":49.853833333333334,"icao":"OI","area":"MES","cat":"vhf"},{"ident":"ARL","name":"ARALSK","type":"VD","lat":46.82555555555555,"lon":61.61805555555556,"freq":113.6,"range":130,"mag_var":8.9,"dme_lat":46.82555555555555,"dme_lon":61.61805555555556,"icao":"UA","area":"EEU","cat":"vhf"},{"ident":"ARL","name":"ARLANDA ","type":"VD","lat":59.653416666666665,"lon":17.914472222222223,"freq":116,"range":100,"mag_var":7.7,"dme_lat":59.653416666666665,"dme_lon":17.914472222222223,"icao":"ES","area":"EUR","cat":"vhf"},{"ident":"ARM","name":"ARMIDALE","type":"D","lat":null,"lon":null,"freq":112.6,"range":125,"mag_var":11.7,"dme_lat":-30.527722222222224,"dme_lon":151.6153888888889,"icao":"YB","area":"SPA","cat":"vhf"},{"ident":"ARN","name":"ARINI","type":"D","lat":null,"lon":null,"freq":109.95,"range":125,"mag_var":6.9,"dme_lat":46.379444444444445,"dme_lon":27.156666666666666,"icao":"LR","area":"EEU","cat":"vhf"},{"ident":"ARP","name":"SELAYAR","type":"VD","lat":-6.176555555555556,"lon":120.43911111111112,"freq":112.1,"range":125,"mag_var":0.5,"dme_lat":-6.176555555555556,"dme_lon":120.43911111111112,"icao":"WA","area":"SPA","cat":"vhf"},{"ident":"ARR","name":"ARRABIDA","type":"D","lat":null,"lon":null,"freq":108.3,"range":125,"mag_var":-1,"dme_lat":38.492755555555554,"dme_lon":-8.962266666666666,"icao":"LP","area":"EUR","cat":"vhf"},{"ident":"ARS","name":"AROS","type":"VD","lat":59.58622222222222,"lon":16.650333333333332,"freq":112.8,"range":80,"mag_var":7.2,"dme_lat":59.58622222222222,"dme_lon":16.650333333333332,"icao":"ES","area":"EUR","cat":"vhf"},{"ident":"ART","name":"RIZE-ARTVIN","type":"VD","lat":41.18022222222222,"lon":40.858694444444446,"freq":110.45,"range":125,"mag_var":6.8,"dme_lat":41.18022222222222,"dme_lon":40.858694444444446,"icao":"LT","area":"MES","cat":"vhf"},{"ident":"ART","name":"WATERTOWN","type":"VT","lat":43.952130555555556,"lon":-76.06462777777777,"freq":109.8,"range":125,"mag_var":-12.1,"dme_lat":43.952130555555556,"dme_lon":-76.06462777777777,"icao":"K6","area":"USA","cat":"vhf"},{"ident":"ARU","name":"CAJU ","type":"VD","lat":-10.981925,"lon":-37.07737777777778,"freq":115.4,"range":125,"mag_var":-22.4,"dme_lat":-10.981925,"dme_lon":-37.07737777777778,"icao":"SB","area":"SAM","cat":"vhf"},{"ident":"ARV","name":"ARVIDSJAUR","type":"I","lat":null,"lon":null,"freq":109.35,"range":25,"mag_var":9.9,"dme_lat":65.59777777777778,"dme_lon":19.26286111111111,"icao":"ES","area":"EUR","cat":"vhf"},{"ident":"ARX","name":"ARAXOS","type":"T","lat":null,"lon":null,"freq":112.4,"range":125,"mag_var":4.9,"dme_lat":38.1545,"dme_lon":21.428833333333333,"icao":"LG","area":"EUR","cat":"vhf"},{"ident":"ARX","name":"ARAXA ","type":"VD","lat":-19.689166666666665,"lon":-47.06055555555555,"freq":117,"range":125,"mag_var":-22.2,"dme_lat":-19.689166666666665,"dme_lon":-47.06055555555555,"icao":"SB","area":"SAM","cat":"vhf"},{"ident":"AS","name":"AGADEZ","type":"V","lat":16.97496388888889,"lon":8.023230555555555,"freq":113.5,"range":130,"mag_var":1.2,"dme_lat":null,"dme_lon":null,"icao":"DR","area":"AFR","cat":"vhf"},{"ident":"AS","name":"AASIAAT","type":"D","lat":null,"lon":null,"freq":108.75,"range":125,"mag_var":-27.3,"dme_lat":68.71941944444444,"dme_lon":-52.79275277777778,"icao":"BG","area":"EUR","cat":"vhf"},{"ident":"AS","name":"ALICE SPRINGS","type":"VD","lat":-23.79288888888889,"lon":133.87822222222223,"freq":115.9,"range":125,"mag_var":4.4,"dme_lat":-23.79288888888889,"dme_lon":133.87805555555556,"icao":"YM","area":"SPA","cat":"vhf"},{"ident":"ASB","name":"ASHGABAT","type":"VD","lat":38.00316388888889,"lon":58.33555555555556,"freq":114.5,"range":130,"mag_var":5.3,"dme_lat":38.00316388888889,"dme_lon":58.33555555555556,"icao":"UT","area":"EEU","cat":"vhf"},{"ident":"ASB","name":"ALI AL SALEM","type":"VT","lat":29.343966666666667,"lon":47.51891388888889,"freq":116,"range":40,"mag_var":3.8,"dme_lat":29.343966666666667,"dme_lon":47.51891388888889,"icao":"OK","area":"MES","cat":"vhf"},{"ident":"ASD","name":"SHINDAND","type":"T","lat":null,"lon":null,"freq":111.1,"range":125,"mag_var":3.6,"dme_lat":33.39055555555556,"dme_lon":62.26277777777778,"icao":"OA","area":"MES","cat":"vhf"},{"ident":"ASE","name":"ARLANDA ","type":"D","lat":null,"lon":null,"freq":114.45,"range":125,"mag_var":7.7,"dme_lat":59.63719444444445,"dme_lon":17.957361111111112,"icao":"ES","area":"EUR","cat":"vhf"},{"ident":"ASH","name":"AL SHIGAR","type":"VD","lat":30.122777777777777,"lon":38.79805555555556,"freq":112.3,"range":130,"mag_var":4.6,"dme_lat":30.122777777777777,"dme_lon":38.79805555555556,"icao":"OE","area":"MES","cat":"vhf"},{"ident":"ASI","name":"ASCENSION AUX","type":"VT","lat":-7.969875,"lon":-14.39733611111111,"freq":112.2,"range":125,"mag_var":-13.6,"dme_lat":-7.969875,"dme_lon":-14.39733611111111,"icao":"FH","area":"AFR","cat":"vhf"},{"ident":"ASL","name":"MEZR ","type":"M","lat":null,"lon":null,"freq":135.6,"range":125,"mag_var":2.9,"dme_lat":24.104130555555557,"dme_lon":47.54141666666666,"icao":"OE","area":"MES","cat":"vhf"},{"ident":"ASM","name":"ASMARA","type":"VD","lat":15.284447222222223,"lon":38.90081111111111,"freq":113.7,"range":130,"mag_var":3,"dme_lat":15.284447222222223,"dme_lon":38.90081111111111,"icao":"HH","area":"AFR","cat":"vhf"},{"ident":"ASM","name":"ASSAMALLA","type":"D","lat":null,"lon":null,"freq":113.55,"range":125,"mag_var":10.4,"dme_lat":59.21194444444444,"dme_lon":26.263333333333332,"icao":"EE","area":"EEU","cat":"vhf"},{"ident":"ASM","name":"RIO HATO","type":"I","lat":null,"lon":null,"freq":110.3,"range":25,"mag_var":-5.1,"dme_lat":8.372480555555555,"dme_lon":-80.12634166666666,"icao":"MP","area":"LAM","cat":"vhf"},{"ident":"ASN","name":"ASWAN","type":"VD","lat":23.971777777777778,"lon":32.816944444444445,"freq":112.3,"range":150,"mag_var":4.2,"dme_lat":23.971777777777778,"dme_lon":32.816944444444445,"icao":"HE","area":"AFR","cat":"vhf"},{"ident":"ASP","name":"AU SABLE ","type":"D","lat":null,"lon":null,"freq":116.1,"range":125,"mag_var":-7.6,"dme_lat":44.449127777777775,"dme_lon":-83.39428333333333,"icao":"K5","area":"USA","cat":"vhf"},{"ident":"AST","name":"ASYUT","type":"VD","lat":27.031222222222222,"lon":31.032416666666666,"freq":117.7,"range":200,"mag_var":4.5,"dme_lat":27.031222222222222,"dme_lon":31.032416666666666,"icao":"HE","area":"AFR","cat":"vhf"},{"ident":"AST","name":"ASTANA","type":"VD","lat":51.001555555555555,"lon":71.43344444444445,"freq":114.4,"range":130,"mag_var":9.9,"dme_lat":51.001555555555555,"dme_lon":71.43344444444445,"icao":"UA","area":"EEU","cat":"vhf"},{"ident":"AST","name":"ASTRAKHAN","type":"VD","lat":46.281194444444445,"lon":48.009166666666665,"freq":116.1,"range":130,"mag_var":8.8,"dme_lat":46.281194444444445,"dme_lon":48.009166666666665,"icao":"UR","area":"EEU","cat":"vhf"},{"ident":"AST","name":"ASTORIA","type":"VD","lat":46.1617,"lon":-123.880375,"freq":114,"range":125,"mag_var":14.9,"dme_lat":46.16169722222222,"dme_lon":-123.88037777777778,"icao":"K1","area":"USA","cat":"vhf"},{"ident":"ASW","name":"ARLANDA ","type":"D","lat":null,"lon":null,"freq":113.75,"range":125,"mag_var":7.6,"dme_lat":59.587694444444445,"dme_lon":17.819694444444444,"icao":"ES","area":"EUR","cat":"vhf"},{"ident":"AT","name":"ARTEMOVSKIY","type":"D","lat":null,"lon":null,"freq":113.9,"range":125,"mag_var":15.8,"dme_lat":57.34222222222222,"dme_lon":61.925,"icao":"US","area":"EEU","cat":"vhf"},{"ident":"AT","name":"ALTA","type":"I","lat":null,"lon":null,"freq":108.9,"range":25,"mag_var":13.7,"dme_lat":69.98107777777778,"dme_lon":23.352416666666667,"icao":"EN","area":"EUR","cat":"vhf"},{"ident":"ATA","name":"ALMATY","type":"VD","lat":43.374833333333335,"lon":77.08527777777778,"freq":116.4,"range":130,"mag_var":5.2,"dme_lat":43.374833333333335,"dme_lon":77.08527777777778,"icao":"UA","area":"EEU","cat":"vhf"},{"ident":"ATA","name":"ALTA","type":"VD","lat":69.9774861111111,"lon":23.37173611111111,"freq":117.4,"range":130,"mag_var":13.7,"dme_lat":69.9774861111111,"dme_lon":23.37173611111111,"icao":"EN","area":"EUR","cat":"vhf"},{"ident":"ATE","name":"ALICANTE","type":"VD","lat":38.28616666666667,"lon":-0.5866666666666667,"freq":114.65,"range":125,"mag_var":1.3,"dme_lat":38.28622222222222,"dme_lon":-0.5868333333333333,"icao":"LE","area":"EUR","cat":"vhf"},{"ident":"ATF","name":"ALTA FLORESTA","type":"VD","lat":-9.868361111111112,"lon":-56.10495,"freq":113.4,"range":125,"mag_var":-18.9,"dme_lat":-9.868361111111112,"dme_lon":-56.10495,"icao":"SB","area":"SAM","cat":"vhf"},{"ident":"ATO","name":"WILLEMSTAD/HATO INTL.","type":"I","lat":null,"lon":null,"freq":111.9,"range":25,"mag_var":-12.3,"dme_lat":12.191097222222222,"dme_lon":-68.96466666666667,"icao":"TN","area":"LAM","cat":"vhf"},{"ident":"ATP","name":"ATTAPEU","type":"VD","lat":14.800277777777778,"lon":107.02,"freq":112.8,"range":130,"mag_var":-1.1,"dme_lat":14.800277777777778,"dme_lon":107.02,"icao":"VL","area":"PAC","cat":"vhf"},{"ident":"ATR","name":"ATYRAU","type":"VD","lat":47.14394444444444,"lon":51.8015,"freq":112.3,"range":130,"mag_var":9.3,"dme_lat":47.14394444444444,"dme_lon":51.8015,"icao":"UA","area":"EEU","cat":"vhf"},{"ident":"ATR","name":"WATERLOO","type":"VD","lat":38.80981111111111,"lon":-75.21132222222222,"freq":112.6,"range":125,"mag_var":-11.6,"dme_lat":38.80981111111111,"dme_lon":-75.21132222222222,"icao":"K6","area":"USA","cat":"vhf"},{"ident":"ATV","name":"ATHENS","type":"VD","lat":37.88867777777778,"lon":23.80449722222222,"freq":114.4,"range":120,"mag_var":5.1,"dme_lat":37.88867777777778,"dme_lon":23.80449722222222,"icao":"LG","area":"EUR","cat":"vhf"},{"ident":"ATY","name":"WATERTOWN","type":"T","lat":null,"lon":null,"freq":116.6,"range":125,"mag_var":2.9,"dme_lat":44.979686111111114,"dme_lon":-97.14172222222223,"icao":"K3","area":"USA","cat":"vhf"},{"ident":"AUA","name":"ALULA INTL","type":"VD","lat":26.471722222222223,"lon":38.14075,"freq":114.9,"range":130,"mag_var":4.2,"dme_lat":26.471722222222223,"dme_lon":38.14075,"icao":"OE","area":"MES","cat":"vhf"},{"ident":"AUC","name":"ARAUCA","type":"VD","lat":7.067222222222222,"lon":-70.73277777777778,"freq":114,"range":125,"mag_var":-11,"dme_lat":7.067222222222222,"dme_lon":-70.73277777777778,"icao":"SK","area":"SAM","cat":"vhf"},{"ident":"AUG","name":"AUGSBURG","type":"D","lat":null,"lon":null,"freq":115.9,"range":125,"mag_var":4.1,"dme_lat":48.42511388888889,"dme_lon":10.937644444444445,"icao":"ED","area":"EUR","cat":"vhf"},{"ident":"AUG","name":"AUGUSTA","type":"VD","lat":44.32001944444445,"lon":-69.79656388888888,"freq":114.95,"range":125,"mag_var":-14.8,"dme_lat":44.32001944444445,"dme_lon":-69.79656388888888,"icao":"K6","area":"USA","cat":"vhf"},{"ident":"AUN","name":"HASSAN I","type":"I","lat":null,"lon":null,"freq":110.7,"range":25,"mag_var":-2.7,"dme_lat":27.133433333333333,"dme_lon":-13.235894444444444,"icao":"GM","area":"AFR","cat":"vhf"},{"ident":"AUR","name":"LA AURORA ","type":"VD","lat":14.571644444444445,"lon":-90.53291666666667,"freq":114.9,"range":125,"mag_var":0.2,"dme_lat":14.571644444444445,"dme_lon":-90.53291666666667,"icao":"MG","area":"LAM","cat":"vhf"},{"ident":"AV","name":"AVALON","type":"VD","lat":-38.04889444444444,"lon":144.45893333333333,"freq":116.1,"range":125,"mag_var":11.8,"dme_lat":-38.049080555555555,"dme_lon":144.45925833333334,"icao":"YM","area":"SPA","cat":"vhf"},{"ident":"AVD","name":"AVORD","type":"T","lat":null,"lon":null,"freq":110.6,"range":125,"mag_var":2.1,"dme_lat":47.058083333333336,"dme_lon":2.629861111111111,"icao":"LF","area":"EUR","cat":"vhf"},{"ident":"AVE","name":"AVENAL","type":"VD","lat":35.646975,"lon":-119.97860555555556,"freq":117.1,"range":125,"mag_var":12.1,"dme_lat":35.646975,"dme_lon":-119.97860555555556,"icao":"K2","area":"USA","cat":"vhf"},{"ident":"AVI","name":"AVIANO","type":"T","lat":null,"lon":null,"freq":116.4,"range":125,"mag_var":4.3,"dme_lat":46.02786944444444,"dme_lon":12.586877777777778,"icao":"LI","area":"EUR","cat":"vhf"},{"ident":"AVN","name":"AVIGNON","type":"VD","lat":43.99536111111111,"lon":4.746388888888889,"freq":114.6,"range":60,"mag_var":2.6,"dme_lat":43.99536111111111,"dme_lon":4.746388888888889,"icao":"LF","area":"EUR","cat":"vhf"},{"ident":"AVS","name":"ASTURIAS","type":"I","lat":null,"lon":null,"freq":110.1,"range":25,"mag_var":-0.3,"dme_lat":43.56236111111111,"dme_lon":-6.024583333333333,"icao":"LE","area":"EUR","cat":"vhf"},{"ident":"AW","name":"SHAFRANOVO","type":"D","lat":null,"lon":null,"freq":109.6,"range":125,"mag_var":13.4,"dme_lat":53.975,"dme_lon":54.77527777777778,"icao":"UW","area":"EEU","cat":"vhf"},{"ident":"AWE","name":"ASAHIKAWA","type":"VD","lat":43.66726388888889,"lon":142.45684722222222,"freq":113.5,"range":130,"mag_var":-9.9,"dme_lat":43.66726388888889,"dme_lon":142.45684722222222,"icao":"RJ","area":"PAC","cat":"vhf"},{"ident":"AWK","name":"WAKE I.","type":"VT","lat":19.28658611111111,"lon":166.62731944444445,"freq":113.5,"range":130,"mag_var":5.3,"dme_lat":19.28658611111111,"dme_lon":166.62731944444445,"icao":"PW","area":"PAC","cat":"vhf"},{"ident":"AWZ","name":"AHWAZ","type":"VD","lat":31.337583333333335,"lon":48.764583333333334,"freq":114,"range":130,"mag_var":4.1,"dme_lat":31.337583333333335,"dme_lon":48.764583333333334,"icao":"OI","area":"MES","cat":"vhf"},{"ident":"AXC","name":"ADDERS","type":"VT","lat":39.737522222222225,"lon":-88.85643055555556,"freq":117.2,"range":125,"mag_var":-3,"dme_lat":39.737522222222225,"dme_lon":-88.85643055555556,"icao":"K5","area":"USA","cat":"vhf"},{"ident":"AXE","name":"ALEXANDRIA","type":"V","lat":40.644777777777776,"lon":22.497888888888887,"freq":110.6,"range":40,"mag_var":5.3,"dme_lat":null,"dme_lon":null,"icao":"LG","area":"EUR","cat":"vhf"},{"ident":"AXM","name":"ARMENIA","type":"VD","lat":4.46,"lon":-75.76555555555555,"freq":111.6,"range":125,"mag_var":-7.5,"dme_lat":4.46,"dme_lon":-75.76555555555555,"icao":"SK","area":"SAM","cat":"vhf"},{"ident":"AXN","name":"ALEXANDRIA","type":"VD","lat":45.95838888888889,"lon":-95.2326361111111,"freq":115.95,"range":125,"mag_var":1.4,"dme_lat":45.95838888888889,"dme_lon":-95.2326361111111,"icao":"K3","area":"USA","cat":"vhf"},{"ident":"AY","name":"ALBURY","type":"VD","lat":-36.068,"lon":146.96608333333333,"freq":115.6,"range":125,"mag_var":12.1,"dme_lat":-36.06811111111111,"dme_lon":146.96619444444445,"icao":"YM","area":"SPA","cat":"vhf"},{"ident":"AYD","name":"AYODHYA","type":"VD","lat":26.74662777777778,"lon":82.17267777777778,"freq":116,"range":125,"mag_var":0.6,"dme_lat":26.74662777777778,"dme_lon":82.17267777777778,"icao":"VE","area":"MES","cat":"vhf"},{"ident":"AYE","name":"AYERS ROCK","type":"D","lat":null,"lon":null,"freq":117.1,"range":125,"mag_var":3.8,"dme_lat":-25.171458333333334,"dme_lon":130.97476944444443,"icao":"YM","area":"SPA","cat":"vhf"},{"ident":"AYS","name":"WAYCROSS","type":"VT","lat":31.269425,"lon":-82.55644444444444,"freq":112.4,"range":125,"mag_var":-6.5,"dme_lat":31.269425,"dme_lon":-82.55644444444444,"icao":"K7","area":"USA","cat":"vhf"},{"ident":"AYT","name":"ANTALYA","type":"VD","lat":36.92080555555555,"lon":30.794472222222222,"freq":114,"range":130,"mag_var":5.5,"dme_lat":36.92080555555555,"dme_lon":30.794472222222222,"icao":"LT","area":"MES","cat":"vhf"},{"ident":"AZM","name":"HAMAD INTL","type":"I","lat":null,"lon":null,"freq":110.1,"range":25,"mag_var":2.6,"dme_lat":25.258488888888888,"dme_lon":51.62682222222222,"icao":"OT","area":"MES","cat":"vhf"},{"ident":"AZO","name":"KALAMAZOO","type":"D","lat":null,"lon":null,"freq":109,"range":125,"mag_var":-5.7,"dme_lat":42.23698611111111,"dme_lon":-85.55315277777778,"icao":"K5","area":"USA","cat":"vhf"},{"ident":"AZQ","name":"HAZARD","type":"D","lat":null,"lon":null,"freq":111.2,"range":125,"mag_var":-6.7,"dme_lat":37.39125833333333,"dme_lon":-83.26300555555555,"icao":"K5","area":"USA","cat":"vhf"},{"ident":"AZR","name":"NICE","type":"VD","lat":43.65972222222222,"lon":7.2244166666666665,"freq":109.65,"range":100,"mag_var":3.1,"dme_lat":43.65972222222222,"dme_lon":7.2244166666666665,"icao":"LF","area":"EUR","cat":"vhf"},{"ident":"BA","name":"BATA","type":"I","lat":null,"lon":null,"freq":109.1,"range":25,"mag_var":-0.6,"dme_lat":1.913763888888889,"dme_lon":9.810325,"icao":"FG","area":"AFR","cat":"vhf"},{"ident":"BA","name":"BAKCHAR","type":"D","lat":null,"lon":null,"freq":113.7,"range":125,"mag_var":9.8,"dme_lat":57.0075,"dme_lon":82.06055555555555,"icao":"UN","area":"EEU","cat":"vhf"},{"ident":"BA","name":"BANAK","type":"I","lat":null,"lon":null,"freq":108.3,"range":25,"mag_var":14.6,"dme_lat":70.05975833333333,"dme_lon":24.978922222222224,"icao":"EN","area":"EUR","cat":"vhf"},{"ident":"BA","name":"BEN GURION","type":"I","lat":null,"lon":null,"freq":108.7,"range":25,"mag_var":5,"dme_lat":32.01808333333334,"dme_lon":34.88919444444444,"icao":"LL","area":"MES","cat":"vhf"},{"ident":"BAB","name":"BEALE ","type":"T","lat":null,"lon":null,"freq":108.6,"range":125,"mag_var":13,"dme_lat":39.134794444444445,"dme_lon":-121.44075833333333,"icao":"K2","area":"USA","cat":"vhf"},{"ident":"BAC","name":"BACAU","type":"D","lat":null,"lon":null,"freq":117.4,"range":125,"mag_var":6.8,"dme_lat":46.5015,"dme_lon":26.91811111111111,"icao":"LR","area":"EEU","cat":"vhf"},{"ident":"BAC","name":"BANDA ACEH","type":"VD","lat":5.522638888888888,"lon":95.42230555555555,"freq":113.4,"range":130,"mag_var":-0.6,"dme_lat":5.522638888888888,"dme_lon":95.42230555555555,"icao":"WI","area":"SPA","cat":"vhf"},{"ident":"BAD","name":"BARKSDALE ","type":"T","lat":null,"lon":null,"freq":115.8,"range":125,"mag_var":0.7,"dme_lat":32.50333888888889,"dme_lon":-93.66776944444445,"icao":"K4","area":"USA","cat":"vhf"},{"ident":"BAE","name":"BADGER ","type":"VD","lat":43.11685277777778,"lon":-88.28434444444444,"freq":116.4,"range":125,"mag_var":-3.8,"dme_lat":43.11685277777778,"dme_lon":-88.28434444444444,"icao":"K5","area":"USA","cat":"vhf"},{"ident":"BAF","name":"BARNES ","type":"VT","lat":42.16195833333333,"lon":-72.7162,"freq":113,"range":125,"mag_var":-13.3,"dme_lat":42.16195833333333,"dme_lon":-72.7162,"icao":"K6","area":"USA","cat":"vhf"},{"ident":"BAG","name":"BAGLUM ","type":"VD","lat":40.07,"lon":32.80988888888889,"freq":113.1,"range":130,"mag_var":6.2,"dme_lat":40.07,"dme_lon":32.80988888888889,"icao":"LT","area":"MES","cat":"vhf"},{"ident":"BAH","name":"BAKHMACH","type":"D","lat":null,"lon":null,"freq":116.7,"range":125,"mag_var":9.1,"dme_lat":51.065,"dme_lon":32.88666666666667,"icao":"UK","area":"EEU","cat":"vhf"},{"ident":"BAI","name":"BAISOARA","type":"D","lat":null,"lon":null,"freq":117.95,"range":125,"mag_var":6.3,"dme_lat":46.49111111111111,"dme_lon":23.236666666666668,"icao":"LR","area":"EEU","cat":"vhf"},{"ident":"BAK","name":"BAKU","type":"VD","lat":40.42077777777778,"lon":50.06397222222222,"freq":115,"range":200,"mag_var":6.5,"dme_lat":40.42077777777778,"dme_lon":50.06397222222222,"icao":"UB","area":"EEU","cat":"vhf"},{"ident":"BAK","name":"BACKA","type":"D","lat":null,"lon":null,"freq":112.7,"range":125,"mag_var":5.2,"dme_lat":57.555166666666665,"dme_lon":11.976833333333333,"icao":"ES","area":"EUR","cat":"vhf"},{"ident":"BAL","name":"BALDONNEL","type":"VD","lat":53.29988888888889,"lon":-6.447777777777778,"freq":115.8,"range":125,"mag_var":-1.4,"dme_lat":53.29988888888889,"dme_lon":-6.447777777777778,"icao":"EI","area":"EUR","cat":"vhf"},{"ident":"BAL","name":"BANJA LUKA","type":"I","lat":null,"lon":null,"freq":108.7,"range":25,"mag_var":5.1,"dme_lat":44.95012222222222,"dme_lon":17.296752777777776,"icao":"LQ","area":"EUR","cat":"vhf"},{"ident":"BAL","name":"BALMACEDA","type":"VD","lat":-45.91305555555556,"lon":-71.7125,"freq":115.5,"range":125,"mag_var":8.9,"dme_lat":-45.91305555555556,"dme_lon":-71.7125,"icao":"SC","area":"SAM","cat":"vhf"},{"ident":"BAL","name":"EL LIBERTADOR ","type":"VD","lat":10.18325,"lon":-67.5485,"freq":113.9,"range":125,"mag_var":-12.9,"dme_lat":10.18325,"dme_lon":-67.5485,"icao":"SV","area":"SAM","cat":"vhf"},{"ident":"BAL","name":"BALTIMORE","type":"VT","lat":39.17106388888889,"lon":-76.66125555555556,"freq":115.1,"range":125,"mag_var":-10.9,"dme_lat":39.17106388888889,"dme_lon":-76.66125555555556,"icao":"K6","area":"USA","cat":"vhf"},{"ident":"BAM","name":"BARMEN","type":"VD","lat":51.327758333333335,"lon":7.176983333333333,"freq":114,"range":60,"mag_var":3.3,"dme_lat":51.327758333333335,"dme_lon":7.176983333333333,"icao":"ED","area":"EUR","cat":"vhf"},{"ident":"BAM","name":"BAM","type":"VD","lat":29.077472222222223,"lon":58.458333333333336,"freq":114.9,"range":40,"mag_var":2.8,"dme_lat":29.077472222222223,"dme_lon":58.458333333333336,"icao":"OI","area":"MES","cat":"vhf"},{"ident":"BAM","name":"BATTLE MOUNTAIN","type":"VT","lat":40.56908055555556,"lon":-116.92225555555555,"freq":112.2,"range":125,"mag_var":12.3,"dme_lat":40.56908055555556,"dme_lon":-116.92225555555555,"icao":"K2","area":"USA","cat":"vhf"},{"ident":"BAN","name":"SIDI BEN AOUN","type":"V","lat":34.863305555555556,"lon":9.16775,"freq":115.3,"range":130,"mag_var":3,"dme_lat":null,"dme_lon":null,"icao":"DT","area":"AFR","cat":"vhf"},{"ident":"BAN","name":"BARNAUL","type":"VD","lat":53.373,"lon":83.57880555555556,"freq":111.8,"range":130,"mag_var":7.1,"dme_lat":53.373,"dme_lon":83.57880555555556,"icao":"UN","area":"EEU","cat":"vhf"},{"ident":"BAN","name":"BARAHONA","type":"VD","lat":41.32355555555556,"lon":-2.629777777777778,"freq":112.8,"range":125,"mag_var":0.8,"dme_lat":41.32366666666667,"dme_lon":-2.6299166666666665,"icao":"LE","area":"EUR","cat":"vhf"},{"ident":"BAP","name":"PALESE","type":"I","lat":null,"lon":null,"freq":111.35,"range":25,"mag_var":4.6,"dme_lat":41.13563888888889,"dme_lon":16.744333333333334,"icao":"LI","area":"EUR","cat":"vhf"},{"ident":"BAQ","name":"BARRANQUILLA","type":"VD","lat":10.795277777777779,"lon":-74.86027777777778,"freq":113.7,"range":125,"mag_var":-8.8,"dme_lat":10.795277777777779,"dme_lon":-74.86027777777778,"icao":"SK","area":"SAM","cat":"vhf"},{"ident":"BAR","name":"BARUUN-URT","type":"D","lat":null,"lon":null,"freq":116.7,"range":125,"mag_var":-8.1,"dme_lat":46.67,"dme_lon":113.28583333333333,"icao":"ZM","area":"EEU","cat":"vhf"},{"ident":"BAR","name":"BARDUFOSS","type":"T","lat":null,"lon":null,"freq":113.4,"range":125,"mag_var":10.7,"dme_lat":69.04569166666667,"dme_lon":18.58639722222222,"icao":"EN","area":"EUR","cat":"vhf"},{"ident":"BAR","name":"BARI","type":"VD","lat":41.14425,"lon":16.776444444444444,"freq":116.4,"range":80,"mag_var":4.6,"dme_lat":41.14425,"dme_lon":16.776583333333335,"icao":"LI","area":"EUR","cat":"vhf"},{"ident":"BAR","name":"BAYSUR","type":"V","lat":33.769444444444446,"lon":35.55555555555556,"freq":113.9,"range":130,"mag_var":5.2,"dme_lat":null,"dme_lon":null,"icao":"OL","area":"MES","cat":"vhf"},{"ident":"BAR","name":"SAN CARLOS DE BARILOCHE","type":"VD","lat":-41.14026111111111,"lon":-71.18899444444445,"freq":117.4,"range":125,"mag_var":5.5,"dme_lat":-41.14026111111111,"dme_lon":-71.18899444444445,"icao":"SA","area":"SAM","cat":"vhf"},{"ident":"BAS","name":"PORETTA","type":"I","lat":null,"lon":null,"freq":111.35,"range":25,"mag_var":3.5,"dme_lat":42.54486111111111,"dme_lon":9.488583333333333,"icao":"LF","area":"EUR","cat":"vhf"},{"ident":"BAT","name":"BATMAN","type":"VD","lat":37.93797222222222,"lon":41.11961111111111,"freq":116.2,"range":50,"mag_var":5.9,"dme_lat":37.93797222222222,"dme_lon":41.11961111111111,"icao":"LT","area":"MES","cat":"vhf"},{"ident":"BAT","name":"BATHA","type":"VD","lat":24.215833333333332,"lon":51.451972222222224,"freq":113.4,"range":130,"mag_var":2.4,"dme_lat":24.215833333333332,"dme_lon":51.451972222222224,"icao":"OE","area":"MES","cat":"vhf"},{"ident":"BAV","name":"BAOTOU","type":"VD","lat":40.556666666666665,"lon":109.99833333333333,"freq":117.3,"range":130,"mag_var":-5.6,"dme_lat":40.556666666666665,"dme_lon":109.99833333333333,"icao":"ZB","area":"EEU","cat":"vhf"},{"ident":"BAY","name":"EL BAYADH","type":"VD","lat":33.709805555555555,"lon":1.0791861111111112,"freq":114.8,"range":130,"mag_var":1.5,"dme_lat":33.709805555555555,"dme_lon":1.0791861111111112,"icao":"DA","area":"AFR","cat":"vhf"},{"ident":"BAY","name":"BAYREUTH","type":"V","lat":49.98515,"lon":11.636683333333334,"freq":110.6,"range":40,"mag_var":4.4,"dme_lat":null,"dme_lon":null,"icao":"ED","area":"EUR","cat":"vhf"},{"ident":"BBB","name":"MUMBAI","type":"VD","lat":19.086166666666667,"lon":72.87469444444444,"freq":116.6,"range":130,"mag_var":0,"dme_lat":19.086166666666667,"dme_lon":72.87469444444444,"icao":"VA","area":"MES","cat":"vhf"},{"ident":"BBC","name":"BARBACENA","type":"D","lat":null,"lon":null,"freq":111.7,"range":125,"mag_var":-23,"dme_lat":-21.265,"dme_lon":-43.763333333333335,"icao":"SB","area":"SAM","cat":"vhf"},{"ident":"BBE","name":"BEAUVECHAIN","type":"T","lat":null,"lon":null,"freq":116,"range":125,"mag_var":2.6,"dme_lat":50.756861111111114,"dme_lon":4.76875,"icao":"EB","area":"EUR","cat":"vhf"},{"ident":"BBG","name":"BENGALURU","type":"VD","lat":12.94975,"lon":77.681,"freq":115.5,"range":130,"mag_var":-1.1,"dme_lat":12.94975,"dme_lon":77.681,"icao":"VO","area":"MES","cat":"vhf"},{"ident":"BBI","name":"BERLIN BRANDENBURG","type":"VD","lat":52.342013888888886,"lon":13.454047222222222,"freq":114.1,"range":80,"mag_var":5.1,"dme_lat":52.342013888888886,"dme_lon":13.454047222222222,"icao":"ED","area":"EUR","cat":"vhf"},{"ident":"BBI","name":"SALAMANCA","type":"VD","lat":41.01669444444445,"lon":-5.456833333333333,"freq":112.2,"range":125,"mag_var":0,"dme_lat":41.01669444444445,"dme_lon":-5.456916666666666,"icao":"LE","area":"EUR","cat":"vhf"},{"ident":"BBI","name":"BELLARY","type":"VD","lat":15.165369444444444,"lon":76.8801111111111,"freq":112.8,"range":130,"mag_var":-0.8,"dme_lat":15.165369444444444,"dme_lon":76.8801111111111,"icao":"VO","area":"MES","cat":"vhf"},{"ident":"BBL","name":"KLEINE BROGEL","type":"T","lat":null,"lon":null,"freq":109.6,"range":125,"mag_var":2.8,"dme_lat":51.16777777777778,"dme_lon":5.471055555555555,"icao":"EB","area":"EUR","cat":"vhf"},{"ident":"BBM","name":"BELAGAVI","type":"VD","lat":15.857138888888889,"lon":74.61927777777778,"freq":112.1,"range":130,"mag_var":-0.6,"dme_lat":15.857138888888889,"dme_lon":74.61927777777778,"icao":"VO","area":"MES","cat":"vhf"},{"ident":"BBN","name":"VARANASI","type":"VD","lat":25.45422222222222,"lon":82.8595,"freq":113.9,"range":130,"mag_var":0.4,"dme_lat":25.45422222222222,"dme_lon":82.8595,"icao":"VE","area":"MES","cat":"vhf"},{"ident":"BBS","name":"BENI ABBES","type":"VD","lat":30.023777777777777,"lon":-2.230638888888889,"freq":115.3,"range":125,"mag_var":0.6,"dme_lat":30.023777777777777,"dme_lon":-2.230638888888889,"icao":"DA","area":"AFR","cat":"vhf"},{"ident":"BBS","name":"BHUBANESWAR","type":"VD","lat":20.244222222222223,"lon":85.813,"freq":113.5,"range":130,"mag_var":-0.4,"dme_lat":20.244222222222223,"dme_lon":85.813,"icao":"VE","area":"MES","cat":"vhf"},{"ident":"BBZ","name":"VIJAYAWADA","type":"VD","lat":16.53772222222222,"lon":80.8356111111111,"freq":116.2,"range":130,"mag_var":-0.7,"dme_lat":16.53772222222222,"dme_lon":80.8356111111111,"icao":"VO","area":"MES","cat":"vhf"},{"ident":"BC","name":"BOUDGHENE BEN ALI LOTFI","type":"I","lat":null,"lon":null,"freq":108.1,"range":25,"mag_var":0.7,"dme_lat":31.656047222222224,"dme_lon":-2.260013888888889,"icao":"DA","area":"AFR","cat":"vhf"},{"ident":"BC","name":"BEZHETSK","type":"D","lat":null,"lon":null,"freq":111.5,"range":125,"mag_var":13,"dme_lat":57.895,"dme_lon":36.93,"icao":"UU","area":"EEU","cat":"vhf"},{"ident":"BC","name":"BEN GURION","type":"I","lat":null,"lon":null,"freq":110.9,"range":25,"mag_var":5,"dme_lat":32.01241666666667,"dme_lon":34.86419444444444,"icao":"LL","area":"MES","cat":"vhf"},{"ident":"BC","name":"COMANDANTE ESPORA NAS","type":"I","lat":null,"lon":null,"freq":109.7,"range":25,"mag_var":-4.2,"dme_lat":-38.719208333333334,"dme_lon":-62.15461944444444,"icao":"SA","area":"SAM","cat":"vhf"},{"ident":"BCA","name":"JOSEP TARRADELLAS/EL PRAT","type":"I","lat":null,"lon":null,"freq":109.5,"range":25,"mag_var":2,"dme_lat":41.3055,"dme_lon":2.0997500000000002,"icao":"LE","area":"EUR","cat":"vhf"},{"ident":"BCA","name":"BAHIA BLANCA","type":"VD","lat":-38.72,"lon":-62.15836111111111,"freq":114.3,"range":125,"mag_var":-4.2,"dme_lat":-38.72,"dme_lon":-62.15836111111111,"icao":"SA","area":"SAM","cat":"vhf"},{"ident":"BCD","name":"BACOLOD","type":"VD","lat":10.775277777777777,"lon":123.02052777777777,"freq":115.3,"range":60,"mag_var":-2.1,"dme_lat":10.775222222222222,"dme_lon":123.02061111111111,"icao":"RP","area":"PAC","cat":"vhf"},{"ident":"BCE","name":"BRYCE CANYON","type":"VT","lat":37.68918611111111,"lon":-112.30390277777778,"freq":112.8,"range":125,"mag_var":10.4,"dme_lat":37.68918611111111,"dme_lon":-112.30390277777778,"icao":"K2","area":"USA","cat":"vhf"},{"ident":"BCH","name":"BAUCHI","type":"VD","lat":10.456833333333334,"lon":9.748388888888888,"freq":115.6,"range":40,"mag_var":0.7,"dme_lat":10.456833333333334,"dme_lon":9.748388888888888,"icao":"DN","area":"AFR","cat":"vhf"},{"ident":"BCH","name":"BACACHERI","type":"VD","lat":-25.40388888888889,"lon":-49.23388888888889,"freq":112.7,"range":125,"mag_var":-20.3,"dme_lat":-25.40388888888889,"dme_lon":-49.23388888888889,"icao":"SB","area":"SAM","cat":"vhf"},{"ident":"BCL","name":"BENBECULA","type":"D","lat":null,"lon":null,"freq":108.1,"range":125,"mag_var":-2.4,"dme_lat":57.47510277777778,"dme_lon":-7.370305555555555,"icao":"EG","area":"EUR","cat":"vhf"},{"ident":"BCN","name":"BRECON","type":"VD","lat":51.725525,"lon":-3.2630333333333335,"freq":117.45,"range":125,"mag_var":0,"dme_lat":51.725525,"dme_lon":-3.2630333333333335,"icao":"EG","area":"EUR","cat":"vhf"},{"ident":"BCN","name":"BARCELONA","type":"VD","lat":41.307138888888886,"lon":2.1078055555555557,"freq":116.7,"range":130,"mag_var":2,"dme_lat":41.30719444444444,"dme_lon":2.107972222222222,"icao":"LE","area":"EUR","cat":"vhf"},{"ident":"BCR","name":"BECHAR","type":"VD","lat":31.684591666666666,"lon":-2.261275,"freq":113.9,"range":125,"mag_var":0.7,"dme_lat":31.684591666666666,"dme_lon":-2.261275,"icao":"DA","area":"AFR","cat":"vhf"},{"ident":"BCS","name":"CASALE ","type":"VD","lat":40.65858333333333,"lon":17.951916666666666,"freq":113.55,"range":120,"mag_var":4.7,"dme_lat":40.65866666666667,"dme_lon":17.95202777777778,"icao":"LI","area":"EUR","cat":"vhf"},{"ident":"BCU","name":"BACAU","type":"VD","lat":46.51091666666667,"lon":26.825555555555557,"freq":109.4,"range":175,"mag_var":6.8,"dme_lat":46.51091666666667,"dme_lon":26.825555555555557,"icao":"LR","area":"EEU","cat":"vhf"},{"ident":"BCY","name":"ORLEANS","type":"VD","lat":47.985305555555556,"lon":1.7555555555555555,"freq":117.35,"range":130,"mag_var":1.8,"dme_lat":47.985305555555556,"dme_lon":1.7555555555555555,"icao":"LF","area":"EUR","cat":"vhf"},{"ident":"BD","name":"BOBO-DIOULASSO","type":"VD","lat":11.14503611111111,"lon":-4.3508555555555555,"freq":114.7,"range":125,"mag_var":-2.2,"dme_lat":11.14503611111111,"dme_lon":-4.3508555555555555,"icao":"DF","area":"AFR","cat":"vhf"},{"ident":"BD","name":"BODO","type":"I","lat":null,"lon":null,"freq":108.7,"range":25,"mag_var":7.9,"dme_lat":67.27245833333333,"dme_lon":14.39135,"icao":"EN","area":"EUR","cat":"vhf"},{"ident":"BD","name":"MERIGNAC","type":"I","lat":null,"lon":null,"freq":110.3,"range":25,"mag_var":1.2,"dme_lat":44.837694444444445,"dme_lon":-0.7051388888888889,"icao":"LF","area":"EUR","cat":"vhf"},{"ident":"BD","name":"BEN GURION","type":"I","lat":null,"lon":null,"freq":111.9,"range":25,"mag_var":5,"dme_lat":32.00233333333333,"dme_lon":34.89208333333333,"icao":"LL","area":"MES","cat":"vhf"},{"ident":"BDA","name":"BIDA","type":"VD","lat":9.10213888888889,"lon":6.017527777777778,"freq":112.7,"range":130,"mag_var":-0.3,"dme_lat":9.10213888888889,"dme_lon":6.017527777777778,"icao":"DN","area":"AFR","cat":"vhf"},{"ident":"BDA","name":"BERMUDA","type":"VD","lat":32.36438611111111,"lon":-64.68957222222222,"freq":113.9,"range":125,"mag_var":-14.4,"dme_lat":32.36438611111111,"dme_lon":-64.68957222222222,"icao":"TX","area":"USA","cat":"vhf"},{"ident":"BDB","name":"BODAYBO","type":"VD","lat":57.87388888888889,"lon":114.23222222222222,"freq":112.6,"range":130,"mag_var":-11.1,"dme_lat":57.87388888888889,"dme_lon":114.23222222222222,"icao":"UI","area":"EEU","cat":"vhf"},{"ident":"BDB","name":"BIR DARB","type":"VD","lat":24.330833333333334,"lon":41.824444444444445,"freq":115.1,"range":130,"mag_var":3.6,"dme_lat":24.330833333333334,"dme_lon":41.824444444444445,"icao":"OE","area":"MES","cat":"vhf"},{"ident":"BDE","name":"BAUDETTE","type":"D","lat":null,"lon":null,"freq":111.6,"range":125,"mag_var":0.7,"dme_lat":48.72279722222222,"dme_lon":-94.60728888888889,"icao":"K3","area":"USA","cat":"vhf"},{"ident":"BDF","name":"BARDUFOSS","type":"VD","lat":69.06488055555556,"lon":18.466175,"freq":114.2,"range":130,"mag_var":10.6,"dme_lat":69.06488055555556,"dme_lon":18.466175,"icao":"EN","area":"EUR","cat":"vhf"},{"ident":"BDF","name":"BRADFORD","type":"T","lat":null,"lon":null,"freq":114.7,"range":125,"mag_var":-2.6,"dme_lat":41.159730555555555,"dme_lon":-89.58787222222222,"icao":"K5","area":"USA","cat":"vhf"},{"ident":"BDH","name":"WILLMAR","type":"VD","lat":45.117669444444445,"lon":-95.12706111111112,"freq":113.7,"range":125,"mag_var":1.3,"dme_lat":45.117669444444445,"dme_lon":-95.12706111111112,"icao":"K3","area":"USA","cat":"vhf"},{"ident":"BDM","name":"BANDIRMA","type":"T","lat":null,"lon":null,"freq":111,"range":125,"mag_var":5.8,"dme_lat":40.31675,"dme_lon":27.982083333333332,"icao":"LT","area":"MES","cat":"vhf"},{"ident":"BDM","name":"BANJARBARU","type":"VD","lat":-3.4368055555555554,"lon":114.7315,"freq":112.1,"range":125,"mag_var":0.4,"dme_lat":-3.4368055555555554,"dme_lon":114.7315,"icao":"WA","area":"SPA","cat":"vhf"},{"ident":"BDN","name":"BOSCOMBE DOWN","type":"T","lat":null,"lon":null,"freq":108.2,"range":125,"mag_var":0.6,"dme_lat":51.148802777777775,"dme_lon":-1.7526527777777776,"icao":"EG","area":"EUR","cat":"vhf"},{"ident":"BDO","name":"BODO","type":"VD","lat":67.26669722222222,"lon":14.364855555555556,"freq":117.55,"range":130,"mag_var":7.9,"dme_lat":67.26669722222222,"dme_lon":14.364855555555556,"icao":"EN","area":"EUR","cat":"vhf"},{"ident":"BDP","name":"CHANDRAGADHI","type":"VD","lat":26.568555555555555,"lon":88.09247222222223,"freq":115.6,"range":125,"mag_var":0,"dme_lat":26.568555555555555,"dme_lon":88.09247222222223,"icao":"VN","area":"MES","cat":"vhf"},{"ident":"BDR","name":"BAHIR DAR","type":"VD","lat":11.606416666666666,"lon":37.31721666666667,"freq":114.4,"range":130,"mag_var":2.8,"dme_lat":11.606416666666666,"dme_lon":37.31721666666667,"icao":"HA","area":"AFR","cat":"vhf"},{"ident":"BDR","name":"MILAS BODRUM","type":"VD","lat":37.257694444444446,"lon":27.63775,"freq":116.7,"range":75,"mag_var":5.4,"dme_lat":37.257694444444446,"dme_lon":27.63775,"icao":"LT","area":"MES","cat":"vhf"},{"ident":"BDR","name":"BIDAR","type":"VD","lat":17.905,"lon":77.48222222222222,"freq":113.2,"range":40,"mag_var":-0.4,"dme_lat":17.905,"dme_lon":77.48222222222222,"icao":"VO","area":"MES","cat":"vhf"},{"ident":"BDR","name":"BRIDGEPORT","type":"VD","lat":41.16070555555556,"lon":-73.12448611111111,"freq":108.8,"range":125,"mag_var":-13,"dme_lat":41.16070555555556,"dme_lon":-73.12448611111111,"icao":"K6","area":"USA","cat":"vhf"},{"ident":"BDT","name":"BOCAS DEL TORO","type":"VD","lat":9.33885,"lon":-82.25176111111111,"freq":114.9,"range":125,"mag_var":-3.9,"dme_lat":9.33885,"dme_lon":-82.25176111111111,"icao":"MP","area":"LAM","cat":"vhf"},{"ident":"BE","name":"BRUNEI INTL","type":"I","lat":null,"lon":null,"freq":108.9,"range":25,"mag_var":-0.5,"dme_lat":4.932777777777778,"dme_lon":114.92027777777778,"icao":"WB","area":"SPA","cat":"vhf"},{"ident":"BEA","name":"BEATRIX ","type":"VD","lat":12.501619444444444,"lon":-70.0208,"freq":113.8,"range":125,"mag_var":-11.7,"dme_lat":12.501619444444444,"dme_lon":-70.0208,"icao":"TN","area":"LAM","cat":"vhf"},{"ident":"BEI","name":"MERIGNAC","type":"I","lat":null,"lon":null,"freq":111.15,"range":25,"mag_var":1.2,"dme_lat":44.82522222222222,"dme_lon":-0.7038888888888889,"icao":"LF","area":"EUR","cat":"vhf"},{"ident":"BEJ","name":"BEJA","type":"T","lat":null,"lon":null,"freq":115.8,"range":125,"mag_var":-0.6,"dme_lat":38.128416666666666,"dme_lon":-7.926694444444444,"icao":"LP","area":"EUR","cat":"vhf"},{"ident":"BEL","name":"BELFAST","type":"VD","lat":54.661144444444446,"lon":-6.229905555555556,"freq":117.2,"range":125,"mag_var":-1.5,"dme_lat":54.661144444444446,"dme_lon":-6.229905555555556,"icao":"EG","area":"EUR","cat":"vhf"},{"ident":"BEL","name":"BELLA","type":"D","lat":null,"lon":null,"freq":114.65,"range":125,"mag_var":5,"dme_lat":55.791111111111114,"dme_lon":12.095833333333333,"icao":"EK","area":"EUR","cat":"vhf"},{"ident":"BEL","name":"BELEM","type":"VD","lat":-1.3843583333333334,"lon":-48.478563888888885,"freq":117.3,"range":125,"mag_var":-20.2,"dme_lat":-1.3843583333333334,"dme_lon":-48.478563888888885,"icao":"SB","area":"SAM","cat":"vhf"},{"ident":"BEN","name":"BENIN","type":"VD","lat":6.2836388888888886,"lon":5.557944444444445,"freq":116.5,"range":130,"mag_var":-0.8,"dme_lat":6.2836388888888886,"dme_lon":5.557944444444445,"icao":"DN","area":"AFR","cat":"vhf"},{"ident":"BEN","name":"BENBECULA","type":"VD","lat":57.47793611111111,"lon":-7.3653,"freq":113.95,"range":125,"mag_var":-2.4,"dme_lat":57.47793611111111,"dme_lon":-7.3653,"icao":"EG","area":"EUR","cat":"vhf"},{"ident":"BER","name":"ADAK ","type":"T","lat":null,"lon":null,"freq":113,"range":125,"mag_var":3.3,"dme_lat":51.871230555555556,"dme_lon":-176.6741111111111,"icao":"PA","area":"CAN","cat":"vhf"},{"ident":"BES","name":"TUMBES","type":"VD","lat":-3.5444055555555556,"lon":-80.38906944444444,"freq":112.9,"range":125,"mag_var":-2.9,"dme_lat":-3.5444055555555556,"dme_lon":-80.38906944444444,"icao":"SP","area":"SAM","cat":"vhf"},{"ident":"BET","name":"BETHEL","type":"VT","lat":60.78483611111111,"lon":-161.82433055555555,"freq":114.1,"range":125,"mag_var":9.3,"dme_lat":60.78483611111111,"dme_lon":-161.82433055555555,"icao":"PA","area":"CAN","cat":"vhf"},{"ident":"BET","name":"BETONG ","type":"VD","lat":5.785472222222222,"lon":101.14408333333333,"freq":113.1,"range":130,"mag_var":-0.2,"dme_lat":5.7855,"dme_lon":101.14397222222222,"icao":"VT","area":"PAC","cat":"vhf"},{"ident":"BF","name":"BAFOUSSAM","type":"VD","lat":5.534927777777778,"lon":10.354277777777778,"freq":116.5,"range":130,"mag_var":0.1,"dme_lat":5.534927777777778,"dme_lon":10.354277777777778,"icao":"FK","area":"AFR","cat":"vhf"},{"ident":"BF","name":"BARDUFOSS","type":"I","lat":null,"lon":null,"freq":108.7,"range":25,"mag_var":10.6,"dme_lat":69.05224444444444,"dme_lon":18.561741666666666,"icao":"EN","area":"EUR","cat":"vhf"},{"ident":"BFD","name":"BRADFORD","type":"D","lat":null,"lon":null,"freq":116.6,"range":125,"mag_var":-10.3,"dme_lat":41.78638611111111,"dme_lon":-78.61934722222222,"icao":"K6","area":"USA","cat":"vhf"},{"ident":"BFF","name":"SCOTTSBLUFF","type":"VT","lat":41.89416388888889,"lon":-103.48203055555555,"freq":112.6,"range":125,"mag_var":6.9,"dme_lat":41.89416388888889,"dme_lon":-103.48203055555555,"icao":"K3","area":"USA","cat":"vhf"},{"ident":"BFM","name":"BROOKLEY ","type":"VT","lat":30.61272222222222,"lon":-88.05549444444445,"freq":116.35,"range":125,"mag_var":-2.9,"dme_lat":30.61272222222222,"dme_lon":-88.05549444444445,"icao":"K7","area":"USA","cat":"vhf"},{"ident":"BFS","name":"FLORENNES","type":"T","lat":null,"lon":null,"freq":111.5,"range":125,"mag_var":2.6,"dme_lat":50.241416666666666,"dme_lon":4.65325,"icao":"EB","area":"EUR","cat":"vhf"},{"ident":"BFV","name":"BURNS FLAT ","type":"VT","lat":35.23694444444445,"lon":-99.20616666666666,"freq":110,"range":125,"mag_var":4.1,"dme_lat":35.23694444444445,"dme_lon":-99.20616666666666,"icao":"K4","area":"USA","cat":"vhf"},{"ident":"BG","name":"BELAYA GORA","type":"D","lat":null,"lon":null,"freq":110,"range":125,"mag_var":-15.9,"dme_lat":68.55361111111111,"dme_lon":146.22722222222222,"icao":"UE","area":"EEU","cat":"vhf"},{"ident":"BG","name":"BOGORODSKOYE","type":"D","lat":null,"lon":null,"freq":114.6,"range":125,"mag_var":-12.7,"dme_lat":52.379,"dme_lon":140.44569444444446,"icao":"UH","area":"EEU","cat":"vhf"},{"ident":"BG","name":"FLESLAND","type":"I","lat":null,"lon":null,"freq":110.5,"range":25,"mag_var":2.7,"dme_lat":60.285536111111114,"dme_lon":5.219227777777777,"icao":"EN","area":"EUR","cat":"vhf"},{"ident":"BG","name":"GUIPAVAS","type":"I","lat":null,"lon":null,"freq":109.9,"range":25,"mag_var":-0.1,"dme_lat":48.45172222222222,"dme_lon":-4.406694444444445,"icao":"LF","area":"EUR","cat":"vhf"},{"ident":"BG","name":"BEN GURION","type":"I","lat":null,"lon":null,"freq":110.3,"range":25,"mag_var":5,"dme_lat":32.011808333333335,"dme_lon":34.868991666666666,"icao":"LL","area":"MES","cat":"vhf"},{"ident":"BGD","name":"BELGRADE","type":"VD","lat":44.819361111111114,"lon":20.311166666666665,"freq":112.05,"range":90,"mag_var":5.6,"dme_lat":44.81944444444444,"dme_lon":20.31125,"icao":"LY","area":"EUR","cat":"vhf"},{"ident":"BGD","name":"BAGHDAD","type":"VD","lat":33.29211111111111,"lon":44.22544444444444,"freq":112.9,"range":130,"mag_var":4.8,"dme_lat":33.29211111111111,"dme_lon":44.22544444444444,"icao":"OR","area":"MES","cat":"vhf"},{"ident":"BGD","name":"BAGDOGRA","type":"VD","lat":26.688333333333333,"lon":88.32611111111112,"freq":115.2,"range":150,"mag_var":0,"dme_lat":26.688333333333333,"dme_lon":88.32611111111112,"icao":"VE","area":"MES","cat":"vhf"},{"ident":"BGD","name":"BORGER","type":"T","lat":null,"lon":null,"freq":108.6,"range":125,"mag_var":5.3,"dme_lat":35.807072222222224,"dme_lon":-101.38215277777778,"icao":"K4","area":"USA","cat":"vhf"},{"ident":"BGE","name":"BUNGE","type":"D","lat":null,"lon":null,"freq":116.6,"range":125,"mag_var":7.6,"dme_lat":57.85191666666667,"dme_lon":19.029611111111112,"icao":"ES","area":"EUR","cat":"vhf"},{"ident":"BGE","name":"BAGE","type":"V","lat":-31.39071388888889,"lon":-54.109716666666664,"freq":115.3,"range":125,"mag_var":-15.2,"dme_lat":null,"dme_lon":null,"icao":"SB","area":"SAM","cat":"vhf"},{"ident":"BGI","name":"M'POKO","type":"I","lat":null,"lon":null,"freq":110.3,"range":25,"mag_var":1.6,"dme_lat":4.390888888888889,"dme_lon":18.522655555555556,"icao":"FE","area":"AFR","cat":"vhf"},{"ident":"BGI","name":"ADAMS ","type":"VD","lat":13.07505,"lon":-59.483827777777776,"freq":112.7,"range":125,"mag_var":-16,"dme_lat":13.07505,"dme_lon":-59.483827777777776,"icao":"TB","area":"LAM","cat":"vhf"},{"ident":"BGM","name":"BAGRAM","type":"VT","lat":34.950380555555554,"lon":69.27150555555555,"freq":112.7,"range":40,"mag_var":3.5,"dme_lat":34.950380555555554,"dme_lon":69.27150555555555,"icao":"OA","area":"MES","cat":"vhf"},{"ident":"BGN","name":"BEN GURION ","type":"VD","lat":32.01311111111111,"lon":34.87536111111111,"freq":113.5,"range":40,"mag_var":5,"dme_lat":32.01311111111111,"dme_lon":34.87536111111111,"icao":"LL","area":"MES","cat":"vhf"},{"ident":"BGN","name":"BAGAN","type":"VD","lat":21.16953611111111,"lon":94.92815277777778,"freq":114.9,"range":40,"mag_var":-0.7,"dme_lat":21.16953611111111,"dme_lon":94.92815277777778,"icao":"VY","area":"PAC","cat":"vhf"},{"ident":"BGO","name":"BAGO","type":"VD","lat":17.318494444444443,"lon":96.519875,"freq":112.6,"range":180,"mag_var":-0.8,"dme_lat":17.318494444444443,"dme_lon":96.519875,"icao":"VY","area":"PAC","cat":"vhf"},{"ident":"BGQ","name":"BIG LAKE","type":"VT","lat":61.569433333333336,"lon":-149.96715833333334,"freq":112.5,"range":125,"mag_var":14.2,"dme_lat":61.569433333333336,"dme_lon":-149.96715833333334,"icao":"PA","area":"CAN","cat":"vhf"},{"ident":"BGR","name":"BENGUERIR","type":"VD","lat":32.15777777777778,"lon":-7.880833333333333,"freq":115.4,"range":125,"mag_var":-0.7,"dme_lat":32.15777777777778,"dme_lon":-7.880833333333333,"icao":"GM","area":"AFR","cat":"vhf"},{"ident":"BGR","name":"BAGUR","type":"VD","lat":41.947694444444444,"lon":3.208861111111111,"freq":112.2,"range":130,"mag_var":2.2,"dme_lat":41.947694444444444,"dme_lon":3.2090833333333335,"icao":"LE","area":"EUR","cat":"vhf"},{"ident":"BGR","name":"BANGOR","type":"VT","lat":44.841794444444446,"lon":-68.87396666666666,"freq":114.8,"range":125,"mag_var":-15.2,"dme_lat":44.841794444444446,"dme_lon":-68.87396666666666,"icao":"K6","area":"USA","cat":"vhf"},{"ident":"BGS","name":"BURGAS","type":"VD","lat":42.58716666666667,"lon":27.537972222222223,"freq":112,"range":150,"mag_var":6.2,"dme_lat":42.58716666666667,"dme_lon":27.537972222222223,"icao":"LB","area":"EEU","cat":"vhf"},{"ident":"BGS","name":"BEGISHEVO","type":"VD","lat":55.56275,"lon":52.08430555555555,"freq":111.6,"range":130,"mag_var":14.2,"dme_lat":55.56275,"dme_lon":52.08430555555555,"icao":"UW","area":"EEU","cat":"vhf"},{"ident":"BGS","name":"BARRA DO GARCAS","type":"D","lat":null,"lon":null,"freq":114,"range":125,"mag_var":-20.5,"dme_lat":-15.856111111111112,"dme_lon":-52.38944444444444,"icao":"SB","area":"SAM","cat":"vhf"},{"ident":"BGS","name":"BIG SPRING","type":"VT","lat":32.38558888888889,"lon":-101.48368333333333,"freq":117.2,"range":125,"mag_var":5.2,"dme_lat":32.38558888888889,"dme_lon":-101.48368333333333,"icao":"K4","area":"USA","cat":"vhf"},{"ident":"BH","name":"LANN-BIHOUE NAVY","type":"I","lat":null,"lon":null,"freq":108.15,"range":25,"mag_var":0.3,"dme_lat":47.76283333333333,"dme_lon":-3.435277777777778,"icao":"LF","area":"EUR","cat":"vhf"},{"ident":"BHA","name":"AL BAHA","type":"VT","lat":20.292472222222223,"lon":41.62913888888889,"freq":113.5,"range":130,"mag_var":3.2,"dme_lat":20.292472222222223,"dme_lon":41.62913888888889,"icao":"OE","area":"MES","cat":"vhf"},{"ident":"BHD","name":"BERRY HEAD","type":"VD","lat":50.3986,"lon":-3.493688888888889,"freq":112.05,"range":125,"mag_var":0,"dme_lat":50.3986,"dme_lon":-3.493688888888889,"icao":"EG","area":"EUR","cat":"vhf"},{"ident":"BHE","name":"BIHORO","type":"VD","lat":43.87643333333333,"lon":144.161025,"freq":117.5,"range":125,"mag_var":-9.6,"dme_lat":43.87643333333333,"dme_lon":144.161025,"icao":"RJ","area":"PAC","cat":"vhf"},{"ident":"BHI","name":"BROKEN HILL","type":"VD","lat":-32.00066666666667,"lon":141.47997222222222,"freq":114.2,"range":125,"mag_var":8.5,"dme_lat":-32.00066666666667,"dme_lon":141.47980555555554,"icao":"YM","area":"SPA","cat":"vhf"},{"ident":"BHL","name":"PANGLAO","type":"VD","lat":9.572694444444444,"lon":123.76761111111111,"freq":116.2,"range":130,"mag_var":-1.9,"dme_lat":9.572694444444444,"dme_lon":123.76761111111111,"icao":"RP","area":"PAC","cat":"vhf"},{"ident":"BHO","name":"BARAHONA","type":"VD","lat":18.254444444444445,"lon":-71.13027777777778,"freq":112,"range":125,"mag_var":-11.5,"dme_lat":18.254444444444445,"dme_lon":-71.13027777777778,"icao":"MD","area":"LAM","cat":"vhf"},{"ident":"BHR","name":"BAHRAIN","type":"VD","lat":26.258333333333333,"lon":50.65532777777778,"freq":111.8,"range":130,"mag_var":2.9,"dme_lat":26.258333333333333,"dme_lon":50.65532777777778,"icao":"OB","area":"MES","cat":"vhf"},{"ident":"BHS","name":"BAIHESI","type":"VD","lat":30.511666666666667,"lon":104.2,"freq":117.9,"range":130,"mag_var":-2.5,"dme_lat":30.511666666666667,"dme_lon":104.2,"icao":"ZU","area":"EEU","cat":"vhf"},{"ident":"BHS","name":"SARAJEVO","type":"I","lat":null,"lon":null,"freq":110.7,"range":25,"mag_var":5.1,"dme_lat":43.82942222222222,"dme_lon":18.3218,"icao":"LQ","area":"EUR","cat":"vhf"},{"ident":"BHU","name":"BHUJ","type":"VD","lat":23.280244444444445,"lon":69.66575833333333,"freq":112.6,"range":150,"mag_var":0.9,"dme_lat":23.280244444444445,"dme_lon":69.66575833333333,"icao":"VA","area":"MES","cat":"vhf"},{"ident":"BHY","name":"NANKANG","type":"VD","lat":21.586666666666666,"lon":109.43166666666667,"freq":117.1,"range":130,"mag_var":-2.3,"dme_lat":21.586666666666666,"dme_lon":109.43166666666667,"icao":"ZG","area":"EEU","cat":"vhf"},{"ident":"BHZ","name":"BELO HORIZONTE","type":"VD","lat":-19.835769444444445,"lon":-44.00356111111111,"freq":117.7,"range":125,"mag_var":-23,"dme_lat":-19.835769444444445,"dme_lon":-44.00356111111111,"icao":"SB","area":"SAM","cat":"vhf"},{"ident":"BI","name":"MOHAMED KHIDER","type":"I","lat":null,"lon":null,"freq":110.9,"range":25,"mag_var":2.4,"dme_lat":34.784755555555556,"dme_lon":5.748869444444445,"icao":"DA","area":"AFR","cat":"vhf"},{"ident":"BI","name":"TILLE","type":"I","lat":null,"lon":null,"freq":109.95,"range":25,"mag_var":1.9,"dme_lat":49.446555555555555,"dme_lon":2.1279444444444446,"icao":"LF","area":"EUR","cat":"vhf"},{"ident":"BI","name":"BRUNEI INTL","type":"I","lat":null,"lon":null,"freq":109.7,"range":25,"mag_var":-0.5,"dme_lat":4.956388888888889,"dme_lon":114.93416666666667,"icao":"WB","area":"SPA","cat":"vhf"},{"ident":"BIA","name":"LEGNICA","type":"D","lat":null,"lon":null,"freq":117.35,"range":125,"mag_var":5.6,"dme_lat":51.293055555555554,"dme_lon":15.921944444444444,"icao":"EP","area":"EEU","cat":"vhf"},{"ident":"BIA","name":"BENGALURU","type":"VD","lat":13.209138888888889,"lon":77.69469444444445,"freq":116.8,"range":125,"mag_var":-1.1,"dme_lat":13.209138888888889,"dme_lon":77.69469444444445,"icao":"VO","area":"MES","cat":"vhf"},{"ident":"BIB","name":"BIBLE GROVE","type":"VT","lat":38.920344444444446,"lon":-88.48180555555555,"freq":109,"range":125,"mag_var":-3.2,"dme_lat":38.920344444444446,"dme_lon":-88.48180555555555,"icao":"K5","area":"USA","cat":"vhf"},{"ident":"BIE","name":"BEATRICE","type":"V","lat":40.301427777777775,"lon":-96.75464444444444,"freq":110.6,"range":125,"mag_var":2.6,"dme_lat":null,"dme_lon":null,"icao":"K3","area":"USA","cat":"vhf"},{"ident":"BIG","name":"BIG DELTA","type":"VT","lat":64.00446111111111,"lon":-145.71724722222223,"freq":114.9,"range":125,"mag_var":15.7,"dme_lat":64.00446111111111,"dme_lon":-145.71724722222223,"icao":"PA","area":"CAN","cat":"vhf"},{"ident":"BIG","name":"BIGGIN","type":"VD","lat":51.330875,"lon":0.03481111111111111,"freq":115.1,"range":125,"mag_var":1.1,"dme_lat":51.330875,"dme_lon":0.03481111111111111,"icao":"EG","area":"EUR","cat":"vhf"},{"ident":"BIG","name":"BIGA","type":"VD","lat":40.28438888888889,"lon":27.36552777777778,"freq":116.9,"range":50,"mag_var":5.8,"dme_lat":40.28438888888889,"dme_lon":27.36552777777778,"icao":"LT","area":"MES","cat":"vhf"},{"ident":"BIG","name":"BIGUACU","type":"D","lat":null,"lon":null,"freq":113.7,"range":125,"mag_var":-20,"dme_lat":-27.621855555555555,"dme_lon":-48.632463888888886,"icao":"SB","area":"SAM","cat":"vhf"},{"ident":"BIH","name":"BISHOP","type":"VD","lat":37.37695,"lon":-118.36652777777778,"freq":113.35,"range":125,"mag_var":12.1,"dme_lat":37.37695,"dme_lon":-118.36652777777778,"icao":"K2","area":"USA","cat":"vhf"},{"ident":"BIK","name":"BIRNIN KEBBI","type":"VD","lat":12.490916666666667,"lon":4.3901111111111115,"freq":112.2,"range":130,"mag_var":-0.1,"dme_lat":12.490916666666667,"dme_lon":4.3901111111111115,"icao":"DN","area":"AFR","cat":"vhf"},{"ident":"BIK","name":"BICOL","type":"VD","lat":13.114166666666666,"lon":123.67641666666667,"freq":113.6,"range":125,"mag_var":-2.6,"dme_lat":13.114166666666666,"dme_lon":123.67641666666667,"icao":"RP","area":"PAC","cat":"vhf"},{"ident":"BIK","name":"BIAK","type":"VD","lat":-1.1824722222222221,"lon":136.08613888888888,"freq":112.5,"range":125,"mag_var":1.5,"dme_lat":-1.1824722222222221,"dme_lon":136.08613888888888,"icao":"WA","area":"SPA","cat":"vhf"},{"ident":"BIL","name":"BILLUND","type":"I","lat":null,"lon":null,"freq":109.75,"range":25,"mag_var":4.1,"dme_lat":55.74131666666667,"dme_lon":9.139119444444445,"icao":"EK","area":"EUR","cat":"vhf"},{"ident":"BIL","name":"BEIRUT","type":"I","lat":null,"lon":null,"freq":109.5,"range":25,"mag_var":5.2,"dme_lat":33.83520277777778,"dme_lon":35.48873888888889,"icao":"OL","area":"MES","cat":"vhf"},{"ident":"BIL","name":"BILLINGS","type":"VT","lat":45.80855833333333,"lon":-108.62464722222222,"freq":114.5,"range":125,"mag_var":10.1,"dme_lat":45.80855833333333,"dme_lon":-108.62464722222222,"icao":"K1","area":"USA","cat":"vhf"},{"ident":"BIS","name":"BISKRA","type":"VD","lat":34.77608611111111,"lon":5.763730555555556,"freq":115,"range":130,"mag_var":2.4,"dme_lat":34.77608611111111,"dme_lon":5.763730555555556,"icao":"DA","area":"AFR","cat":"vhf"},{"ident":"BIS","name":"BISSAU","type":"VD","lat":11.920636111111111,"lon":-15.644841666666666,"freq":114.3,"range":125,"mag_var":-5.8,"dme_lat":11.920636111111111,"dme_lon":-15.644841666666666,"icao":"GG","area":"AFR","cat":"vhf"},{"ident":"BIS","name":"BISMARCK","type":"VD","lat":46.76176111111111,"lon":-100.66540833333333,"freq":115.65,"range":125,"mag_var":5.4,"dme_lat":46.76176111111111,"dme_lon":-100.66540833333333,"icao":"K3","area":"USA","cat":"vhf"},{"ident":"BIX","name":"KEESLER ","type":"T","lat":null,"lon":null,"freq":111.8,"range":125,"mag_var":-2.3,"dme_lat":30.407086111111113,"dme_lon":-88.92971388888888,"icao":"K7","area":"USA","cat":"vhf"},{"ident":"BIZ","name":"BIZERTE","type":"VD","lat":37.23661111111111,"lon":9.766388888888889,"freq":114.2,"range":130,"mag_var":3.2,"dme_lat":37.23661111111111,"dme_lon":9.766388888888889,"icao":"DT","area":"AFR","cat":"vhf"},{"ident":"BJ","name":"SOUMMAM-ABANE RAMDANE","type":"I","lat":null,"lon":null,"freq":110.5,"range":25,"mag_var":2.4,"dme_lat":36.71241111111111,"dme_lon":5.079791666666667,"icao":"DA","area":"AFR","cat":"vhf"},{"ident":"BJ","name":"BANJUL YUNDUM","type":"VD","lat":13.3381,"lon":-16.65551111111111,"freq":112.9,"range":125,"mag_var":-5.9,"dme_lat":13.3381,"dme_lon":-16.65551111111111,"icao":"GB","area":"AFR","cat":"vhf"},{"ident":"BJ","name":"BELY","type":"D","lat":null,"lon":null,"freq":114.2,"range":125,"mag_var":11,"dme_lat":55.854166666666664,"dme_lon":32.93888888888889,"icao":"UU","area":"EEU","cat":"vhf"},{"ident":"BJ","name":"BEJA AB","type":"I","lat":null,"lon":null,"freq":110.3,"range":25,"mag_var":-0.6,"dme_lat":38.09161111111111,"dme_lon":-7.932666666666667,"icao":"LP","area":"EUR","cat":"vhf"},{"ident":"BJA","name":"BEJAIA","type":"VD","lat":36.71456944444444,"lon":5.0803972222222225,"freq":113,"range":130,"mag_var":2.4,"dme_lat":36.71456944444444,"dme_lon":5.0803972222222225,"icao":"DA","area":"AFR","cat":"vhf"},{"ident":"BJA","name":"BUJUMBURA","type":"VD","lat":-3.346338888888889,"lon":29.322025,"freq":112.3,"range":125,"mag_var":0.8,"dme_lat":-3.346338888888889,"dme_lon":29.322025,"icao":"HB","area":"AFR","cat":"vhf"},{"ident":"BJA","name":"BURLINGTON","type":"T","lat":null,"lon":null,"freq":112.4,"range":125,"mag_var":-13.6,"dme_lat":44.476933333333335,"dme_lon":-73.15676388888889,"icao":"K6","area":"USA","cat":"vhf"},{"ident":"BJB","name":"WEST BEND","type":"V","lat":43.42197222222222,"lon":-88.12518055555556,"freq":109.8,"range":125,"mag_var":-3.9,"dme_lat":null,"dme_lon":null,"icao":"K5","area":"USA","cat":"vhf"},{"ident":"BJC","name":"JEFFCO ","type":"VD","lat":39.91303888888889,"lon":-105.13898611111111,"freq":115.4,"range":125,"mag_var":7.6,"dme_lat":39.91303888888889,"dme_lon":-105.13898611111111,"icao":"K2","area":"USA","cat":"vhf"},{"ident":"BJD","name":"BIRJAND","type":"VD","lat":32.97241666666667,"lon":59.20013888888889,"freq":113.5,"range":130,"mag_var":3.7,"dme_lat":32.97241666666667,"dme_lon":59.20013888888889,"icao":"OI","area":"MES","cat":"vhf"},{"ident":"BJX","name":"LEON","type":"VD","lat":20.997558333333334,"lon":-101.48258888888888,"freq":115.8,"range":125,"mag_var":4.9,"dme_lat":20.997558333333334,"dme_lon":-101.48258888888888,"icao":"MM","area":"LAM","cat":"vhf"},{"ident":"BJZ","name":"BEIJIAZAO","type":"VD","lat":40.055,"lon":113.49333333333334,"freq":108.2,"range":125,"mag_var":-6.7,"dme_lat":40.055,"dme_lon":113.49333333333334,"icao":"ZB","area":"EEU","cat":"vhf"},{"ident":"BK","name":"BANAK","type":"I","lat":null,"lon":null,"freq":109.35,"range":25,"mag_var":14.6,"dme_lat":70.07225277777778,"dme_lon":24.976941666666665,"icao":"EN","area":"EUR","cat":"vhf"},{"ident":"BKA","name":"BIORKA ISLAND ","type":"VT","lat":56.859408333333334,"lon":-135.55131111111112,"freq":113.8,"range":125,"mag_var":17.4,"dme_lat":56.859408333333334,"dme_lon":-135.55131111111112,"icao":"PA","area":"CAN","cat":"vhf"},{"ident":"BKD","name":"BRUENKENDORF","type":"VD","lat":53.034525,"lon":11.546216666666666,"freq":117.7,"range":80,"mag_var":4.6,"dme_lat":53.034525,"dme_lon":11.546216666666666,"icao":"ED","area":"EUR","cat":"vhf"},{"ident":"BKE","name":"BAKER CITY","type":"VD","lat":44.8406,"lon":-117.80786944444445,"freq":115.3,"range":125,"mag_var":13.4,"dme_lat":44.8406,"dme_lon":-117.80786944444445,"icao":"K1","area":"USA","cat":"vhf"},{"ident":"BKF","name":"BUCKLEY ","type":"T","lat":null,"lon":null,"freq":109.6,"range":125,"mag_var":7.4,"dme_lat":39.70738611111111,"dme_lon":-104.75238611111111,"icao":"K2","area":"USA","cat":"vhf"},{"ident":"BKK","name":"BANGKOK","type":"VD","lat":13.893555555555556,"lon":100.59619444444445,"freq":117.7,"range":130,"mag_var":-0.7,"dme_lat":13.893555555555556,"dme_lon":100.59619444444445,"icao":"VT","area":"PAC","cat":"vhf"},{"ident":"BKL","name":"BENGKULU","type":"VD","lat":-3.86475,"lon":102.3428611111111,"freq":114.3,"range":125,"mag_var":0.3,"dme_lat":-3.86475,"dme_lon":102.3428611111111,"icao":"WI","area":"SPA","cat":"vhf"},{"ident":"BKN","name":"MAASTRICHT-AACHEN","type":"I","lat":null,"lon":null,"freq":111.55,"range":25,"mag_var":2.9,"dme_lat":50.92238888888889,"dme_lon":5.77975,"icao":"EH","area":"EUR","cat":"vhf"},{"ident":"BKO","name":"BAMAKO","type":"VD","lat":12.546611111111112,"lon":-7.929694444444444,"freq":113.7,"range":125,"mag_var":-3,"dme_lat":12.546611111111112,"dme_lon":-7.929694444444444,"icao":"GA","area":"AFR","cat":"vhf"},{"ident":"BKS","name":"BEKES","type":"VD","lat":46.79997222222222,"lon":21.073888888888888,"freq":115.8,"range":100,"mag_var":6,"dme_lat":46.79997222222222,"dme_lon":21.073888888888888,"icao":"LH","area":"EEU","cat":"vhf"},{"ident":"BKU","name":"BAKURIANI","type":"D","lat":null,"lon":null,"freq":110.6,"range":125,"mag_var":7,"dme_lat":41.694722222222225,"dme_lon":43.54333333333334,"icao":"UG","area":"EEU","cat":"vhf"},